{
  "type": "FeatureCollection",
  "generator": "overpass-ide",
  "copyright": "The data included in this document is from www.openstreetmap.org. The data is made available under ODbL.",
  "timestamp": "2023-03-05T23:47:24Z",
  "features": [
    {
      "type": "Feature",
      "properties": {
        "@id": "node/266310881",
        "amenity": "drinking_water"
      },
      "geometry": {
        "type": "Point",
        "coordinates": [
          12.4934985,
          41.8923773
        ]
      },
      "id": "node/266310881"
    },
    {
      "type": "Feature",
      "properties": {
        "@id": "node/388984003",
        "amenity": "drinking_water",
        "fountain": "nasone"
      },
      "geometry": {
        "type": "Point",
        "coordinates": [
          12.494519,
          41.8877413
        ]
      },
      "id": "node/388984003"
    },
    {
      "type": "Feature",
      "properties": {
        "@id": "node/443921052",
        "addr:city": "Saint Cloud",
        "addr:housenumber": "2510",
        "addr:postcode": "56301",
        "addr:state": "MN",
        "addr:street": "West Division Street",
        "name": "Lunds & Byerlys",
        "old_name": "Byerly's",
        "opening_hours": "06:00-22:00",
        "phone": "+1 320 252 4112",
        "ref": "1004",
        "shop": "supermarket",
        "website": "https://lundsandbyerlys.com/our-stores/locations/st-cloud/"
      },
      "geometry": {
        "type": "Point",
        "coordinates": [
          -94.1885176,
          45.5519322
        ]
      },
      "id": "node/443921052"
    },
    {
      "type": "Feature",
      "properties": {
        "@id": "node/453887805",
        "name": "Mr. Santana",
        "opening_hours": "Su-Th 09:00-03:00, Fr,Sa 09:00-04:00",
        "shop": "convenience"
      },
      "geometry": {
        "type": "Point",
        "coordinates": [
          -93.2473851,
          44.9839668
        ]
      },
      "id": "node/453887805"
    },
    {
      "type": "Feature",
      "properties": {
        "@id": "node/456702557",
        "addr:city": "Lexington",
        "addr:housenumber": "9101",
        "addr:postcode": "55014",
        "addr:state": "MN",
        "addr:street": "South Highway Drive",
        "name": "Festival Foods",
        "opening_hours": "Mo-Su 06:00-22:00",
        "shop": "supermarket",
        "website": "https://festivalfoods.net/locations/lex"
      },
      "geometry": {
        "type": "Point",
        "coordinates": [
          -93.1685558,
          45.1368709
        ]
      },
      "id": "node/456702557"
    },
    {
      "type": "Feature",
      "properties": {
        "@id": "node/459991084",
        "closed": "permanently",
        "name": "Rainbow Foods",
        "shop": "supermarket"
      },
      "geometry": {
        "type": "Point",
        "coordinates": [
          -93.2195662,
          44.7298678
        ]
      },
      "id": "node/459991084"
    },
    {
      "type": "Feature",
      "properties": {
        "@id": "node/460005310",
        "shop": "convenience"
      },
      "geometry": {
        "type": "Point",
        "coordinates": [
          -93.1376151,
          44.8428542
        ]
      },
      "id": "node/460005310"
    },
    {
      "type": "Feature",
      "properties": {
        "@id": "node/460005315",
        "addr:city": "Eagan",
        "addr:housenumber": "1299",
        "addr:postcode": "55121",
        "addr:state": "MN",
        "addr:street": "Promenade Place",
        "brand": "Lunds & Byerlys",
        "brand:wikidata": "Q6704067",
        "brand:wikipedia": "en:Lunds & Byerlys",
        "name": "Lunds & Byerlys",
        "old_name": "Byerly's",
        "opening_hours": "06:00-22:00",
        "phone": "+1 651 686 9669",
        "ref": "1013",
        "shop": "supermarket",
        "website": "https://lundsandbyerlys.com/our-stores/locations/eagan/"
      },
      "geometry": {
        "type": "Point",
        "coordinates": [
          -93.1584977,
          44.8361777
        ]
      },
      "id": "node/460005315"
    },
    {
      "type": "Feature",
      "properties": {
        "@id": "node/462681098",
        "addr:housenumber": "630",
        "addr:postcode": "55414",
        "addr:street": "Southeast 8th Street ",
        "alt_name": "Eighth Street Market",
        "name": "8th Street Market",
        "shop": "convenience",
        "source": "local_knowledge"
      },
      "geometry": {
        "type": "Point",
        "coordinates": [
          -93.2426233,
          44.9882409
        ]
      },
      "id": "node/462681098"
    },
    {
      "type": "Feature",
      "properties": {
        "@id": "node/471042595",
        "name": "Holiday Station Store",
        "shop": "convenience"
      },
      "geometry": {
        "type": "Point",
        "coordinates": [
          -93.2081123,
          44.7459135
        ]
      },
      "id": "node/471042595"
    },
    {
      "type": "Feature",
      "properties": {
        "@id": "node/489170740",
        "addr:city": "Saint Paul",
        "addr:housenumber": "2128",
        "addr:postcode": "55116",
        "addr:state": "MN",
        "addr:street": "Ford Parkway",
        "brand": "Lunds & Byerlys",
        "brand:wikidata": "Q6704067",
        "brand:wikipedia": "en:Lunds & Byerlys",
        "name": "Lunds & Byerlys",
        "opening_hours": "06:00-22:00",
        "phone": "+1 651 698 5845",
        "ref": "51007",
        "shop": "supermarket",
        "website": "https://lundsandbyerlys.com/our-stores/locations/highland-park/"
      },
      "geometry": {
        "type": "Point",
        "coordinates": [
          -93.190844,
          44.916999
        ]
      },
      "id": "node/489170740"
    },
    {
      "type": "Feature",
      "properties": {
        "@id": "node/495113034",
        "amenity": "drinking_water",
        "check_date": "2022-06-22"
      },
      "geometry": {
        "type": "Point",
        "coordinates": [
          12.4934283,
          41.8913309
        ]
      },
      "id": "node/495113034"
    },
    {
      "type": "Feature",
      "properties": {
        "@id": "node/496278582",
        "addr:city": "Lakeville",
        "addr:postcode": "55044",
        "addr:state": "MN",
        "addr:street": "Kenwood Trail Court",
        "brand": "Cub Foods",
        "brand:wikidata": "Q5191916",
        "brand:wikipedia": "en:Cub Foods",
        "contact:phone": "+1-952-898-4500",
        "name": "Cub Foods",
        "opening_hours": "24/7",
        "shop": "supermarket",
        "website": "https://www.cub.com/stores/view-store.1597.html"
      },
      "geometry": {
        "type": "Point",
        "coordinates": [
          -93.2812508,
          44.6922692
        ]
      },
      "id": "node/496278582"
    },
    {
      "type": "Feature",
      "properties": {
        "@id": "node/496278584",
        "addr:city": "Lakeville",
        "addr:housenumber": "20250",
        "addr:postcode": "55044",
        "addr:state": "MN",
        "addr:street": "Heritage Drive",
        "brand": "Cub Foods",
        "brand:wikidata": "Q5191916",
        "brand:wikipedia": "en:Cub Foods",
        "name": "Cub Foods",
        "note": "location approximate",
        "ref": "1657",
        "shop": "supermarket"
      },
      "geometry": {
        "type": "Point",
        "coordinates": [
          -93.2517476,
          44.6588408
        ]
      },
      "id": "node/496278584"
    },
    {
      "type": "Feature",
      "properties": {
        "@id": "node/506345938",
        "name": "Mark's Service Station",
        "shop": "convenience"
      },
      "geometry": {
        "type": "Point",
        "coordinates": [
          -93.9723627,
          45.0646953
        ]
      },
      "id": "node/506345938"
    },
    {
      "type": "Feature",
      "properties": {
        "@id": "node/514716686",
        "shop": "convenience"
      },
      "geometry": {
        "type": "Point",
        "coordinates": [
          -93.3556172,
          44.9090331
        ]
      },
      "id": "node/514716686"
    },
    {
      "type": "Feature",
      "properties": {
        "@id": "node/530282293",
        "name": "Super Target",
        "operator": "Target",
        "shop": "supermarket"
      },
      "geometry": {
        "type": "Point",
        "coordinates": [
          -93.3773183,
          44.7439751
        ]
      },
      "id": "node/530282293"
    },
    {
      "type": "Feature",
      "properties": {
        "@id": "node/544133945",
        "addr:housenumber": "2100",
        "addr:street": "Snelling Avenue North",
        "addr:unit": "29",
        "brand": "Cub Foods",
        "brand:wikidata": "Q5191916",
        "brand:wikipedia": "en:Cub (supermarket)",
        "name": "Cub Foods",
        "phone": "+1-651-633-9740",
        "shop": "supermarket",
        "website": "https://www.cub.com/stores/view-store.1155493.html"
      },
      "geometry": {
        "type": "Point",
        "coordinates": [
          -93.1628369,
          45.0027222
        ]
      },
      "id": "node/544133945"
    },
    {
      "type": "Feature",
      "properties": {
        "@id": "node/544134752",
        "addr:city": "Roseville",
        "addr:housenumber": "1201",
        "addr:postcode": "55113",
        "addr:state": "MN",
        "addr:street": "Larpenteur Avenue West",
        "brand": "Cub Foods",
        "brand:wikidata": "Q5191916",
        "brand:wikipedia": "en:Cub Foods",
        "name": "Cub Foods",
        "opening_hours": "Mo-Su 05:00-00:00",
        "phone": "+1-651-488-1825",
        "shop": "supermarket",
        "website": "https://www.cub.com/stores/view-store.1155493.html"
      },
      "geometry": {
        "type": "Point",
        "coordinates": [
          -93.1505955,
          44.9935688
        ]
      },
      "id": "node/544134752"
    },
    {
      "type": "Feature",
      "properties": {
        "@id": "node/544270122",
        "addr:city": "Saint Louis Park",
        "addr:housenumber": "4500",
        "addr:postcode": "55416",
        "addr:state": "MN",
        "addr:street": "Excelsior Boulevard",
        "brand": "Trader Joe's",
        "brand:wikidata": "Q688825",
        "brand:wikipedia": "en:Trader Joe's",
        "name": "Trader Joe's",
        "opening_hours": "Mo-Su 09:00-21:00; PH closed",
        "shop": "supermarket"
      },
      "geometry": {
        "type": "Point",
        "coordinates": [
          -93.33746,
          44.9344763
        ]
      },
      "id": "node/544270122"
    },
    {
      "type": "Feature",
      "properties": {
        "@id": "node/546277193",
        "addr:city": "Edina",
        "addr:housenumber": "6775",
        "addr:postcode": "55435",
        "addr:street": "York Avenue South",
        "brand": "Cub Foods",
        "brand:wikidata": "Q5191916",
        "brand:wikipedia": "en:Cub Foods",
        "name": "Cub Foods",
        "opening_hours": "24/7",
        "phone": "+1 952 929 9330",
        "shop": "supermarket",
        "website": "https://www.cub.com/"
      },
      "geometry": {
        "type": "Point",
        "coordinates": [
          -93.3198233,
          44.8803597
        ]
      },
      "id": "node/546277193"
    },
    {
      "type": "Feature",
      "properties": {
        "@id": "node/560435118",
        "name": "Super One",
        "shop": "supermarket"
      },
      "geometry": {
        "type": "Point",
        "coordinates": [
          -91.6797193,
          47.0273117
        ]
      },
      "id": "node/560435118"
    },
    {
      "type": "Feature",
      "properties": {
        "@id": "node/567254218",
        "amenity": "fuel",
        "name": "Kwik Trip",
        "shop": "convenience"
      },
      "geometry": {
        "type": "Point",
        "coordinates": [
          -92.0040306,
          44.3070458
        ]
      },
      "id": "node/567254218"
    },
    {
      "type": "Feature",
      "properties": {
        "@id": "node/567425881",
        "name": "Teals Market",
        "shop": "supermarket"
      },
      "geometry": {
        "type": "Point",
        "coordinates": [
          -94.7304728,
          45.3710593
        ]
      },
      "id": "node/567425881"
    },
    {
      "type": "Feature",
      "properties": {
        "@id": "node/571153113",
        "addr:city": "Minneapolis",
        "addr:housenumber": "2440",
        "addr:postcode": "55405",
        "addr:street": "Hennepin Avenue South",
        "name": "Kowalski's Uptown Market",
        "opening_hours": "06:00-24:00; PH closed",
        "operator": "Kowalski's Markets",
        "phone": "+1 612 377 3448",
        "shop": "supermarket",
        "website": "https://www.kowalskis.com/location/kowalskis-uptown-market",
        "wheelchair": "yes"
      },
      "geometry": {
        "type": "Point",
        "coordinates": [
          -93.2960541,
          44.9578787
        ]
      },
      "id": "node/571153113"
    },
    {
      "type": "Feature",
      "properties": {
        "@id": "node/577477446",
        "addr:housenumber": "2080",
        "addr:postcode": "55116",
        "addr:street": "Ford Parkway",
        "name": "TargetExpress",
        "old_name": "Barnes & Noble",
        "old_name:end_date": "2014-12-31",
        "shop": "supermarket",
        "start_date": "2015-07-26"
      },
      "geometry": {
        "type": "Point",
        "coordinates": [
          -93.1882529,
          44.9175551
        ]
      },
      "id": "node/577477446"
    },
    {
      "type": "Feature",
      "properties": {
        "@id": "node/583262441",
        "amenity": "fuel",
        "name": "Bill's Superette",
        "shop": "convenience"
      },
      "geometry": {
        "type": "Point",
        "coordinates": [
          -93.403704,
          45.2479468
        ]
      },
      "id": "node/583262441"
    },
    {
      "type": "Feature",
      "properties": {
        "@id": "node/583334386",
        "brand": "Cub Foods",
        "brand:wikidata": "Q5191916",
        "name": "Cub Foods",
        "shop": "supermarket"
      },
      "geometry": {
        "type": "Point",
        "coordinates": [
          -93.3308295,
          44.8123762
        ]
      },
      "id": "node/583334386"
    },
    {
      "type": "Feature",
      "properties": {
        "@id": "node/601517826",
        "addr:city": "Minnetonka",
        "addr:housenumber": "11400",
        "addr:postcode": "55305",
        "addr:state": "MN",
        "addr:street": "Highway 7",
        "brand": "Lunds & Byerlys",
        "brand:wikidata": "Q6704067",
        "brand:wikipedia": "en:Lunds & Byerlys",
        "name": "Lunds & Byerlys",
        "old_name": "Lunds",
        "opening_hours": "06:00-22:00",
        "phone": "+1 952 935 0198",
        "ref": "51004",
        "shop": "supermarket",
        "website": "https://lundsandbyerlys.com/our-stores/locations/hwy-7-minnetonka/"
      },
      "geometry": {
        "type": "Point",
        "coordinates": [
          -93.42584,
          44.9338448
        ]
      },
      "id": "node/601517826"
    },
    {
      "type": "Feature",
      "properties": {
        "@id": "node/602386834",
        "amenity": "fuel",
        "shop": "convenience"
      },
      "geometry": {
        "type": "Point",
        "coordinates": [
          -92.9602166,
          44.8318695
        ]
      },
      "id": "node/602386834"
    },
    {
      "type": "Feature",
      "properties": {
        "@id": "node/617025551",
        "amenity": "fuel",
        "name": "Ico",
        "shop": "convenience"
      },
      "geometry": {
        "type": "Point",
        "coordinates": [
          -92.069363,
          46.8042088
        ]
      },
      "id": "node/617025551"
    },
    {
      "type": "Feature",
      "properties": {
        "@id": "node/617043300",
        "amenity": "fuel",
        "name": "Holiday",
        "shop": "convenience"
      },
      "geometry": {
        "type": "Point",
        "coordinates": [
          -92.1348021,
          46.7574665
        ]
      },
      "id": "node/617043300"
    },
    {
      "type": "Feature",
      "properties": {
        "@id": "node/620845382",
        "brand": "Cub Foods",
        "brand:wikidata": "Q5191916",
        "brand:wikipedia": "en:Cub Foods",
        "name": "Cub Foods",
        "shop": "supermarket"
      },
      "geometry": {
        "type": "Point",
        "coordinates": [
          -93.103637,
          45.0050441
        ]
      },
      "id": "node/620845382"
    },
    {
      "type": "Feature",
      "properties": {
        "@id": "node/624190132",
        "name": "Dean's Country Market",
        "shop": "supermarket"
      },
      "geometry": {
        "type": "Point",
        "coordinates": [
          -95.3721291,
          46.5223068
        ]
      },
      "id": "node/624190132"
    },
    {
      "type": "Feature",
      "properties": {
        "@id": "node/629395497",
        "shop": "supermarket"
      },
      "geometry": {
        "type": "Point",
        "coordinates": [
          -92.1738015,
          46.7458877
        ]
      },
      "id": "node/629395497"
    },
    {
      "type": "Feature",
      "properties": {
        "@id": "node/632873525",
        "addr:city": "Albert Lea",
        "addr:housenumber": "2222",
        "addr:postcode": "56007",
        "addr:state": "MN",
        "addr:street": "East Main Street",
        "amenity": "fuel",
        "brand": "Casey's General Store",
        "brand:wikidata": "Q2940968",
        "brand:wikipedia": "en:Casey's",
        "fuel:diesel": "yes",
        "fuel:octane_87": "yes",
        "fuel:octane_88": "yes",
        "fuel:octane_91": "yes",
        "name": "Casey's General Store",
        "operator": "Casey's General Store",
        "payment:cash": "yes",
        "payment:credit_cards": "yes",
        "payment:debit_cards": "yes",
        "shop": "convenience"
      },
      "geometry": {
        "type": "Point",
        "coordinates": [
          -93.3365684,
          43.6547434
        ]
      },
      "id": "node/632873525"
    },
    {
      "type": "Feature",
      "properties": {
        "@id": "node/632873529",
        "amenity": "fuel",
        "name": "Trail's Travel Center",
        "shop": "convenience",
        "source": "https://www.trailstravelcenter.com/"
      },
      "geometry": {
        "type": "Point",
        "coordinates": [
          -93.3178177,
          43.6572421
        ]
      },
      "id": "node/632873529"
    },
    {
      "type": "Feature",
      "properties": {
        "@id": "node/632893921",
        "amenity": "fuel",
        "brand": "BP",
        "brand:wikidata": "Q152057",
        "brand:wikipedia": "en:BP",
        "name": "BP",
        "shop": "convenience"
      },
      "geometry": {
        "type": "Point",
        "coordinates": [
          -93.3163712,
          43.7639309
        ]
      },
      "id": "node/632893921"
    },
    {
      "type": "Feature",
      "properties": {
        "@id": "node/637701289",
        "addr:city": "Saint Paul",
        "addr:housenumber": "626",
        "addr:postcode": "55113",
        "addr:street": "Larpenteur Avenue West",
        "name": "D&L Food and Gas",
        "shop": "convenience"
      },
      "geometry": {
        "type": "Point",
        "coordinates": [
          -93.1264846,
          44.9914127
        ]
      },
      "id": "node/637701289"
    },
    {
      "type": "Feature",
      "properties": {
        "@id": "node/643380427",
        "shop": "supermarket"
      },
      "geometry": {
        "type": "Point",
        "coordinates": [
          -94.5736154,
          45.6311435
        ]
      },
      "id": "node/643380427"
    },
    {
      "type": "Feature",
      "properties": {
        "@id": "node/646306779",
        "name": "United Noodle",
        "note": "specializes in Asian food",
        "shop": "supermarket",
        "wheelchair": "yes"
      },
      "geometry": {
        "type": "Point",
        "coordinates": [
          -93.2421993,
          44.9578364
        ]
      },
      "id": "node/646306779"
    },
    {
      "type": "Feature",
      "properties": {
        "@id": "node/647090276",
        "addr:city": "Minneapolis",
        "addr:housenumber": "25",
        "addr:postcode": "55414",
        "addr:state": "MN",
        "addr:street": "University Avenue Southeast",
        "brand": "Lunds & Byerlys",
        "brand:wikidata": "Q6704067",
        "brand:wikipedia": "en:Lunds & Byerlys",
        "name": "Lunds & Byerlys",
        "old_name": "Lunds",
        "opening_hours": "06:00-22:00",
        "phone": "+1 612 548 3820",
        "ref": "51010",
        "shop": "supermarket",
        "website": "https://lundsandbyerlys.com/our-stores/locations/northeast-minneapolis/",
        "wheelchair": "yes"
      },
      "geometry": {
        "type": "Point",
        "coordinates": [
          -93.2551503,
          44.9874099
        ]
      },
      "id": "node/647090276"
    },
    {
      "type": "Feature",
      "properties": {
        "@id": "node/650857696",
        "addr:city": "Minnetonka",
        "addr:housenumber": "13081",
        "addr:postcode": "55305",
        "addr:state": "MN",
        "addr:street": "Ridgedale Drive",
        "brand": "Lunds & Byerlys",
        "brand:wikidata": "Q6704067",
        "brand:wikipedia": "en:Lunds & Byerlys",
        "name": "Lunds & Byerlys",
        "old_name": "Byerly's",
        "opening_hours": "06:00-22:00",
        "phone": "+1 952 541 1414",
        "ref": "1008",
        "shop": "supermarket",
        "website": "https://lundsandbyerlys.com/our-stores/locations/ridgedale/"
      },
      "geometry": {
        "type": "Point",
        "coordinates": [
          -93.4459559,
          44.9681478
        ]
      },
      "id": "node/650857696"
    },
    {
      "type": "Feature",
      "properties": {
        "@id": "node/661977888",
        "amenity": "fuel",
        "name": "Love's",
        "shop": "convenience",
        "source": "EsriWorldImageryClarity"
      },
      "geometry": {
        "type": "Point",
        "coordinates": [
          -93.315979,
          43.6594929
        ]
      },
      "id": "node/661977888"
    },
    {
      "type": "Feature",
      "properties": {
        "@id": "node/663874347",
        "addr:city": "Wayzata",
        "addr:housenumber": "1151",
        "addr:postcode": "55391",
        "addr:state": "MN",
        "addr:street": "Wayzata Boulevard East",
        "brand": "Lunds & Byerlys",
        "brand:wikidata": "Q6704067",
        "brand:wikipedia": "en:Lunds & Byerlys",
        "name": "Lunds & Byerlys",
        "old_name": "Lunds",
        "opening_hours": "06:00-22:00",
        "phone": "+1 952 476 2222",
        "ref": "51008",
        "shop": "supermarket",
        "website": "https://lundsandbyerlys.com/our-stores/locations/wayzata/"
      },
      "geometry": {
        "type": "Point",
        "coordinates": [
          -93.5002891,
          44.9722936
        ]
      },
      "id": "node/663874347"
    },
    {
      "type": "Feature",
      "properties": {
        "@id": "node/670883143",
        "addr:city": "Minnetonka",
        "addr:housenumber": "14525",
        "addr:postcode": "55345",
        "addr:state": "MN",
        "addr:street": "Excelsior Boulevard",
        "brand": "Circle K",
        "brand:wikidata": "Q3268010",
        "brand:wikipedia": "en:Circle K",
        "name": "Circle K",
        "ref": "5053",
        "shop": "convenience"
      },
      "geometry": {
        "type": "Point",
        "coordinates": [
          -93.4645829,
          44.904549
        ]
      },
      "id": "node/670883143"
    },
    {
      "type": "Feature",
      "properties": {
        "@id": "node/670883148",
        "brand": "BP Shop",
        "brand:wikidata": "Q152057",
        "name": "BP Shop",
        "shop": "convenience"
      },
      "geometry": {
        "type": "Point",
        "coordinates": [
          -93.4656712,
          44.9046651
        ]
      },
      "id": "node/670883148"
    },
    {
      "type": "Feature",
      "properties": {
        "@id": "node/685457655",
        "amenity": "drinking_water",
        "check_date": "2021-11-01"
      },
      "geometry": {
        "type": "Point",
        "coordinates": [
          12.4867108,
          41.8902623
        ]
      },
      "id": "node/685457655"
    },
    {
      "type": "Feature",
      "properties": {
        "@id": "node/685461877",
        "amenity": "drinking_water",
        "check_date": "2021-11-01"
      },
      "geometry": {
        "type": "Point",
        "coordinates": [
          12.4875779,
          41.8891234
        ]
      },
      "id": "node/685461877"
    },
    {
      "type": "Feature",
      "properties": {
        "@id": "node/697900788",
        "brand": "Cub Foods",
        "brand:wikidata": "Q5191916",
        "brand:wikipedia": "en:Cub Foods",
        "name": "Cub Foods",
        "shop": "supermarket"
      },
      "geometry": {
        "type": "Point",
        "coordinates": [
          -93.5815578,
          44.8932425
        ]
      },
      "id": "node/697900788"
    },
    {
      "type": "Feature",
      "properties": {
        "@id": "node/712671728",
        "name": "Kowalski's",
        "shop": "supermarket"
      },
      "geometry": {
        "type": "Point",
        "coordinates": [
          -93.0171476,
          45.0739766
        ]
      },
      "id": "node/712671728"
    },
    {
      "type": "Feature",
      "properties": {
        "@id": "node/715680770",
        "name": "Rice Mini Serve",
        "shop": "convenience"
      },
      "geometry": {
        "type": "Point",
        "coordinates": [
          -94.2129638,
          45.7563787
        ]
      },
      "id": "node/715680770"
    },
    {
      "type": "Feature",
      "properties": {
        "@id": "node/725473281",
        "name": "ProFuel",
        "shop": "convenience"
      },
      "geometry": {
        "type": "Point",
        "coordinates": [
          -94.2200774,
          46.5910566
        ]
      },
      "id": "node/725473281"
    },
    {
      "type": "Feature",
      "properties": {
        "@id": "node/725473339",
        "name": "Oasis",
        "operator": "BP",
        "shop": "convenience"
      },
      "geometry": {
        "type": "Point",
        "coordinates": [
          -94.2202061,
          46.5919118
        ]
      },
      "id": "node/725473339"
    },
    {
      "type": "Feature",
      "properties": {
        "@id": "node/725608528",
        "amenity": "fuel",
        "name": "Super America",
        "shop": "convenience"
      },
      "geometry": {
        "type": "Point",
        "coordinates": [
          -94.3140428,
          46.6017265
        ]
      },
      "id": "node/725608528"
    },
    {
      "type": "Feature",
      "properties": {
        "@id": "node/725608529",
        "name": "Food King",
        "shop": "supermarket"
      },
      "geometry": {
        "type": "Point",
        "coordinates": [
          -94.31412,
          46.6021688
        ]
      },
      "id": "node/725608529"
    },
    {
      "type": "Feature",
      "properties": {
        "@id": "node/743038536",
        "brand": "Cub Foods",
        "brand:wikidata": "Q5191916",
        "brand:wikipedia": "en:Cub Foods",
        "name": "Cub Foods",
        "shop": "supermarket"
      },
      "geometry": {
        "type": "Point",
        "coordinates": [
          -93.082923,
          44.8853271
        ]
      },
      "id": "node/743038536"
    },
    {
      "type": "Feature",
      "properties": {
        "@id": "node/751456241",
        "name": "Warfa Store",
        "shop": "convenience"
      },
      "geometry": {
        "type": "Point",
        "coordinates": [
          -93.2526765,
          44.9625912
        ]
      },
      "id": "node/751456241"
    },
    {
      "type": "Feature",
      "properties": {
        "@id": "node/751532612",
        "name": "West Bank Grocery",
        "shop": "convenience"
      },
      "geometry": {
        "type": "Point",
        "coordinates": [
          -93.2470417,
          44.9693547
        ]
      },
      "id": "node/751532612"
    },
    {
      "type": "Feature",
      "properties": {
        "@id": "node/756852248",
        "brand": "Cub Foods",
        "brand:wikidata": "Q5191916",
        "brand:wikipedia": "en:Cub Foods",
        "name": "Cub Foods",
        "shop": "supermarket"
      },
      "geometry": {
        "type": "Point",
        "coordinates": [
          -93.010823,
          45.2830556
        ]
      },
      "id": "node/756852248"
    },
    {
      "type": "Feature",
      "properties": {
        "@id": "node/760760929",
        "name": "Marketplace",
        "shop": "convenience"
      },
      "geometry": {
        "type": "Point",
        "coordinates": [
          -93.1831459,
          44.9249118
        ]
      },
      "id": "node/760760929"
    },
    {
      "type": "Feature",
      "properties": {
        "@id": "node/762816802",
        "addr:street": "East Superior Street",
        "alt_name": "Super One",
        "name": "SuperOne",
        "opening_hours": "Mo-Su 06:00-22:00",
        "shop": "supermarket",
        "wheelchair": "yes"
      },
      "geometry": {
        "type": "Point",
        "coordinates": [
          -92.0820001,
          46.7983694
        ]
      },
      "id": "node/762816802"
    },
    {
      "type": "Feature",
      "properties": {
        "@id": "node/762934087",
        "amenity": "fuel",
        "name": "Holiday",
        "shop": "convenience"
      },
      "geometry": {
        "type": "Point",
        "coordinates": [
          -93.3124626,
          46.6109234
        ]
      },
      "id": "node/762934087"
    },
    {
      "type": "Feature",
      "properties": {
        "@id": "node/763529252",
        "brand": "Holiday",
        "brand:wikidata": "Q5880490",
        "brand:wikipedia": "en:Holiday Stationstores",
        "name": "Holiday",
        "shop": "convenience"
      },
      "geometry": {
        "type": "Point",
        "coordinates": [
          -93.4029952,
          44.9791672
        ]
      },
      "id": "node/763529252"
    },
    {
      "type": "Feature",
      "properties": {
        "@id": "node/777804103",
        "addr:city": "Minneapolis",
        "addr:country": "US",
        "addr:county": "Hennepin, MN",
        "addr:housenumber": "2100",
        "addr:postcode": "55407-1931",
        "addr:state": "MN",
        "addr:street": "East Lake Street",
        "brand": "ALDI",
        "brand:wikidata": "Q41171672",
        "brand:wikipedia": "en:Aldi",
        "name": "ALDI",
        "name:fa": "آلدی",
        "opening_hours": "Mo, We, Fr-Su 09:00-20:00; Tu, Th 08:30-20:00",
        "payment:american_express": "yes",
        "payment:apple_pay": "yes",
        "payment:cheque": "no",
        "payment:coins": "yes",
        "payment:contactless": "yes",
        "payment:debit_cards": "yes",
        "payment:discover_card": "yes",
        "payment:ebt": "yes",
        "payment:google_pay": "yes",
        "payment:mastercard": "yes",
        "payment:notes": "yes",
        "payment:snap": "yes",
        "payment:visa": "yes",
        "payment:wic": "no",
        "shop": "supermarket",
        "website": "https://www.aldi.us/"
      },
      "geometry": {
        "type": "Point",
        "coordinates": [
          -93.2419248,
          44.9486033
        ]
      },
      "id": "node/777804103"
    },
    {
      "type": "Feature",
      "properties": {
        "@id": "node/790706885",
        "brand": "Trader Joe's",
        "brand:wikidata": "Q688825",
        "brand:wikipedia": "en:Trader Joe's",
        "name": "Trader Joe's",
        "shop": "supermarket"
      },
      "geometry": {
        "type": "Point",
        "coordinates": [
          -93.4341287,
          45.0920661
        ]
      },
      "id": "node/790706885"
    },
    {
      "type": "Feature",
      "properties": {
        "@id": "node/801454007",
        "name": "Maxwell's Cafe and Grill",
        "shop": "convenience"
      },
      "geometry": {
        "type": "Point",
        "coordinates": [
          -93.2438309,
          44.983846
        ]
      },
      "id": "node/801454007"
    },
    {
      "type": "Feature",
      "properties": {
        "@id": "node/801834155",
        "name": "Hugos",
        "shop": "supermarket"
      },
      "geometry": {
        "type": "Point",
        "coordinates": [
          -96.6092408,
          47.7848128
        ]
      },
      "id": "node/801834155"
    },
    {
      "type": "Feature",
      "properties": {
        "@id": "node/807510151",
        "name": "More Value Food & Deli",
        "shop": "convenience"
      },
      "geometry": {
        "type": "Point",
        "coordinates": [
          -93.2522616,
          44.9520986
        ]
      },
      "id": "node/807510151"
    },
    {
      "type": "Feature",
      "properties": {
        "@id": "node/837978554",
        "addr:city": "Pequot Lakes",
        "addr:housenumber": "30503",
        "addr:postcode": "56472",
        "addr:street": "State Highway 371",
        "internet_access": "wlan",
        "operator": "Super Value",
        "phone": "+1-218-568-5001",
        "shop": "supermarket",
        "website": "https://www.pequotlakessupervalu.com/"
      },
      "geometry": {
        "type": "Point",
        "coordinates": [
          -94.3134554,
          46.5960159
        ]
      },
      "id": "node/837978554"
    },
    {
      "type": "Feature",
      "properties": {
        "@id": "node/855838351",
        "amenity": "pharmacy",
        "healthcare": "pharmacy",
        "name": "Coborn's",
        "shop": "supermarket"
      },
      "geometry": {
        "type": "Point",
        "coordinates": [
          -93.7683951,
          45.0369051
        ]
      },
      "id": "node/855838351"
    },
    {
      "type": "Feature",
      "properties": {
        "@id": "node/855852361",
        "amenity": "fuel",
        "name": "Holiday",
        "shop": "convenience"
      },
      "geometry": {
        "type": "Point",
        "coordinates": [
          -93.7895202,
          45.0351401
        ]
      },
      "id": "node/855852361"
    },
    {
      "type": "Feature",
      "properties": {
        "@id": "node/855857090",
        "name": "Delano Wine & Spirits",
        "shop": "convenience"
      },
      "geometry": {
        "type": "Point",
        "coordinates": [
          -93.7691976,
          45.0369506
        ]
      },
      "id": "node/855857090"
    },
    {
      "type": "Feature",
      "properties": {
        "@id": "node/861967322",
        "name": "Cook County Whole Foods Co-Op",
        "opening_hours": "Mo-Su 09:00-19:00",
        "shop": "supermarket"
      },
      "geometry": {
        "type": "Point",
        "coordinates": [
          -90.3320957,
          47.7503957
        ]
      },
      "id": "node/861967322"
    },
    {
      "type": "Feature",
      "properties": {
        "@id": "node/878232020",
        "amenity": "fuel",
        "brand": "Kwik Trip",
        "brand:wikidata": "Q6450420",
        "brand:wikipedia": "en:Kwik Trip",
        "name": "Kwik Trip",
        "operator": "Kwik Trip",
        "shop": "convenience"
      },
      "geometry": {
        "type": "Point",
        "coordinates": [
          -92.5153546,
          44.0790352
        ]
      },
      "id": "node/878232020"
    },
    {
      "type": "Feature",
      "properties": {
        "@id": "node/878255544",
        "name": "Saint John's Bookstore",
        "shop": "convenience",
        "wheelchair": "yes"
      },
      "geometry": {
        "type": "Point",
        "coordinates": [
          -94.3946491,
          45.5817126
        ]
      },
      "id": "node/878255544"
    },
    {
      "type": "Feature",
      "properties": {
        "@id": "node/879953499",
        "addr:city": "Rochester",
        "addr:housenumber": "1402",
        "addr:postcode": "55906",
        "addr:state": "MN",
        "addr:street": "North Broadway Avenue",
        "name": "Silver Lake Foods",
        "shop": "supermarket",
        "website": "http://silverlakefoods.com/"
      },
      "geometry": {
        "type": "Point",
        "coordinates": [
          -92.4613253,
          44.0378737
        ]
      },
      "id": "node/879953499"
    },
    {
      "type": "Feature",
      "properties": {
        "@id": "node/886677380",
        "name": "Holiday",
        "shop": "convenience"
      },
      "geometry": {
        "type": "Point",
        "coordinates": [
          -93.0079564,
          45.3360987
        ]
      },
      "id": "node/886677380"
    },
    {
      "type": "Feature",
      "properties": {
        "@id": "node/886922248",
        "name": "Rush City Foods",
        "shop": "supermarket"
      },
      "geometry": {
        "type": "Point",
        "coordinates": [
          -92.9819824,
          45.6850943
        ]
      },
      "id": "node/886922248"
    },
    {
      "type": "Feature",
      "properties": {
        "@id": "node/886948613",
        "name": "Marathon",
        "shop": "convenience"
      },
      "geometry": {
        "type": "Point",
        "coordinates": [
          -92.9871217,
          45.76724
        ]
      },
      "id": "node/886948613"
    },
    {
      "type": "Feature",
      "properties": {
        "@id": "node/889205184",
        "name": "Super Target",
        "opening_hours": "Mo-Su 07:00-22:00",
        "shop": "supermarket",
        "wheelchair": "yes"
      },
      "geometry": {
        "type": "Point",
        "coordinates": [
          -92.465502,
          43.9542478
        ]
      },
      "id": "node/889205184"
    },
    {
      "type": "Feature",
      "properties": {
        "@id": "node/922124083",
        "addr:housenumber": "1315",
        "addr:postcode": "55901",
        "addr:street": "6th St NW",
        "brand": "Hy-Vee",
        "brand:wikidata": "Q1639719",
        "brand:wikipedia": "en:Hy-Vee",
        "designation": "Barlow Plaza",
        "name": "Hy-Vee",
        "old_name": "Barlow Foods",
        "shop": "supermarket"
      },
      "geometry": {
        "type": "Point",
        "coordinates": [
          -92.4813152,
          44.0300127
        ]
      },
      "id": "node/922124083"
    },
    {
      "type": "Feature",
      "properties": {
        "@id": "node/922234727",
        "name": "Joe's Market",
        "shop": "convenience",
        "wheelchair": "yes"
      },
      "geometry": {
        "type": "Point",
        "coordinates": [
          -93.2258286,
          44.9877045
        ]
      },
      "id": "node/922234727"
    },
    {
      "type": "Feature",
      "properties": {
        "@id": "node/923857246",
        "addr:housenumber": "17501",
        "addr:postcode": "55345",
        "addr:street": "Minnetonka Boulevard",
        "name": "Lakewinds Natural Foods",
        "operator": "Lakewinds Food Co-op",
        "shop": "supermarket",
        "website": "http://www.lakewinds.com"
      },
      "geometry": {
        "type": "Point",
        "coordinates": [
          -93.5007322,
          44.9413083
        ]
      },
      "id": "node/923857246"
    },
    {
      "type": "Feature",
      "properties": {
        "@id": "node/928649420",
        "brand": "Cub Foods",
        "brand:wikidata": "Q5191916",
        "brand:wikipedia": "en:Cub Foods",
        "name": "Cub Foods",
        "operator": "Cub Foods",
        "shop": "supermarket"
      },
      "geometry": {
        "type": "Point",
        "coordinates": [
          -92.4449615,
          44.0101491
        ]
      },
      "id": "node/928649420"
    },
    {
      "type": "Feature",
      "properties": {
        "@id": "node/938087577",
        "addr:housenumber": "500",
        "addr:postcode": "55901",
        "addr:street": "37th St NW",
        "brand": "Hy-Vee",
        "brand:wikidata": "Q1639719",
        "brand:wikipedia": "en:Hy-Vee",
        "name": "Hy-Vee",
        "shop": "supermarket"
      },
      "geometry": {
        "type": "Point",
        "coordinates": [
          -92.4698732,
          44.0600486
        ]
      },
      "id": "node/938087577"
    },
    {
      "type": "Feature",
      "properties": {
        "@id": "node/938905385",
        "addr:city": "Rochester",
        "addr:country": "US",
        "addr:county": "Olmsted, MN",
        "addr:housenumber": "1201",
        "addr:postcode": "55904-3862",
        "addr:state": "MN",
        "addr:street": "South Broadway",
        "addr:unit": "200",
        "brand": "ALDI",
        "brand:wikidata": "Q41171672",
        "brand:wikipedia": "en:Aldi",
        "delivery": "yes",
        "name": "ALDI",
        "opening_hours": "Mo, We, Fr-Su 09:00-20:00; Tu, Th 08:30-20:00",
        "payment:american_express": "yes",
        "payment:apple_pay": "yes",
        "payment:cheque": "no",
        "payment:coins": "yes",
        "payment:contactless": "yes",
        "payment:debit_cards": "yes",
        "payment:discover_card": "yes",
        "payment:ebt": "yes",
        "payment:google_pay": "yes",
        "payment:mastercard": "yes",
        "payment:notes": "yes",
        "payment:snap": "yes",
        "payment:visa": "yes",
        "payment:wic": "no",
        "shop": "supermarket",
        "website": "https://www.aldi.us/"
      },
      "geometry": {
        "type": "Point",
        "coordinates": [
          -92.4663126,
          44.0058884
        ]
      },
      "id": "node/938905385"
    },
    {
      "type": "Feature",
      "properties": {
        "@id": "node/938905386",
        "amenity": "marketplace",
        "designation": "discount and used items store",
        "name": "Savers"
      },
      "geometry": {
        "type": "Point",
        "coordinates": [
          -92.4663133,
          44.0062589
        ]
      },
      "id": "node/938905386"
    },
    {
      "type": "Feature",
      "properties": {
        "@id": "node/938905387",
        "brand": "Hy-Vee",
        "brand:wikidata": "Q1639719",
        "brand:wikipedia": "en:Hy-Vee",
        "name": "Hy-Vee",
        "shop": "supermarket"
      },
      "geometry": {
        "type": "Point",
        "coordinates": [
          -92.4699207,
          44.0051563
        ]
      },
      "id": "node/938905387"
    },
    {
      "type": "Feature",
      "properties": {
        "@id": "node/940863398",
        "name": "Hance Ace Hardware",
        "opening_hours": "Mo-Fr 07:30-20:00; Sa 08:00-17:30; Su 10:00-16:00",
        "shop": "convenience"
      },
      "geometry": {
        "type": "Point",
        "coordinates": [
          -93.4118136,
          44.9256845
        ]
      },
      "id": "node/940863398"
    },
    {
      "type": "Feature",
      "properties": {
        "@id": "node/940863403",
        "name": "Center Drug",
        "opening_hours": "Mo-Fr 08:30-20:00; Sa 09:00-18:00; Su 10:00-03:00",
        "shop": "convenience"
      },
      "geometry": {
        "type": "Point",
        "coordinates": [
          -93.4123929,
          44.9256959
        ]
      },
      "id": "node/940863403"
    },
    {
      "type": "Feature",
      "properties": {
        "@id": "node/953890053",
        "amenity": "drinking_water"
      },
      "geometry": {
        "type": "Point",
        "coordinates": [
          12.4879526,
          41.8887986
        ]
      },
      "id": "node/953890053"
    },
    {
      "type": "Feature",
      "properties": {
        "@id": "node/953890062",
        "amenity": "drinking_water",
        "check_date": "2021-11-01",
        "man_made": "water_tap"
      },
      "geometry": {
        "type": "Point",
        "coordinates": [
          12.4883755,
          41.890985
        ]
      },
      "id": "node/953890062"
    },
    {
      "type": "Feature",
      "properties": {
        "@id": "node/953909059",
        "amenity": "drinking_water",
        "fountain": "nasone",
        "wikimedia_commons": "File:Nasone via dei santi Quattro,roma,italy 62022.jpeg"
      },
      "geometry": {
        "type": "Point",
        "coordinates": [
          12.4968765,
          41.8889852
        ]
      },
      "id": "node/953909059"
    },
    {
      "type": "Feature",
      "properties": {
        "@id": "node/957684715",
        "shop": "convenience"
      },
      "geometry": {
        "type": "Point",
        "coordinates": [
          -93.4192036,
          44.8917715
        ]
      },
      "id": "node/957684715"
    },
    {
      "type": "Feature",
      "properties": {
        "@id": "node/977090147",
        "addr:housenumber": "1200",
        "brand": "Trader Joe's",
        "brand:wikidata": "Q688825",
        "brand:wikipedia": "en:Trader Joe's",
        "name": "Trader Joe's",
        "opening_hours": "Mo-Su 08:00-21:00",
        "shop": "supermarket",
        "wheelchair": "yes"
      },
      "geometry": {
        "type": "Point",
        "coordinates": [
          -92.481162,
          44.000604
        ]
      },
      "id": "node/977090147"
    },
    {
      "type": "Feature",
      "properties": {
        "@id": "node/992088038",
        "addr:city": "Saint Paul",
        "addr:housenumber": "437",
        "addr:postcode": "55102",
        "addr:street": "Wabasha Street North",
        "name": "Rivertown Market",
        "shop": "supermarket"
      },
      "geometry": {
        "type": "Point",
        "coordinates": [
          -93.096511,
          44.947521
        ]
      },
      "id": "node/992088038"
    },
    {
      "type": "Feature",
      "properties": {
        "@id": "node/992089845",
        "name": "Wabasha7 Market",
        "shop": "convenience"
      },
      "geometry": {
        "type": "Point",
        "coordinates": [
          -93.0972131,
          44.9483112
        ]
      },
      "id": "node/992089845"
    },
    {
      "type": "Feature",
      "properties": {
        "@id": "node/993402538",
        "level": "1",
        "name": "The Lobby Shoppe",
        "shop": "convenience"
      },
      "geometry": {
        "type": "Point",
        "coordinates": [
          -93.0922605,
          44.9484002
        ]
      },
      "id": "node/993402538"
    },
    {
      "type": "Feature",
      "properties": {
        "@id": "node/1000471049",
        "addr:city": "Saint Paul",
        "addr:housenumber": "794",
        "addr:postcode": "55105",
        "addr:state": "MN",
        "addr:street": "Grand Avenue",
        "name": "Golden Fig",
        "phone": "+1-651-602-0144",
        "shop": "grocery",
        "website": "https://goldenfig.com/"
      },
      "geometry": {
        "type": "Point",
        "coordinates": [
          -93.133604,
          44.9398369
        ]
      },
      "id": "node/1000471049"
    },
    {
      "type": "Feature",
      "properties": {
        "@id": "node/1003350784",
        "shop": "convenience"
      },
      "geometry": {
        "type": "Point",
        "coordinates": [
          -93.0807835,
          44.9543382
        ]
      },
      "id": "node/1003350784"
    },
    {
      "type": "Feature",
      "properties": {
        "@id": "node/1006295907",
        "name": "Super One",
        "shop": "supermarket"
      },
      "geometry": {
        "type": "Point",
        "coordinates": [
          -92.0096935,
          46.8380779
        ]
      },
      "id": "node/1006295907"
    },
    {
      "type": "Feature",
      "properties": {
        "@id": "node/1025273500",
        "brand": "Holiday",
        "brand:wikidata": "Q5880490",
        "brand:wikipedia": "en:Holiday Stationstores",
        "name": "Holiday",
        "shop": "convenience"
      },
      "geometry": {
        "type": "Point",
        "coordinates": [
          -94.2157832,
          45.755346
        ]
      },
      "id": "node/1025273500"
    },
    {
      "type": "Feature",
      "properties": {
        "@id": "node/1102910021",
        "name": "African Safari Halal Meat Market & Deli",
        "name:fa": "بازار گوشت حلال سافاری آفریقایی و دلی",
        "shop": "convenience"
      },
      "geometry": {
        "type": "Point",
        "coordinates": [
          -93.2700853,
          44.9481783
        ]
      },
      "id": "node/1102910021"
    },
    {
      "type": "Feature",
      "properties": {
        "@id": "node/1134664313",
        "addr:housenumber": "2530",
        "name": "O' Reilly",
        "shop": "convenience"
      },
      "geometry": {
        "type": "Point",
        "coordinates": [
          -93.580304,
          44.8016922
        ]
      },
      "id": "node/1134664313"
    },
    {
      "type": "Feature",
      "properties": {
        "@id": "node/1147537164",
        "addr:city": "Saint Paul",
        "addr:housenumber": "1625",
        "addr:postcode": "55117",
        "addr:state": "MN",
        "addr:street": "Rice Street",
        "brand": "Speedway",
        "brand:wikidata": "Q7575683",
        "brand:wikipedia": "en:Speedway (store)",
        "name": "Speedway",
        "ref": "4030",
        "shop": "convenience"
      },
      "geometry": {
        "type": "Point",
        "coordinates": [
          -93.1065319,
          44.9903763
        ]
      },
      "id": "node/1147537164"
    },
    {
      "type": "Feature",
      "properties": {
        "@id": "node/1147537186",
        "addr:city": "Saint Paul",
        "addr:housenumber": "1608",
        "addr:postcode": "55117",
        "addr:state": "MN",
        "addr:street": "Rice Street",
        "brand": "Holiday",
        "brand:wikidata": "Q5880490",
        "brand:wikipedia": "en:Holiday Stationstores",
        "name": "Holiday",
        "ref": "167",
        "shop": "convenience"
      },
      "geometry": {
        "type": "Point",
        "coordinates": [
          -93.1050589,
          44.9895256
        ]
      },
      "id": "node/1147537186"
    },
    {
      "type": "Feature",
      "properties": {
        "@id": "node/1170494282",
        "amenity": "drinking_water",
        "fountain": "nasone"
      },
      "geometry": {
        "type": "Point",
        "coordinates": [
          12.4942213,
          41.8900377
        ]
      },
      "id": "node/1170494282"
    },
    {
      "type": "Feature",
      "properties": {
        "@id": "node/1188081611",
        "addr:city": "Eden Prairie",
        "addr:housenumber": "9625",
        "addr:postcode": "55344",
        "addr:state": "MN",
        "addr:street": "Anderson Lakes Parkway",
        "name": "Jerry's Foods",
        "phone": "+1 952 941 9680",
        "shop": "supermarket",
        "website": "http://www.jerrysfoods.com"
      },
      "geometry": {
        "type": "Point",
        "coordinates": [
          -93.4005705,
          44.8354644
        ]
      },
      "id": "node/1188081611"
    },
    {
      "type": "Feature",
      "properties": {
        "@id": "node/1188577437",
        "name": "Cooper's",
        "shop": "supermarket"
      },
      "geometry": {
        "type": "Point",
        "coordinates": [
          -93.6004132,
          44.7916189
        ]
      },
      "id": "node/1188577437"
    },
    {
      "type": "Feature",
      "properties": {
        "@id": "node/1188577439",
        "name": "Ace Hareware",
        "shop": "convenience"
      },
      "geometry": {
        "type": "Point",
        "coordinates": [
          -93.5998338,
          44.7917274
        ]
      },
      "id": "node/1188577439"
    },
    {
      "type": "Feature",
      "properties": {
        "@id": "node/1245804828",
        "name": "Holiday",
        "shop": "convenience"
      },
      "geometry": {
        "type": "Point",
        "coordinates": [
          -93.1064988,
          44.9597236
        ]
      },
      "id": "node/1245804828"
    },
    {
      "type": "Feature",
      "properties": {
        "@id": "node/1263471844",
        "name": "Festival Foods",
        "shop": "supermarket"
      },
      "geometry": {
        "type": "Point",
        "coordinates": [
          -93.015338,
          45.1649923
        ]
      },
      "id": "node/1263471844"
    },
    {
      "type": "Feature",
      "properties": {
        "@id": "node/1332611676",
        "name": "7th Grocery",
        "shop": "convenience"
      },
      "geometry": {
        "type": "Point",
        "coordinates": [
          -93.0985491,
          44.9476218
        ]
      },
      "id": "node/1332611676"
    },
    {
      "type": "Feature",
      "properties": {
        "@id": "node/1337853078",
        "name": "Marketplace Foods",
        "shop": "supermarket"
      },
      "geometry": {
        "type": "Point",
        "coordinates": [
          -93.8485712,
          44.961035
        ]
      },
      "id": "node/1337853078"
    },
    {
      "type": "Feature",
      "properties": {
        "@id": "node/1341549390",
        "amenity": "marketplace",
        "name": "Midtown Farmers Market",
        "opening_hours": "May-Oct Sa 08:00-13:00; Jun-Oct Tu 15:00-19:00"
      },
      "geometry": {
        "type": "Point",
        "coordinates": [
          -93.234062,
          44.9474256
        ]
      },
      "id": "node/1341549390"
    },
    {
      "type": "Feature",
      "properties": {
        "@id": "node/1344114577",
        "brand": "Hy-Vee",
        "brand:wikidata": "Q1639719",
        "brand:wikipedia": "en:Hy-Vee",
        "name": "Hy-Vee",
        "shop": "supermarket"
      },
      "geometry": {
        "type": "Point",
        "coordinates": [
          -93.2285111,
          44.0673198
        ]
      },
      "id": "node/1344114577"
    },
    {
      "type": "Feature",
      "properties": {
        "@id": "node/1344179508",
        "addr:city": "Faribault",
        "addr:housenumber": "1920",
        "addr:postcode": "55021",
        "addr:street": "Grant Street NW",
        "name": "Hy-Vee",
        "shop": "supermarket"
      },
      "geometry": {
        "type": "Point",
        "coordinates": [
          -93.2971481,
          44.2952425
        ]
      },
      "id": "node/1344179508"
    },
    {
      "type": "Feature",
      "properties": {
        "@id": "node/1345343853",
        "name": "Jamboree Foods",
        "shop": "supermarket"
      },
      "geometry": {
        "type": "Point",
        "coordinates": [
          -94.7270311,
          43.6533979
        ]
      },
      "id": "node/1345343853"
    },
    {
      "type": "Feature",
      "properties": {
        "@id": "node/1345343865",
        "name": "Sunshine Foods",
        "shop": "supermarket"
      },
      "geometry": {
        "type": "Point",
        "coordinates": [
          -94.9905519,
          43.6271385
        ]
      },
      "id": "node/1345343865"
    },
    {
      "type": "Feature",
      "properties": {
        "@id": "node/1345401619",
        "name": "Keith's Grocery & Bake Shoppe",
        "shop": "supermarket"
      },
      "geometry": {
        "type": "Point",
        "coordinates": [
          -95.9335693,
          43.6343649
        ]
      },
      "id": "node/1345401619"
    },
    {
      "type": "Feature",
      "properties": {
        "@id": "node/1371773066",
        "addr:housenumber": "2551",
        "addr:street": "Central Avenue Northeast",
        "name": "Eastside Food Co-op",
        "opening_hours": "Mo-Su 08:00-21:00",
        "payment:credit_cards": "yes",
        "payment:debit_cards": "yes",
        "shop": "supermarket",
        "website": "https://www.eastsidefood.coop/",
        "wheelchair": "yes"
      },
      "geometry": {
        "type": "Point",
        "coordinates": [
          -93.2470382,
          45.0146156
        ]
      },
      "id": "node/1371773066"
    },
    {
      "type": "Feature",
      "properties": {
        "@id": "node/1380404207",
        "brand": "Snack Shack",
        "name": "PDQ",
        "shop": "convenience"
      },
      "geometry": {
        "type": "Point",
        "coordinates": [
          -93.1760654,
          44.7433019
        ]
      },
      "id": "node/1380404207"
    },
    {
      "type": "Feature",
      "properties": {
        "@id": "node/1458318599",
        "addr:city": "Page",
        "addr:housenumber": "19162",
        "addr:postcode": "56353",
        "addr:state": "MN",
        "addr:street": "US 169",
        "brand": "Marathon",
        "brand:wikidata": "Q458363",
        "brand:wikipedia": "en:Marathon Petroleum",
        "name": "Marathon",
        "shop": "convenience"
      },
      "geometry": {
        "type": "Point",
        "coordinates": [
          -93.6556966,
          45.8245328
        ]
      },
      "id": "node/1458318599"
    },
    {
      "type": "Feature",
      "properties": {
        "@id": "node/1459344288",
        "name": "Supervalue",
        "shop": "supermarket"
      },
      "geometry": {
        "type": "Point",
        "coordinates": [
          -93.4718124,
          46.1376146
        ]
      },
      "id": "node/1459344288"
    },
    {
      "type": "Feature",
      "properties": {
        "@id": "node/1459344334",
        "name": "Morning Star Market",
        "shop": "supermarket"
      },
      "geometry": {
        "type": "Point",
        "coordinates": [
          -93.5206778,
          46.1184249
        ]
      },
      "id": "node/1459344334"
    },
    {
      "type": "Feature",
      "properties": {
        "@id": "node/1492150517",
        "amenity": "marketplace",
        "designation": "indoor shopping mall",
        "source": "bing"
      },
      "geometry": {
        "type": "Point",
        "coordinates": [
          -92.98996,
          43.6828469
        ]
      },
      "id": "node/1492150517"
    },
    {
      "type": "Feature",
      "properties": {
        "@id": "node/1540356091",
        "name": "Super USA",
        "shop": "convenience",
        "wheelchair": "no"
      },
      "geometry": {
        "type": "Point",
        "coordinates": [
          -93.2961735,
          45.024217
        ]
      },
      "id": "node/1540356091"
    },
    {
      "type": "Feature",
      "properties": {
        "@id": "node/1540356161",
        "amenity": "fuel",
        "name": "Gas Stop",
        "shop": "convenience"
      },
      "geometry": {
        "type": "Point",
        "coordinates": [
          -93.3086202,
          45.0239343
        ]
      },
      "id": "node/1540356161"
    },
    {
      "type": "Feature",
      "properties": {
        "@id": "node/1542603246",
        "addr:city": "Minneapolis",
        "addr:housenumber": "25",
        "addr:postcode": "55414",
        "addr:state": "MN",
        "addr:street": "Southeast University Avenue",
        "name": "Lunds Drugstore",
        "opening_hours": "Mo-Su 07:00-22:00",
        "operator": "Lunds & Byerlys",
        "shop": "convenience"
      },
      "geometry": {
        "type": "Point",
        "coordinates": [
          -93.2549172,
          44.9871241
        ]
      },
      "id": "node/1542603246"
    },
    {
      "type": "Feature",
      "properties": {
        "@id": "node/1545960141",
        "addr:city": "Minneapolis",
        "addr:housenumber": "3759",
        "addr:postcode": "55407",
        "addr:state": "MN",
        "addr:street": "Chicago Avenue South",
        "name": "Cup Foods",
        "shop": "convenience",
        "website": "https://cupfoods.com"
      },
      "geometry": {
        "type": "Point",
        "coordinates": [
          -93.2622744,
          44.9342862
        ]
      },
      "id": "node/1545960141"
    },
    {
      "type": "Feature",
      "properties": {
        "@id": "node/1565910628",
        "addr:housenumber": "900",
        "addr:postcode": "55106",
        "addr:street": "Maryland",
        "name": "Golden Harvest Food",
        "shop": "supermarket",
        "source": "local knowledge"
      },
      "geometry": {
        "type": "Point",
        "coordinates": [
          -93.0626045,
          44.9773068
        ]
      },
      "id": "node/1565910628"
    },
    {
      "type": "Feature",
      "properties": {
        "@id": "node/1566054830",
        "name": "Oak Center General Store",
        "shop": "convenience"
      },
      "geometry": {
        "type": "Point",
        "coordinates": [
          -92.4005691,
          44.3542218
        ]
      },
      "id": "node/1566054830"
    },
    {
      "type": "Feature",
      "properties": {
        "@id": "node/1570461563",
        "name": "East Village Market",
        "shop": "convenience",
        "toilets:wheelchair": "no",
        "wheelchair": "yes"
      },
      "geometry": {
        "type": "Point",
        "coordinates": [
          -93.2579254,
          44.9681356
        ]
      },
      "id": "node/1570461563"
    },
    {
      "type": "Feature",
      "properties": {
        "@id": "node/1576442020",
        "addr:city": "Lutsen",
        "addr:housenumber": "5364",
        "addr:postcode": "55612",
        "addr:state": "MN",
        "addr:street": "Highway 61",
        "alt_name": "Lockport Marketplace & Grill",
        "cuisine": "american",
        "facebook": "https://www.facebook.com/lockportlutsenmn/",
        "name": "Lockport Marketplace",
        "old_name": "Lockport Marketplace & Deli",
        "opening_hours": "Su-Sa 07:00-20:00",
        "opening_hours:grill": "We-Su 07:00-14:00",
        "phone": "+1 218 663 7548",
        "shop": "convenience"
      },
      "geometry": {
        "type": "Point",
        "coordinates": [
          -90.6780001,
          47.6457671
        ]
      },
      "id": "node/1576442020"
    },
    {
      "type": "Feature",
      "properties": {
        "@id": "node/1584945866",
        "name": "Festival Foods",
        "shop": "supermarket"
      },
      "geometry": {
        "type": "Point",
        "coordinates": [
          -93.2857413,
          44.8248708
        ]
      },
      "id": "node/1584945866"
    },
    {
      "type": "Feature",
      "properties": {
        "@id": "node/1603044651",
        "addr:city": "Virginia",
        "addr:postcode": "55792",
        "addr:state": "MN",
        "brand": "Super One Foods",
        "brand:wikidata": "Q17108733",
        "brand:wikipedia": "en:Super One Foods",
        "name": "Super One Foods",
        "shop": "supermarket",
        "source": "local_knowledge"
      },
      "geometry": {
        "type": "Point",
        "coordinates": [
          -92.5502668,
          47.5093411
        ]
      },
      "id": "node/1603044651"
    },
    {
      "type": "Feature",
      "properties": {
        "@id": "node/1656861982",
        "amenity": "drinking_water",
        "check_date": "2021-11-01",
        "man_made": "water_tap"
      },
      "geometry": {
        "type": "Point",
        "coordinates": [
          12.4883955,
          41.8907173
        ]
      },
      "id": "node/1656861982"
    },
    {
      "type": "Feature",
      "properties": {
        "@id": "node/1669120365",
        "addr:city": "Saint Paul",
        "addr:country": "US",
        "addr:county": "Ramsey, MN",
        "addr:housenumber": "2481",
        "addr:postcode": "55116-2839",
        "addr:state": "MN",
        "addr:street": "7th Street West",
        "brand": "ALDI",
        "brand:wikidata": "Q41171672",
        "brand:wikipedia": "en:Aldi",
        "delivery": "yes",
        "drive_through": "yes",
        "name": "ALDI",
        "opening_hours": "Mo, We, Fr-Su 09:00-20:00; Tu, Th 08:30-20:00",
        "payment:american_express": "yes",
        "payment:apple_pay": "yes",
        "payment:cheque": "no",
        "payment:coins": "yes",
        "payment:contactless": "yes",
        "payment:debit_cards": "yes",
        "payment:discover_card": "yes",
        "payment:ebt": "yes",
        "payment:google_pay": "yes",
        "payment:mastercard": "yes",
        "payment:notes": "yes",
        "payment:snap": "yes",
        "payment:visa": "yes",
        "payment:wic": "no",
        "shop": "supermarket",
        "website": "https://www.aldi.us/"
      },
      "geometry": {
        "type": "Point",
        "coordinates": [
          -93.1707161,
          44.9022804
        ]
      },
      "id": "node/1669120365"
    },
    {
      "type": "Feature",
      "properties": {
        "@id": "node/1685291580",
        "addr:city": "Marine on St. Croix",
        "addr:housenumber": "101",
        "addr:postcode": "55047",
        "addr:state": "MN",
        "addr:street": "Judd Street",
        "name": "The General Store",
        "phone": "+1-651-433-2445",
        "shop": "convenience",
        "website": "https://marinegeneralstore.com/"
      },
      "geometry": {
        "type": "Point",
        "coordinates": [
          -92.7693241,
          45.1985287
        ]
      },
      "id": "node/1685291580"
    },
    {
      "type": "Feature",
      "properties": {
        "@id": "node/1707818953",
        "addr:housenumber": "1109",
        "addr:postcode": "55901",
        "addr:street": "7th St NW",
        "name": "Seven Wonder Shop",
        "shop": "convenience"
      },
      "geometry": {
        "type": "Point",
        "coordinates": [
          -92.4798343,
          44.0319024
        ]
      },
      "id": "node/1707818953"
    },
    {
      "type": "Feature",
      "properties": {
        "@id": "node/1709280191",
        "amenity": "drinking_water",
        "check_date": "2021-11-02",
        "fountain": "bottle_refill",
        "name:ru": "вода с газом и без. бесплатная"
      },
      "geometry": {
        "type": "Point",
        "coordinates": [
          12.4911794,
          41.891319
        ]
      },
      "id": "node/1709280191"
    },
    {
      "type": "Feature",
      "properties": {
        "@id": "node/1716151512",
        "addr:city": "Hinckley",
        "addr:housenumber": "404",
        "addr:postcode": "55037",
        "addr:state": "MN",
        "addr:street": "Fire Monument Road",
        "name": "Tobie's Station",
        "shop": "convenience"
      },
      "geometry": {
        "type": "Point",
        "coordinates": [
          -92.9300291,
          46.0107357
        ]
      },
      "id": "node/1716151512"
    },
    {
      "type": "Feature",
      "properties": {
        "@id": "node/1721327395",
        "addr:city": "Rochester",
        "addr:housenumber": "23",
        "addr:street": "2nd Street Southwest",
        "name": "Eagle Store",
        "opening_hours": "Mo-Fr 09:00-21:00; Sa 09:00-19:00; Su 17:00-21:00",
        "payment:cash": "yes",
        "payment:credit_cards": "yes",
        "payment:debit_cards": "yes",
        "shop": "convenience"
      },
      "geometry": {
        "type": "Point",
        "coordinates": [
          -92.4641473,
          44.0218005
        ]
      },
      "id": "node/1721327395"
    },
    {
      "type": "Feature",
      "properties": {
        "@id": "node/1722510930",
        "addr:city": "Inver Grove Heights",
        "addr:country": "US",
        "addr:county": "Dakota, MN",
        "addr:housenumber": "1414",
        "addr:postcode": "55077-1256",
        "addr:state": "MN",
        "addr:street": "Mendota Road East",
        "alt_name": "Aldi",
        "brand": "ALDI",
        "brand:wikidata": "Q41171672",
        "brand:wikipedia": "en:Aldi",
        "delivery": "yes",
        "drive_through": "yes",
        "name": "ALDI",
        "name:fa": "آلدی",
        "opening_hours": "Mo, We, Fr-Su 09:00-20:00; Tu, Th 08:30-20:00",
        "payment:american_express": "yes",
        "payment:apple_pay": "yes",
        "payment:cheque": "no",
        "payment:coins": "yes",
        "payment:contactless": "yes",
        "payment:debit_cards": "yes",
        "payment:discover_card": "yes",
        "payment:ebt": "yes",
        "payment:google_pay": "yes",
        "payment:mastercard": "yes",
        "payment:notes": "yes",
        "payment:snap": "yes",
        "payment:visa": "yes",
        "payment:wic": "no",
        "shop": "supermarket",
        "website": "https://www.aldi.us/"
      },
      "geometry": {
        "type": "Point",
        "coordinates": [
          -93.0788585,
          44.8821201
        ]
      },
      "id": "node/1722510930"
    },
    {
      "type": "Feature",
      "properties": {
        "@id": "node/1729936279",
        "addr:housenumber": "3918",
        "addr:postcode": "55901",
        "addr:street": "18th Ave NW",
        "name": "Saigon Far East Market",
        "note": "Temporarily closed due to fire damage. ",
        "shop": "convenience"
      },
      "geometry": {
        "type": "Point",
        "coordinates": [
          -92.4885861,
          44.0639383
        ]
      },
      "id": "node/1729936279"
    },
    {
      "type": "Feature",
      "properties": {
        "@id": "node/1734816295",
        "addr:housenumber": "1831",
        "addr:postcode": "55901",
        "addr:street": "24th St NW",
        "name": "El Gallo Mexican Grocery",
        "shop": "convenience"
      },
      "geometry": {
        "type": "Point",
        "coordinates": [
          -92.4916672,
          44.0478927
        ]
      },
      "id": "node/1734816295"
    },
    {
      "type": "Feature",
      "properties": {
        "@id": "node/1736766182",
        "addr:housenumber": "1608",
        "addr:postcode": "55901",
        "addr:street": "East Frontage Rd NW",
        "name": "The Nutrition Shop",
        "shop": "supermarket"
      },
      "geometry": {
        "type": "Point",
        "coordinates": [
          -92.4866385,
          44.0390582
        ]
      },
      "id": "node/1736766182"
    },
    {
      "type": "Feature",
      "properties": {
        "@id": "node/1749105827",
        "addr:city": "Minneapolis",
        "addr:housenumber": "826",
        "addr:postcode": "55408",
        "addr:state": "MN",
        "addr:street": "West 36th Street",
        "air_conditioning": "yes",
        "name": "Kyle's Market",
        "payment:cash": "yes",
        "payment:coins": "yes",
        "payment:credit_cards": "yes",
        "shop": "convenience",
        "source": "Survey"
      },
      "geometry": {
        "type": "Point",
        "coordinates": [
          -93.290596,
          44.9378475
        ]
      },
      "id": "node/1749105827"
    },
    {
      "type": "Feature",
      "properties": {
        "@id": "node/1773276680",
        "name": "Fresh & Natural Foods",
        "shop": "supermarket"
      },
      "geometry": {
        "type": "Point",
        "coordinates": [
          -93.1464332,
          45.0807523
        ]
      },
      "id": "node/1773276680"
    },
    {
      "type": "Feature",
      "properties": {
        "@id": "node/1781900797",
        "addr:housenumber": "221",
        "addr:street": "Hiawatha Dr W",
        "name": "Dick's SUPERVALU",
        "shop": "supermarket",
        "website": "http://www.supervalustores.com/"
      },
      "geometry": {
        "type": "Point",
        "coordinates": [
          -92.036825,
          44.3781199
        ]
      },
      "id": "node/1781900797"
    },
    {
      "type": "Feature",
      "properties": {
        "@id": "node/1790870441",
        "addr:city": "Rochester",
        "addr:housenumber": "3335",
        "addr:postcode": "55904",
        "addr:state": "MN",
        "addr:street": "Marion Road SE",
        "name": "Jeff's Little Store",
        "phone": "+1 507 285 0014",
        "shop": "convenience"
      },
      "geometry": {
        "type": "Point",
        "coordinates": [
          -92.3932123,
          43.9737827
        ]
      },
      "id": "node/1790870441"
    },
    {
      "type": "Feature",
      "properties": {
        "@id": "node/1795137624",
        "addr:housenumber": "20",
        "addr:postcode": "55927",
        "addr:street": "North Airport Drive",
        "name": "John's SuperValu Foods",
        "phone": "+1-507-374-6440",
        "shop": "supermarket",
        "website": "https://www.facebook.com/pages/Johns-Supervalu-Foods/111785778874907"
      },
      "geometry": {
        "type": "Point",
        "coordinates": [
          -92.8383479,
          44.0292336
        ]
      },
      "id": "node/1795137624"
    },
    {
      "type": "Feature",
      "properties": {
        "@id": "node/1800163238",
        "shop": "convenience"
      },
      "geometry": {
        "type": "Point",
        "coordinates": [
          -91.7539093,
          43.80597
        ]
      },
      "id": "node/1800163238"
    },
    {
      "type": "Feature",
      "properties": {
        "@id": "node/1877932434",
        "shop": "convenience"
      },
      "geometry": {
        "type": "Point",
        "coordinates": [
          -93.3542435,
          44.9127579
        ]
      },
      "id": "node/1877932434"
    },
    {
      "type": "Feature",
      "properties": {
        "@id": "node/1907726594",
        "addr:city": "Rochester",
        "addr:housenumber": "2109",
        "addr:postcode": "55902",
        "addr:state": "MN",
        "addr:street": "2nd Street SW",
        "alt_name": "Kwik Trip #438",
        "brand": "Kwik Trip",
        "brand:wikidata": "Q6450420",
        "brand:wikipedia": "en:Kwik Trip",
        "name": "Kwik Trip",
        "opening_hours": "Mo-Su 05:00-23:00",
        "phone": "+1 507 292 7820",
        "shop": "convenience",
        "website": "https://www.kwiktrip.com/locator/store?id=438"
      },
      "geometry": {
        "type": "Point",
        "coordinates": [
          -92.4960357,
          44.0223997
        ]
      },
      "id": "node/1907726594"
    },
    {
      "type": "Feature",
      "properties": {
        "@id": "node/1922482372",
        "brand": "Fareway",
        "brand:wikidata": "Q5434998",
        "brand:wikipedia": "en:Fareway",
        "name": "Fareway",
        "shop": "supermarket"
      },
      "geometry": {
        "type": "Point",
        "coordinates": [
          -93.2723367,
          44.2955103
        ]
      },
      "id": "node/1922482372"
    },
    {
      "type": "Feature",
      "properties": {
        "@id": "node/1986875392",
        "addr:city": "Apple Valley",
        "addr:country": "US",
        "addr:state": "MN",
        "brand": "Cub Foods",
        "brand:wikidata": "Q5191916",
        "brand:wikipedia": "en:Cub Foods",
        "name": "Cub Foods",
        "shop": "supermarket"
      },
      "geometry": {
        "type": "Point",
        "coordinates": [
          -93.216046,
          44.7265585
        ]
      },
      "id": "node/1986875392"
    },
    {
      "type": "Feature",
      "properties": {
        "@id": "node/1986881955",
        "addr:city": "Apple Valley",
        "addr:country": "US",
        "addr:state": "MN",
        "brand": "Speedway",
        "brand:wikidata": "Q7575683",
        "brand:wikipedia": "en:Speedway LLC",
        "name": "Speedway",
        "shop": "convenience"
      },
      "geometry": {
        "type": "Point",
        "coordinates": [
          -93.211938,
          44.73132
        ]
      },
      "id": "node/1986881955"
    },
    {
      "type": "Feature",
      "properties": {
        "@id": "node/2006868079",
        "name": "Rearn Thai Market",
        "shop": "supermarket",
        "wheelchair": "yes"
      },
      "geometry": {
        "type": "Point",
        "coordinates": [
          -93.261824,
          44.738964
        ]
      },
      "id": "node/2006868079"
    },
    {
      "type": "Feature",
      "properties": {
        "@id": "node/2035471580",
        "addr:housenumber": "6602",
        "addr:street": "County Road 632",
        "name": "Makinen Market",
        "shop": "convenience",
        "source": "local_knowledge"
      },
      "geometry": {
        "type": "Point",
        "coordinates": [
          -92.3688948,
          47.3570613
        ]
      },
      "id": "node/2035471580"
    },
    {
      "type": "Feature",
      "properties": {
        "@id": "node/2079444121",
        "name": "Mecca Halal Meat & Grocery",
        "shop": "convenience"
      },
      "geometry": {
        "type": "Point",
        "coordinates": [
          -93.2526153,
          44.9554031
        ]
      },
      "id": "node/2079444121"
    },
    {
      "type": "Feature",
      "properties": {
        "@id": "node/2094277665",
        "level": "1",
        "name": "RSS \"R\" Skyway Store",
        "shop": "convenience"
      },
      "geometry": {
        "type": "Point",
        "coordinates": [
          -93.0885459,
          44.9483032
        ]
      },
      "id": "node/2094277665"
    },
    {
      "type": "Feature",
      "properties": {
        "@id": "node/2095736845",
        "name": "A & T Market",
        "shop": "convenience"
      },
      "geometry": {
        "type": "Point",
        "coordinates": [
          -93.0900226,
          44.9476693
        ]
      },
      "id": "node/2095736845"
    },
    {
      "type": "Feature",
      "properties": {
        "@id": "node/2140778720",
        "addr:city": "Minnetonka",
        "addr:country": "US",
        "addr:county": "Hennepin, MN",
        "addr:housenumber": "11100",
        "addr:postcode": "55305-3370",
        "addr:state": "MN",
        "addr:street": "Cedar Lake Road",
        "brand": "ALDI",
        "brand:wikidata": "Q41171672",
        "brand:wikipedia": "en:Aldi",
        "delivery": "yes",
        "name": "ALDI",
        "name:fa": "آلدی",
        "opening_hours": "Mo, We, Fr-Su 09:00-20:00; Tu, Th 08:30-20:00",
        "payment:american_express": "yes",
        "payment:apple_pay": "yes",
        "payment:cheque": "no",
        "payment:coins": "yes",
        "payment:contactless": "yes",
        "payment:debit_cards": "yes",
        "payment:discover_card": "yes",
        "payment:ebt": "yes",
        "payment:google_pay": "yes",
        "payment:mastercard": "yes",
        "payment:notes": "yes",
        "payment:snap": "yes",
        "payment:visa": "yes",
        "payment:wic": "no",
        "shop": "supermarket",
        "website": "https://www.aldi.us/"
      },
      "geometry": {
        "type": "Point",
        "coordinates": [
          -93.419319,
          44.9527375
        ]
      },
      "id": "node/2140778720"
    },
    {
      "type": "Feature",
      "properties": {
        "@id": "node/2140793913",
        "name": "Festival Foods",
        "shop": "supermarket",
        "wheelchair": "yes"
      },
      "geometry": {
        "type": "Point",
        "coordinates": [
          -93.30603,
          45.109763
        ]
      },
      "id": "node/2140793913"
    },
    {
      "type": "Feature",
      "properties": {
        "@id": "node/2164614875",
        "amenity": "restaurant",
        "cuisine": "coffee_shop;breakfast",
        "name": "Amazing Grace Café & Grocery",
        "shop": "grocery",
        "website": "http://www.amazinggracebakery.com/"
      },
      "geometry": {
        "type": "Point",
        "coordinates": [
          -92.0946609,
          46.7818463
        ]
      },
      "id": "node/2164614875"
    },
    {
      "type": "Feature",
      "properties": {
        "@id": "node/2177460989",
        "addr:city": "Bloomington",
        "addr:housenumber": "4270",
        "addr:postcode": "55435",
        "addr:state": "MN",
        "addr:street": "78th Street West",
        "brand": "Trader Joe's",
        "brand:wikidata": "Q688825",
        "brand:wikipedia": "en:Trader Joe's",
        "name": "Trader Joe's",
        "phone": "+1 952 835 8640",
        "shop": "supermarket",
        "website": "https://www.traderjoes.com/"
      },
      "geometry": {
        "type": "Point",
        "coordinates": [
          -93.3323693,
          44.8591866
        ]
      },
      "id": "node/2177460989"
    },
    {
      "type": "Feature",
      "properties": {
        "@id": "node/2193179303",
        "addr:city": "Holmes City",
        "addr:housenumber": "11142",
        "addr:postcode": "56341",
        "addr:street": "County Road 94  SW",
        "name": "Blades Store",
        "shop": "convenience"
      },
      "geometry": {
        "type": "Point",
        "coordinates": [
          -95.5411895,
          45.8335505
        ]
      },
      "id": "node/2193179303"
    },
    {
      "type": "Feature",
      "properties": {
        "@id": "node/2193296434",
        "addr:city": "Kensington",
        "addr:housenumber": "11",
        "addr:postcode": "56343",
        "addr:street": "Railway Street",
        "name": "Crossroads",
        "shop": "convenience"
      },
      "geometry": {
        "type": "Point",
        "coordinates": [
          -95.6965645,
          45.7783407
        ]
      },
      "id": "node/2193296434"
    },
    {
      "type": "Feature",
      "properties": {
        "@id": "node/2193297939",
        "addr:city": "Kensington",
        "addr:housenumber": "20",
        "addr:postcode": "56343",
        "addr:street": "Central Avenue North",
        "name": "Kensington Supermarket",
        "shop": "supermarket"
      },
      "geometry": {
        "type": "Point",
        "coordinates": [
          -95.6945851,
          45.7790777
        ]
      },
      "id": "node/2193297939"
    },
    {
      "type": "Feature",
      "properties": {
        "@id": "node/2194439522",
        "name": "Jim & Judy's ",
        "shop": "convenience"
      },
      "geometry": {
        "type": "Point",
        "coordinates": [
          -95.3119649,
          46.0204959
        ]
      },
      "id": "node/2194439522"
    },
    {
      "type": "Feature",
      "properties": {
        "@id": "node/2232981207",
        "name": "Shell Convienice Store",
        "shop": "convenience"
      },
      "geometry": {
        "type": "Point",
        "coordinates": [
          -96.3593829,
          43.5295329
        ]
      },
      "id": "node/2232981207"
    },
    {
      "type": "Feature",
      "properties": {
        "@id": "node/2267824357",
        "addr:housename": "Zup's supermarket",
        "addr:housenumber": "3",
        "addr:postcode": "55614",
        "addr:street": "Shopping Center Road",
        "alt_name": "Zup's supermarket",
        "name": "Zupancich Brothers Big Dollar \"Zups\"",
        "shop": "supermarket",
        "source": "local_knowledge"
      },
      "geometry": {
        "type": "Point",
        "coordinates": [
          -91.2708747,
          47.2934066
        ]
      },
      "id": "node/2267824357"
    },
    {
      "type": "Feature",
      "properties": {
        "@id": "node/2267835963",
        "addr:housename": "Silver Bay community center",
        "addr:housenumber": "99",
        "addr:postcode": "55614",
        "addr:street": "Edison Blvd",
        "alt_name": "Silver Bay community center",
        "name": "Wilderness Family Naturals",
        "shop": "supermarket",
        "source": "local_knowledge",
        "website": "wildernessfamilynaturals.com"
      },
      "geometry": {
        "type": "Point",
        "coordinates": [
          -91.2846076,
          47.2903284
        ]
      },
      "id": "node/2267835963"
    },
    {
      "type": "Feature",
      "properties": {
        "@id": "node/2267838756",
        "addr:city": "Duluth",
        "addr:housename": "Whole Foods Co-op",
        "addr:housenumber": "610",
        "addr:postcode": "55805",
        "addr:state": "MN",
        "addr:street": "East 4th Street",
        "name": "Whole Foods Co-op",
        "shop": "supermarket",
        "source": "local_knowledge",
        "website": "https://wholefoods.coop/"
      },
      "geometry": {
        "type": "Point",
        "coordinates": [
          -92.094182,
          46.7955203
        ]
      },
      "id": "node/2267838756"
    },
    {
      "type": "Feature",
      "properties": {
        "@id": "node/2298453770",
        "name": "Vandal's Supervalu",
        "operator": "Supervalu",
        "shop": "supermarket"
      },
      "geometry": {
        "type": "Point",
        "coordinates": [
          -93.0481207,
          43.8647466
        ]
      },
      "id": "node/2298453770"
    },
    {
      "type": "Feature",
      "properties": {
        "@id": "node/2386062806",
        "name": "Wadajir Grocery",
        "shop": "convenience"
      },
      "geometry": {
        "type": "Point",
        "coordinates": [
          -93.2470846,
          44.9679959
        ]
      },
      "id": "node/2386062806"
    },
    {
      "type": "Feature",
      "properties": {
        "@id": "node/2396809406",
        "shop": "convenience"
      },
      "geometry": {
        "type": "Point",
        "coordinates": [
          -94.0206431,
          44.1958507
        ]
      },
      "id": "node/2396809406"
    },
    {
      "type": "Feature",
      "properties": {
        "@id": "node/2396818065",
        "shop": "convenience"
      },
      "geometry": {
        "type": "Point",
        "coordinates": [
          -94.0467035,
          44.1682909
        ]
      },
      "id": "node/2396818065"
    },
    {
      "type": "Feature",
      "properties": {
        "@id": "node/2406350238",
        "addr:city": "Tofte",
        "addr:postcode": "55615",
        "addr:state": "MN",
        "addr:street": "Highway 61",
        "name": "Tofte General Store",
        "shop": "convenience"
      },
      "geometry": {
        "type": "Point",
        "coordinates": [
          -90.8305461,
          47.5771825
        ]
      },
      "id": "node/2406350238"
    },
    {
      "type": "Feature",
      "properties": {
        "@id": "node/2420354869",
        "shop": "convenience"
      },
      "geometry": {
        "type": "Point",
        "coordinates": [
          -93.2168502,
          44.0656157
        ]
      },
      "id": "node/2420354869"
    },
    {
      "type": "Feature",
      "properties": {
        "@id": "node/2420436461",
        "shop": "convenience"
      },
      "geometry": {
        "type": "Point",
        "coordinates": [
          -93.2268423,
          44.066946
        ]
      },
      "id": "node/2420436461"
    },
    {
      "type": "Feature",
      "properties": {
        "@id": "node/2420482761",
        "name": "Kwik Trip",
        "shop": "convenience",
        "source": "Bing"
      },
      "geometry": {
        "type": "Point",
        "coordinates": [
          -93.2536877,
          44.095785
        ]
      },
      "id": "node/2420482761"
    },
    {
      "type": "Feature",
      "properties": {
        "@id": "node/2421388198",
        "shop": "convenience",
        "source": "bing"
      },
      "geometry": {
        "type": "Point",
        "coordinates": [
          -93.2371536,
          44.0916329
        ]
      },
      "id": "node/2421388198"
    },
    {
      "type": "Feature",
      "properties": {
        "@id": "node/2421485916",
        "name": "Mills Gas Mart",
        "shop": "convenience",
        "source": "Bing"
      },
      "geometry": {
        "type": "Point",
        "coordinates": [
          -93.2512941,
          44.0839476
        ]
      },
      "id": "node/2421485916"
    },
    {
      "type": "Feature",
      "properties": {
        "@id": "node/2421485984",
        "name": "Holiday Stationstore",
        "shop": "convenience"
      },
      "geometry": {
        "type": "Point",
        "coordinates": [
          -93.2430516,
          44.0839245
        ]
      },
      "id": "node/2421485984"
    },
    {
      "type": "Feature",
      "properties": {
        "@id": "node/2421593612",
        "shop": "convenience"
      },
      "geometry": {
        "type": "Point",
        "coordinates": [
          -93.2466672,
          44.0958649
        ]
      },
      "id": "node/2421593612"
    },
    {
      "type": "Feature",
      "properties": {
        "@id": "node/2426358920",
        "amenity": "fuel",
        "brand": "Sinclair",
        "name": "Sami's Stop",
        "opening_hours": "06:00-23:00",
        "shop": "convenience"
      },
      "geometry": {
        "type": "Point",
        "coordinates": [
          -93.4021834,
          45.0215264
        ]
      },
      "id": "node/2426358920"
    },
    {
      "type": "Feature",
      "properties": {
        "@id": "node/2428816085",
        "shop": "convenience"
      },
      "geometry": {
        "type": "Point",
        "coordinates": [
          -93.2895224,
          44.2902889
        ]
      },
      "id": "node/2428816085"
    },
    {
      "type": "Feature",
      "properties": {
        "@id": "node/2429680877",
        "shop": "convenience",
        "source": "Bing"
      },
      "geometry": {
        "type": "Point",
        "coordinates": [
          -93.2991546,
          44.2951426
        ]
      },
      "id": "node/2429680877"
    },
    {
      "type": "Feature",
      "properties": {
        "@id": "node/2429695183",
        "shop": "convenience"
      },
      "geometry": {
        "type": "Point",
        "coordinates": [
          -93.2730809,
          44.3130132
        ]
      },
      "id": "node/2429695183"
    },
    {
      "type": "Feature",
      "properties": {
        "@id": "node/2429744880",
        "name": "Kwik Trip",
        "shop": "convenience",
        "source": "Bing"
      },
      "geometry": {
        "type": "Point",
        "coordinates": [
          -93.2617378,
          44.2917368
        ]
      },
      "id": "node/2429744880"
    },
    {
      "type": "Feature",
      "properties": {
        "@id": "node/2429745119",
        "brand": "Kwik Trip",
        "brand:wikidata": "Q6450420",
        "name": "Kwik Trip",
        "shop": "convenience"
      },
      "geometry": {
        "type": "Point",
        "coordinates": [
          -93.2831338,
          44.2722542
        ]
      },
      "id": "node/2429745119"
    },
    {
      "type": "Feature",
      "properties": {
        "@id": "node/2429833882",
        "shop": "convenience"
      },
      "geometry": {
        "type": "Point",
        "coordinates": [
          -93.2721502,
          44.3030209
        ]
      },
      "id": "node/2429833882"
    },
    {
      "type": "Feature",
      "properties": {
        "@id": "node/2430189928",
        "addr:city": "Minneapolis",
        "addr:housenumber": "1101",
        "addr:postcode": "55408",
        "addr:state": "MN",
        "addr:street": "West 35th Street",
        "name": "Louie's Food & Deli",
        "shop": "convenience"
      },
      "geometry": {
        "type": "Point",
        "coordinates": [
          -93.2935,
          44.9393964
        ]
      },
      "id": "node/2430189928"
    },
    {
      "type": "Feature",
      "properties": {
        "@id": "node/2431777611",
        "shop": "convenience"
      },
      "geometry": {
        "type": "Point",
        "coordinates": [
          -93.6727542,
          44.1973514
        ]
      },
      "id": "node/2431777611"
    },
    {
      "type": "Feature",
      "properties": {
        "@id": "node/2431777619",
        "brand": "Casey's General Store",
        "brand:wikidata": "Q2940968",
        "brand:wikipedia": "en:Casey's General Stores",
        "name": "Casey's General Store",
        "shop": "convenience"
      },
      "geometry": {
        "type": "Point",
        "coordinates": [
          -93.6779308,
          44.1975514
        ]
      },
      "id": "node/2431777619"
    },
    {
      "type": "Feature",
      "properties": {
        "@id": "node/2436060626",
        "shop": "convenience"
      },
      "geometry": {
        "type": "Point",
        "coordinates": [
          -93.1790549,
          44.4432081
        ]
      },
      "id": "node/2436060626"
    },
    {
      "type": "Feature",
      "properties": {
        "@id": "node/2436106553",
        "shop": "convenience"
      },
      "geometry": {
        "type": "Point",
        "coordinates": [
          -93.167162,
          44.4544593
        ]
      },
      "id": "node/2436106553"
    },
    {
      "type": "Feature",
      "properties": {
        "@id": "node/2436106559",
        "addr:housenumber": "521",
        "addr:postcode": "55057",
        "addr:street": "West Woodley Street",
        "name": "Casey's",
        "shop": "convenience",
        "website": "https://caseys.com/"
      },
      "geometry": {
        "type": "Point",
        "coordinates": [
          -93.1682939,
          44.4490484
        ]
      },
      "id": "node/2436106559"
    },
    {
      "type": "Feature",
      "properties": {
        "@id": "node/2436106566",
        "shop": "convenience"
      },
      "geometry": {
        "type": "Point",
        "coordinates": [
          -93.1706059,
          44.4480757
        ]
      },
      "id": "node/2436106566"
    },
    {
      "type": "Feature",
      "properties": {
        "@id": "node/2436219393",
        "addr:city": "Farmington",
        "addr:country": "US",
        "addr:housenumber": "957",
        "addr:postcode": "55024",
        "addr:state": "MN",
        "addr:street": "8th Street",
        "name": "Amcon",
        "phone": "+1-651-463-7333",
        "shop": "convenience",
        "website": "http://www.amconmn.com/home.html"
      },
      "geometry": {
        "type": "Point",
        "coordinates": [
          -93.13622,
          44.6312074
        ]
      },
      "id": "node/2436219393"
    },
    {
      "type": "Feature",
      "properties": {
        "@id": "node/2465177883",
        "brand": "Whole Foods Market",
        "brand:wikidata": "Q1809448",
        "brand:wikipedia": "en:Whole Foods Market",
        "name": "Whole Foods Market",
        "shop": "supermarket",
        "toilets:wheelchair": "yes",
        "wheelchair": "yes",
        "wheelchair:description": "all registers and all bathrooms accessible."
      },
      "geometry": {
        "type": "Point",
        "coordinates": [
          -93.269045,
          44.982479
        ]
      },
      "id": "node/2465177883"
    },
    {
      "type": "Feature",
      "properties": {
        "@id": "node/2471132664",
        "addr:housenumber": "689",
        "addr:street": "Snelling Avenue",
        "name": "Kim's Oriental Market",
        "phone": "+1-651-646-0428‎",
        "shop": "supermarket"
      },
      "geometry": {
        "type": "Point",
        "coordinates": [
          -93.1673367,
          44.9618478
        ]
      },
      "id": "node/2471132664"
    },
    {
      "type": "Feature",
      "properties": {
        "@id": "node/2480672186",
        "shop": "convenience"
      },
      "geometry": {
        "type": "Point",
        "coordinates": [
          -95.5631796,
          43.6407096
        ]
      },
      "id": "node/2480672186"
    },
    {
      "type": "Feature",
      "properties": {
        "@id": "node/2480672205",
        "shop": "convenience"
      },
      "geometry": {
        "type": "Point",
        "coordinates": [
          -95.5705879,
          43.6352861
        ]
      },
      "id": "node/2480672205"
    },
    {
      "type": "Feature",
      "properties": {
        "@id": "node/2480683256",
        "shop": "convenience"
      },
      "geometry": {
        "type": "Point",
        "coordinates": [
          -95.5930273,
          43.6307939
        ]
      },
      "id": "node/2480683256"
    },
    {
      "type": "Feature",
      "properties": {
        "@id": "node/2480683290",
        "shop": "convenience"
      },
      "geometry": {
        "type": "Point",
        "coordinates": [
          -95.5857531,
          43.6305784
        ]
      },
      "id": "node/2480683290"
    },
    {
      "type": "Feature",
      "properties": {
        "@id": "node/2480683368",
        "name": "Hy-Vee Gas",
        "shop": "convenience"
      },
      "geometry": {
        "type": "Point",
        "coordinates": [
          -95.5956907,
          43.6317684
        ]
      },
      "id": "node/2480683368"
    },
    {
      "type": "Feature",
      "properties": {
        "@id": "node/2480839530",
        "name": "Casey's General Store",
        "shop": "convenience"
      },
      "geometry": {
        "type": "Point",
        "coordinates": [
          -95.6025714,
          43.6316199
        ]
      },
      "id": "node/2480839530"
    },
    {
      "type": "Feature",
      "properties": {
        "@id": "node/2481876516",
        "brand": "Hy-Vee",
        "brand:wikidata": "Q1639719",
        "brand:wikipedia": "en:Hy-Vee",
        "name": "Hy-Vee",
        "shop": "supermarket"
      },
      "geometry": {
        "type": "Point",
        "coordinates": [
          -95.595992,
          43.6326629
        ]
      },
      "id": "node/2481876516"
    },
    {
      "type": "Feature",
      "properties": {
        "@id": "node/2482012396",
        "shop": "convenience"
      },
      "geometry": {
        "type": "Point",
        "coordinates": [
          -93.3534916,
          43.6516618
        ]
      },
      "id": "node/2482012396"
    },
    {
      "type": "Feature",
      "properties": {
        "@id": "node/2484468076",
        "name": "Jasper Mini Mall",
        "shop": "convenience"
      },
      "geometry": {
        "type": "Point",
        "coordinates": [
          -96.3992733,
          43.8506011
        ]
      },
      "id": "node/2484468076"
    },
    {
      "type": "Feature",
      "properties": {
        "@id": "node/2487490373",
        "name": "Freedom",
        "shop": "convenience",
        "source": "Bing"
      },
      "geometry": {
        "type": "Point",
        "coordinates": [
          -96.3068651,
          43.9976332
        ]
      },
      "id": "node/2487490373"
    },
    {
      "type": "Feature",
      "properties": {
        "@id": "node/2487634355",
        "shop": "convenience"
      },
      "geometry": {
        "type": "Point",
        "coordinates": [
          -96.3079702,
          44.0002399
        ]
      },
      "id": "node/2487634355"
    },
    {
      "type": "Feature",
      "properties": {
        "@id": "node/2487634362",
        "shop": "convenience"
      },
      "geometry": {
        "type": "Point",
        "coordinates": [
          -96.3069321,
          43.9986308
        ]
      },
      "id": "node/2487634362"
    },
    {
      "type": "Feature",
      "properties": {
        "@id": "node/2491855688",
        "addr:city": "Crosslake",
        "addr:housename": "35561 County Road 3",
        "addr:postcode": "56442",
        "addr:state": "MN",
        "atm": "yes",
        "gas": "yes",
        "ice": "yes",
        "name": "Reeds",
        "phone": "+1-218-692-2711",
        "shop": "supermarket"
      },
      "geometry": {
        "type": "Point",
        "coordinates": [
          -94.1055334,
          46.6692205
        ]
      },
      "id": "node/2491855688"
    },
    {
      "type": "Feature",
      "properties": {
        "@id": "node/2493282432",
        "brand": "Kum & Go",
        "brand:wikidata": "Q6443340",
        "brand:wikipedia": "en:Kum & Go",
        "name": "Kum & Go",
        "shop": "convenience"
      },
      "geometry": {
        "type": "Point",
        "coordinates": [
          -95.9343339,
          43.6407844
        ]
      },
      "id": "node/2493282432"
    },
    {
      "type": "Feature",
      "properties": {
        "@id": "node/2496900641",
        "name": "C-Store",
        "shop": "convenience",
        "source": "Bing"
      },
      "geometry": {
        "type": "Point",
        "coordinates": [
          -95.9340004,
          43.6401928
        ]
      },
      "id": "node/2496900641"
    },