{
  "type": "FeatureCollection",
  "generator": "overpass-ide",
  "copyright": "The data included in this document is from www.openstreetmap.org. The data is made available under ODbL.",
  "timestamp": "2023-03-05T23:51:29Z",
  "features": [
    {
      "type": "Feature",
      "properties": {
        "@id": "node/266310881",
        "amenity": "drinking_water"
      },
      "geometry": {
        "type": "Point",
        "coordinates": [
          12.4934985,
          41.8923773
        ]
      },
      "id": "node/266310881"
    },
    {
      "type": "Feature",
      "properties": {
        "@id": "node/304595383",
        "addr:city": "Henderson",
        "addr:housenumber": "2716",
        "addr:postcode": "89014",
        "addr:state": "NV",
        "addr:street": "North Green Valley Parkway",
        "brand": "Trader Joe's",
        "brand:wikidata": "Q688825",
        "brand:wikipedia": "en:Trader Joe's",
        "name": "Trader Joe's",
        "opening_hours": "Mo-Su 08:00-21:00",
        "shop": "supermarket"
      },
      "geometry": {
        "type": "Point",
        "coordinates": [
          -115.0813114,
          36.0696149
        ]
      },
      "id": "node/304595383"
    },
    {
      "type": "Feature",
      "properties": {
        "@id": "node/307444858",
        "addr:street": "South Decatur Boulevard",
        "brand": "Smith's",
        "brand:wikidata": "Q7544856",
        "brand:wikipedia": "en:Smith's Food and Drug",
        "name": "Smith's",
        "official_name": "Smith's Food and Drug",
        "shop": "supermarket",
        "website": "https://www.smithsfoodanddrug.com/",
        "wheelchair": "yes"
      },
      "geometry": {
        "type": "Point",
        "coordinates": [
          -115.209421,
          36.1180747
        ]
      },
      "id": "node/307444858"
    },
    {
      "type": "Feature",
      "properties": {
        "@id": "node/365788742",
        "addr:city": "Henderson",
        "addr:housenumber": "830",
        "addr:postcode": "89015",
        "addr:state": "NV",
        "addr:street": "S> Boulder Highway",
        "brand": "Smith's",
        "brand:wikidata": "Q7544856",
        "brand:wikipedia": "en:Smith's Food and Drug",
        "name": "Smith's",
        "official_name": "Smith's Food and Drug",
        "opening_hours": "Mo-Su 06:00-23:00",
        "shop": "supermarket",
        "url": "http://stores.lowes.com/lowes/cgi/site?site=1537"
      },
      "geometry": {
        "type": "Point",
        "coordinates": [
          -114.9657478,
          36.0268895
        ]
      },
      "id": "node/365788742"
    },
    {
      "type": "Feature",
      "properties": {
        "@id": "node/388984003",
        "amenity": "drinking_water",
        "fountain": "nasone"
      },
      "geometry": {
        "type": "Point",
        "coordinates": [
          12.494519,
          41.8877413
        ]
      },
      "id": "node/388984003"
    },
    {
      "type": "Feature",
      "properties": {
        "@id": "node/446942641",
        "addr:housename": "Whole Foods Market",
        "addr:housenumber": "6139",
        "addr:postcode": "89502",
        "addr:street": "South Virginia Street",
        "brand": "Whole Foods Market",
        "brand:wikidata": "Q1809448",
        "brand:wikipedia": "en:Whole Foods Market",
        "name": "Whole Foods Market",
        "shop": "supermarket",
        "website": "https://wholefoodsmarket.com/stores/reno"
      },
      "geometry": {
        "type": "Point",
        "coordinates": [
          -119.787229,
          39.468918
        ]
      },
      "id": "node/446942641"
    },
    {
      "type": "Feature",
      "properties": {
        "@id": "node/454065316",
        "addr:housenumber": "7310",
        "addr:street": "South Las Vegas Boulevard",
        "name": "Terrible's",
        "shop": "convenience"
      },
      "geometry": {
        "type": "Point",
        "coordinates": [
          -115.1713761,
          36.0564329
        ]
      },
      "id": "node/454065316"
    },
    {
      "type": "Feature",
      "properties": {
        "@id": "node/471036224",
        "brand": "Raley's",
        "brand:wikidata": "Q7286970",
        "name": "Raley's",
        "shop": "supermarket"
      },
      "geometry": {
        "type": "Point",
        "coordinates": [
          -119.949433,
          39.2508376
        ]
      },
      "id": "node/471036224"
    },
    {
      "type": "Feature",
      "properties": {
        "@id": "node/495113034",
        "amenity": "drinking_water",
        "check_date": "2022-06-22"
      },
      "geometry": {
        "type": "Point",
        "coordinates": [
          12.4934283,
          41.8913309
        ]
      },
      "id": "node/495113034"
    },
    {
      "type": "Feature",
      "properties": {
        "@id": "node/534806623",
        "shop": "convenience"
      },
      "geometry": {
        "type": "Point",
        "coordinates": [
          -115.2700654,
          36.2982093
        ]
      },
      "id": "node/534806623"
    },
    {
      "type": "Feature",
      "properties": {
        "@id": "node/534809949",
        "brand": "Albertsons",
        "brand:wikidata": "Q2831861",
        "brand:wikipedia": "en:Albertsons",
        "name": "Albertsons",
        "shop": "supermarket"
      },
      "geometry": {
        "type": "Point",
        "coordinates": [
          -115.279318,
          36.3005335
        ]
      },
      "id": "node/534809949"
    },
    {
      "type": "Feature",
      "properties": {
        "@id": "node/544743546",
        "brand": "Save Mart",
        "brand:wikidata": "Q7428009",
        "brand:wikipedia": "en:Save Mart Supermarkets",
        "name": "Save Mart",
        "shop": "supermarket"
      },
      "geometry": {
        "type": "Point",
        "coordinates": [
          -119.806595,
          39.5072322
        ]
      },
      "id": "node/544743546"
    },
    {
      "type": "Feature",
      "properties": {
        "@id": "node/559981995",
        "brand": "Smith's",
        "brand:wikidata": "Q7544856",
        "brand:wikipedia": "en:Smith's Food and Drug",
        "name": "Smith's (Kroger)",
        "official_name": "Smith's Food and Drug",
        "shop": "supermarket"
      },
      "geometry": {
        "type": "Point",
        "coordinates": [
          -119.756782,
          39.4373477
        ]
      },
      "id": "node/559981995"
    },
    {
      "type": "Feature",
      "properties": {
        "@id": "node/572829453",
        "name": "Raley's",
        "shop": "supermarket"
      },
      "geometry": {
        "type": "Point",
        "coordinates": [
          -119.85362,
          39.48287
        ]
      },
      "id": "node/572829453"
    },
    {
      "type": "Feature",
      "properties": {
        "@id": "node/653873591",
        "addr:city": "Lovelock",
        "addr:state": "NV",
        "is_in:city": "Lovelock",
        "is_in:state": "Nevada",
        "is_in:state_code": "NV",
        "name": "Two Stiff's Serving Gas",
        "shop": "convenience"
      },
      "geometry": {
        "type": "Point",
        "coordinates": [
          -118.4739218,
          40.1805965
        ]
      },
      "id": "node/653873591"
    },
    {
      "type": "Feature",
      "properties": {
        "@id": "node/653879718",
        "addr:city": "Lovelock",
        "addr:state": "NV",
        "branch": "(food)",
        "brand": "Shell",
        "brand:wikidata": "Q110716465",
        "is_in:city": "Lovelock",
        "is_in:state": "Nevada",
        "is_in:state_code": "NV",
        "name": "Shell",
        "shop": "convenience"
      },
      "geometry": {
        "type": "Point",
        "coordinates": [
          -118.478732,
          40.1749201
        ]
      },
      "id": "node/653879718"
    },
    {
      "type": "Feature",
      "properties": {
        "@id": "node/653880063",
        "addr:city": "Lovelock",
        "addr:state": "NV",
        "is_in:city": "Lovelock",
        "is_in:state": "Nevada",
        "is_in:state_code": "NV",
        "name": "Shop-n-go (food) Pizza",
        "shop": "convenience"
      },
      "geometry": {
        "type": "Point",
        "coordinates": [
          -118.4789466,
          40.1745102
        ]
      },
      "id": "node/653880063"
    },
    {
      "type": "Feature",
      "properties": {
        "@id": "node/653880754",
        "addr:city": "Lovelock",
        "addr:state": "NV",
        "is_in:city": "Lovelock",
        "is_in:state": "Nevada",
        "is_in:state_code": "NV",
        "name": "BJ's Gas and food",
        "shop": "convenience"
      },
      "geometry": {
        "type": "Point",
        "coordinates": [
          -118.4718816,
          40.1856131
        ]
      },
      "id": "node/653880754"
    },
    {
      "type": "Feature",
      "properties": {
        "@id": "node/653880808",
        "name": "Lazy K Store and Pub",
        "shop": "convenience"
      },
      "geometry": {
        "type": "Point",
        "coordinates": [
          -118.4690116,
          40.1879531
        ]
      },
      "id": "node/653880808"
    },
    {
      "type": "Feature",
      "properties": {
        "@id": "node/675449733",
        "brand": "7-Eleven",
        "brand:wikidata": "Q259340",
        "brand:wikipedia": "en:7-Eleven",
        "name": "7-Eleven",
        "shop": "convenience"
      },
      "geometry": {
        "type": "Point",
        "coordinates": [
          -115.1244529,
          35.9965162
        ]
      },
      "id": "node/675449733"
    },
    {
      "type": "Feature",
      "properties": {
        "@id": "node/685457655",
        "amenity": "drinking_water",
        "check_date": "2021-11-01"
      },
      "geometry": {
        "type": "Point",
        "coordinates": [
          12.4867108,
          41.8902623
        ]
      },
      "id": "node/685457655"
    },
    {
      "type": "Feature",
      "properties": {
        "@id": "node/685461877",
        "amenity": "drinking_water",
        "check_date": "2021-11-01"
      },
      "geometry": {
        "type": "Point",
        "coordinates": [
          12.4875779,
          41.8891234
        ]
      },
      "id": "node/685461877"
    },
    {
      "type": "Feature",
      "properties": {
        "@id": "node/811044004",
        "name": "Terrible Herbst",
        "shop": "convenience"
      },
      "geometry": {
        "type": "Point",
        "coordinates": [
          -115.2074647,
          36.1257087
        ]
      },
      "id": "node/811044004"
    },
    {
      "type": "Feature",
      "properties": {
        "@id": "node/914017959",
        "name": "FoodMaxx (Save Mart)",
        "shop": "supermarket"
      },
      "geometry": {
        "type": "Point",
        "coordinates": [
          -119.7356059,
          39.5403026
        ]
      },
      "id": "node/914017959"
    },
    {
      "type": "Feature",
      "properties": {
        "@id": "node/914972938",
        "amenity": "fuel",
        "brand": "7-Eleven",
        "brand:wikidata": "Q259340",
        "name": "7-Eleven",
        "shop": "convenience"
      },
      "geometry": {
        "type": "Point",
        "coordinates": [
          -119.761678,
          39.538906
        ]
      },
      "id": "node/914972938"
    },
    {
      "type": "Feature",
      "properties": {
        "@id": "node/914985782",
        "name": "Corner Minit Mart",
        "shop": "convenience"
      },
      "geometry": {
        "type": "Point",
        "coordinates": [
          -119.7896,
          39.522436
        ]
      },
      "id": "node/914985782"
    },
    {
      "type": "Feature",
      "properties": {
        "@id": "node/915255729",
        "brand": "Save Mart",
        "brand:wikidata": "Q7428009",
        "brand:wikipedia": "en:Save Mart Supermarkets",
        "name": "Save Mart",
        "shop": "supermarket"
      },
      "geometry": {
        "type": "Point",
        "coordinates": [
          -119.862476,
          39.5342764
        ]
      },
      "id": "node/915255729"
    },
    {
      "type": "Feature",
      "properties": {
        "@id": "node/953890053",
        "amenity": "drinking_water"
      },
      "geometry": {
        "type": "Point",
        "coordinates": [
          12.4879526,
          41.8887986
        ]
      },
      "id": "node/953890053"
    },
    {
      "type": "Feature",
      "properties": {
        "@id": "node/953890062",
        "amenity": "drinking_water",
        "check_date": "2021-11-01",
        "man_made": "water_tap"
      },
      "geometry": {
        "type": "Point",
        "coordinates": [
          12.4883755,
          41.890985
        ]
      },
      "id": "node/953890062"
    },
    {
      "type": "Feature",
      "properties": {
        "@id": "node/953909059",
        "amenity": "drinking_water",
        "fountain": "nasone",
        "wikimedia_commons": "File:Nasone via dei santi Quattro,roma,italy 62022.jpeg"
      },
      "geometry": {
        "type": "Point",
        "coordinates": [
          12.4968765,
          41.8889852
        ]
      },
      "id": "node/953909059"
    },
    {
      "type": "Feature",
      "properties": {
        "@id": "node/1170494282",
        "amenity": "drinking_water",
        "fountain": "nasone"
      },
      "geometry": {
        "type": "Point",
        "coordinates": [
          12.4942213,
          41.8900377
        ]
      },
      "id": "node/1170494282"
    },
    {
      "type": "Feature",
      "properties": {
        "@id": "node/1183475653",
        "amenity": "fuel",
        "brand": "Shell",
        "brand:wikidata": "Q154950",
        "brand:wikipedia": "en:Royal Dutch Shell",
        "ele": "673",
        "name": "Shell",
        "shop": "convenience",
        "source": "collected by Volker Bartheld, converted and imported by malenki"
      },
      "geometry": {
        "type": "Point",
        "coordinates": [
          -115.1897761,
          36.0411725
        ]
      },
      "id": "node/1183475653"
    },
    {
      "type": "Feature",
      "properties": {
        "@id": "node/1183475957",
        "ele": "1774",
        "name": "Chevron Tonopah",
        "shop": "convenience",
        "source": "collected by Volker Bartheld, converted and imported by malenki",
        "toilets": "yes"
      },
      "geometry": {
        "type": "Point",
        "coordinates": [
          -117.2472375,
          38.0776925
        ]
      },
      "id": "node/1183475957"
    },
    {
      "type": "Feature",
      "properties": {
        "@id": "node/1183479263",
        "ele": "1812",
        "name": "Super 7",
        "shop": "convenience",
        "source": "collected by Volker Bartheld, converted and imported by malenki"
      },
      "geometry": {
        "type": "Point",
        "coordinates": [
          -117.2312827,
          38.0698269
        ]
      },
      "id": "node/1183479263"
    },
    {
      "type": "Feature",
      "properties": {
        "@id": "node/1183479608",
        "ele": "1814",
        "name": "Gasolini",
        "shop": "convenience",
        "source": "collected by Volker Bartheld, converted and imported by malenki"
      },
      "geometry": {
        "type": "Point",
        "coordinates": [
          -117.231095,
          38.0688301
        ]
      },
      "id": "node/1183479608"
    },
    {
      "type": "Feature",
      "properties": {
        "@id": "node/1292413108",
        "amenity": "fuel",
        "brand": "Casey's General Store",
        "brand:wikidata": "Q2940968",
        "brand:wikipedia": "en:Casey's",
        "name": "Casey's General Store",
        "shop": "convenience"
      },
      "geometry": {
        "type": "Point",
        "coordinates": [
          -93.4441101,
          42.0224751
        ]
      },
      "id": "node/1292413108"
    },
    {
      "type": "Feature",
      "properties": {
        "@id": "node/1292413130",
        "amenity": "fuel",
        "brand": "Kum & Go",
        "brand:wikidata": "Q6443340",
        "brand:wikipedia": "en:Kum & Go",
        "name": "Kum & Go",
        "shop": "convenience"
      },
      "geometry": {
        "type": "Point",
        "coordinates": [
          -93.457955,
          42.0225648
        ]
      },
      "id": "node/1292413130"
    },
    {
      "type": "Feature",
      "properties": {
        "@id": "node/1292413178",
        "amenity": "fuel",
        "brand": "Kum & Go",
        "brand:wikidata": "Q6443340",
        "brand:wikipedia": "en:Kum & Go",
        "name": "Kum & Go",
        "shop": "convenience"
      },
      "geometry": {
        "type": "Point",
        "coordinates": [
          -93.4499384,
          42.0228333
        ]
      },
      "id": "node/1292413178"
    },
    {
      "type": "Feature",
      "properties": {
        "@id": "node/1363132406",
        "shop": "convenience"
      },
      "geometry": {
        "type": "Point",
        "coordinates": [
          -114.8640489,
          39.2355226
        ]
      },
      "id": "node/1363132406"
    },
    {
      "type": "Feature",
      "properties": {
        "@id": "node/1409418738",
        "name": "Food Source (Raley's)",
        "shop": "supermarket"
      },
      "geometry": {
        "type": "Point",
        "coordinates": [
          -119.7968482,
          39.4865237
        ]
      },
      "id": "node/1409418738"
    },
    {
      "type": "Feature",
      "properties": {
        "@id": "node/1617975595",
        "shop": "supermarket"
      },
      "geometry": {
        "type": "Point",
        "coordinates": [
          -115.3876686,
          35.6076059
        ]
      },
      "id": "node/1617975595"
    },
    {
      "type": "Feature",
      "properties": {
        "@id": "node/1656861982",
        "amenity": "drinking_water",
        "check_date": "2021-11-01",
        "man_made": "water_tap"
      },
      "geometry": {
        "type": "Point",
        "coordinates": [
          12.4883955,
          41.8907173
        ]
      },
      "id": "node/1656861982"
    },
    {
      "type": "Feature",
      "properties": {
        "@id": "node/1699969270",
        "brand": "Smith's",
        "brand:wikidata": "Q7544856",
        "brand:wikipedia": "en:Smith's Food and Drug",
        "name": "Smith's",
        "official_name": "Smith's Food and Drug",
        "shop": "supermarket"
      },
      "geometry": {
        "type": "Point",
        "coordinates": [
          -115.241808,
          36.0423329
        ]
      },
      "id": "node/1699969270"
    },
    {
      "type": "Feature",
      "properties": {
        "@id": "node/1699969408",
        "brand": "Albertsons",
        "brand:wikidata": "Q2831861",
        "brand:wikipedia": "en:Albertsons",
        "name": "Albertsons",
        "shop": "supermarket"
      },
      "geometry": {
        "type": "Point",
        "coordinates": [
          -115.241368,
          36.0547374
        ]
      },
      "id": "node/1699969408"
    },
    {
      "type": "Feature",
      "properties": {
        "@id": "node/1707944006",
        "addr:housenumber": "5700",
        "addr:postcode": "89431",
        "addr:street": "Sun Valley Blvd",
        "brand": "7-Eleven",
        "brand:wikidata": "Q259340",
        "name": "7-Eleven",
        "shop": "convenience"
      },
      "geometry": {
        "type": "Point",
        "coordinates": [
          -119.780024,
          39.6002775
        ]
      },
      "id": "node/1707944006"
    },
    {
      "type": "Feature",
      "properties": {
        "@id": "node/1709280191",
        "amenity": "drinking_water",
        "check_date": "2021-11-02",
        "fountain": "bottle_refill",
        "name:ru": "вода с газом и без. бесплатная"
      },
      "geometry": {
        "type": "Point",
        "coordinates": [
          12.4911794,
          41.891319
        ]
      },
      "id": "node/1709280191"
    },
    {
      "type": "Feature",
      "properties": {
        "@id": "node/1709371726",
        "name": "Bi-Rite Market",
        "shop": "convenience"
      },
      "geometry": {
        "type": "Point",
        "coordinates": [
          -119.7800804,
          39.5997639
        ]
      },
      "id": "node/1709371726"
    },
    {
      "type": "Feature",
      "properties": {
        "@id": "node/1709903423",
        "name": "Sun Valley Smoke Shop",
        "shop": "convenience"
      },
      "geometry": {
        "type": "Point",
        "coordinates": [
          -119.7796551,
          39.5922066
        ]
      },
      "id": "node/1709903423"
    },
    {
      "type": "Feature",
      "properties": {
        "@id": "node/1709903433",
        "amenity": "marketplace",
        "name": "Sun Valley Discount Center"
      },
      "geometry": {
        "type": "Point",
        "coordinates": [
          -119.7796444,
          39.592405
        ]
      },
      "id": "node/1709903433"
    },
    {
      "type": "Feature",
      "properties": {
        "@id": "node/1721875458",
        "addr:housenumber": "7151",
        "addr:postcode": "89129",
        "addr:street": "W Craig Rd",
        "brand": "Albertsons",
        "brand:wikidata": "Q2831861",
        "brand:wikipedia": "en:Albertsons",
        "name": "Albertsons",
        "opening_hours": "Mo-Su 06:00-24:00",
        "phone": "17028399034",
        "shop": "supermarket",
        "website": "https://www.albertsons.com/",
        "wheelchair": "yes"
      },
      "geometry": {
        "type": "Point",
        "coordinates": [
          -115.250244,
          36.2382395
        ]
      },
      "id": "node/1721875458"
    },
    {
      "type": "Feature",
      "properties": {
        "@id": "node/1782966260",
        "name": "Crossroads Valero",
        "shop": "convenience"
      },
      "geometry": {
        "type": "Point",
        "coordinates": [
          -96.36471,
          33.0650928
        ]
      },
      "id": "node/1782966260"
    },
    {
      "type": "Feature",
      "properties": {
        "@id": "node/1941752971",
        "name": "Tiendo El Salvador",
        "shop": "convenience"
      },
      "geometry": {
        "type": "Point",
        "coordinates": [
          -115.1542297,
          36.1523971
        ]
      },
      "id": "node/1941752971"
    },
    {
      "type": "Feature",
      "properties": {
        "@id": "node/1941754533",
        "name": "Su Salud",
        "shop": "convenience"
      },
      "geometry": {
        "type": "Point",
        "coordinates": [
          -115.1541868,
          36.1528302
        ]
      },
      "id": "node/1941754533"
    },
    {
      "type": "Feature",
      "properties": {
        "@id": "node/2021840385",
        "addr:housenumber": "7130",
        "addr:postcode": "89149",
        "addr:street": "North Durango Drive",
        "brand": "Smith's",
        "brand:wikidata": "Q7544856",
        "brand:wikipedia": "en:Smith's Food and Drug",
        "name": "Smith's",
        "opening_hours": "24/7",
        "phone": "7026473566",
        "shop": "supermarket",
        "website": "https://www.smithsfoodanddrug.com/"
      },
      "geometry": {
        "type": "Point",
        "coordinates": [
          -115.285679,
          36.2906659
        ]
      },
      "id": "node/2021840385"
    },
    {
      "type": "Feature",
      "properties": {
        "@id": "node/2021854046",
        "addr:city": "Las Vegas",
        "addr:housenumber": "7785",
        "addr:postcode": "89131",
        "addr:state": "NV",
        "addr:street": "North Durango Drive",
        "brand": "7-Eleven",
        "brand:wikidata": "Q259340",
        "brand:wikipedia": "en:7-Eleven",
        "name": "7-Eleven",
        "ref": "34007",
        "shop": "convenience"
      },
      "geometry": {
        "type": "Point",
        "coordinates": [
          -115.2816758,
          36.3026696
        ]
      },
      "id": "node/2021854046"
    },
    {
      "type": "Feature",
      "properties": {
        "@id": "node/2021868086",
        "brand": "Texaco",
        "brand:wikidata": "Q775060",
        "brand:wikipedia": "en:Texaco",
        "name": "Texaco",
        "shop": "convenience"
      },
      "geometry": {
        "type": "Point",
        "coordinates": [
          -115.2869999,
          36.2769228
        ]
      },
      "id": "node/2021868086"
    },
    {
      "type": "Feature",
      "properties": {
        "@id": "node/2021868486",
        "addr:housenumber": "6446",
        "addr:postcode": "89149",
        "addr:street": "North Durango Drive",
        "brand": "7-Eleven",
        "brand:wikidata": "Q259340",
        "brand:wikipedia": "en:7-Eleven",
        "name": "7-Eleven",
        "opening_hours": "24/7",
        "phone": "+1-702-569-9543",
        "shop": "convenience",
        "website": "http://www.7eleven.com"
      },
      "geometry": {
        "type": "Point",
        "coordinates": [
          -115.2875286,
          36.2780476
        ]
      },
      "id": "node/2021868486"
    },
    {
      "type": "Feature",
      "properties": {
        "@id": "node/2033022923",
        "addr:city": "Reno",
        "addr:country": "US",
        "addr:housenumber": "5035",
        "addr:postcode": "89502",
        "addr:state": "NV",
        "addr:street": "South McCarran Boulevard",
        "brand": "Trader Joe's",
        "brand:wikidata": "Q688825",
        "brand:wikipedia": "en:Trader Joe's",
        "name": "Trader Joe's",
        "phone": "+1-775-826-1621",
        "shop": "supermarket",
        "website": "https://www.traderjoes.com/",
        "wheelchair": "yes"
      },
      "geometry": {
        "type": "Point",
        "coordinates": [
          -119.783989,
          39.478812
        ]
      },
      "id": "node/2033022923"
    },
    {
      "type": "Feature",
      "properties": {
        "@id": "node/2144366495",
        "brand": "7-Eleven",
        "brand:wikidata": "Q259340",
        "brand:wikipedia": "en:7-Eleven",
        "name": "7-Eleven",
        "shop": "convenience"
      },
      "geometry": {
        "type": "Point",
        "coordinates": [
          -115.1392039,
          36.1711162
        ]
      },
      "id": "node/2144366495"
    },
    {
      "type": "Feature",
      "properties": {
        "@id": "node/2190647754",
        "name": "Short Line Express Market",
        "shop": "convenience"
      },
      "geometry": {
        "type": "Point",
        "coordinates": [
          -114.9923309,
          36.0118826
        ]
      },
      "id": "node/2190647754"
    },
    {
      "type": "Feature",
      "properties": {
        "@id": "node/2253466991",
        "amenity": "marketplace",
        "name": "Beatty Mercantile"
      },
      "geometry": {
        "type": "Point",
        "coordinates": [
          -116.7584503,
          36.9075687
        ]
      },
      "id": "node/2253466991"
    },
    {
      "type": "Feature",
      "properties": {
        "@id": "node/2432759301",
        "brand": "Hudson",
        "brand:wikidata": "Q111534515",
        "name": "Hudson",
        "not:brand:wikidata": "Q5928682",
        "shop": "convenience"
      },
      "geometry": {
        "type": "Point",
        "coordinates": [
          -115.148544,
          36.083371
        ]
      },
      "id": "node/2432759301"
    },
    {
      "type": "Feature",
      "properties": {
        "@id": "node/2440634447",
        "addr:housenumber": "4505",
        "addr:postcode": "89102",
        "addr:street": "W Sahara Avenue",
        "name": "Ranis World Foods",
        "shop": "supermarket",
        "website": "www.ranisworldfoods.com"
      },
      "geometry": {
        "type": "Point",
        "coordinates": [
          -115.2011098,
          36.1436867
        ]
      },
      "id": "node/2440634447"
    },
    {
      "type": "Feature",
      "properties": {
        "@id": "node/2480838813",
        "brand": "ampm",
        "brand:wikidata": "Q306960",
        "name": "ampm",
        "shop": "convenience"
      },
      "geometry": {
        "type": "Point",
        "coordinates": [
          -115.1686177,
          35.9674118
        ]
      },
      "id": "node/2480838813"
    },
    {
      "type": "Feature",
      "properties": {
        "@id": "node/2537299968",
        "amenity": "drinking_water",
        "fountain": "nasone",
        "indoor": "no",
        "wikimedia_commons": "File:Nasone via mecenate, Roma, Italia Jun 30, 2022 06-19-16 PM.jpeg"
      },
      "geometry": {
        "type": "Point",
        "coordinates": [
          12.4987211,
          41.8911676
        ]
      },
      "id": "node/2537299968"
    },
    {
      "type": "Feature",
      "properties": {
        "@id": "node/2574819230",
        "brand": "Albertsons",
        "brand:wikidata": "Q2831861",
        "brand:wikipedia": "en:Albertsons",
        "name": "Albertsons",
        "payment:apple_pay": "yes",
        "shop": "supermarket"
      },
      "geometry": {
        "type": "Point",
        "coordinates": [
          -115.066975,
          36.1384872
        ]
      },
      "id": "node/2574819230"
    },
    {
      "type": "Feature",
      "properties": {
        "@id": "node/2574819245",
        "addr:city": "Las Vegas",
        "addr:housenumber": "4965",
        "addr:postcode": "89104",
        "addr:state": "NV",
        "addr:street": "East Sahara Avenue",
        "brand": "Smith's",
        "brand:wikidata": "Q7544856",
        "brand:wikipedia": "en:Smith's Food and Drug",
        "name": "Smith's",
        "official_name": "Smith's Food and Drug",
        "operator": "Smith's Food & Drug Centers, Inc.",
        "phone": "(702) 431-9973",
        "shop": "supermarket",
        "website": "smithsfoodanddrug.com"
      },
      "geometry": {
        "type": "Point",
        "coordinates": [
          -115.067074,
          36.1429287
        ]
      },
      "id": "node/2574819245"
    },
    {
      "type": "Feature",
      "properties": {
        "@id": "node/2574819339",
        "brand": "Albertsons",
        "brand:wikidata": "Q2831861",
        "brand:wikipedia": "en:Albertsons",
        "name": "Albertsons",
        "shop": "supermarket"
      },
      "geometry": {
        "type": "Point",
        "coordinates": [
          -115.045384,
          36.1585014
        ]
      },
      "id": "node/2574819339"
    },
    {
      "type": "Feature",
      "properties": {
        "@id": "node/2590259751",
        "addr:housenumber": "8350",
        "addr:postcode": "89129",
        "addr:street": "West Cheyenne Avenue",
        "brand": "Albertsons",
        "brand:wikidata": "Q2831861",
        "brand:wikipedia": "en:Albertsons",
        "internet_access": "wlan",
        "name": "Albertsons",
        "opening_hours": "24/7",
        "phone": "+1-702-395-2700",
        "shop": "supermarket",
        "website": "https://www.albertsons.com/"
      },
      "geometry": {
        "type": "Point",
        "coordinates": [
          -115.2760287,
          36.2199529
        ]
      },
      "id": "node/2590259751"
    },
    {
      "type": "Feature",
      "properties": {
        "@id": "node/2600804630",
        "name": "Green Valley Grocery",
        "shop": "convenience"
      },
      "geometry": {
        "type": "Point",
        "coordinates": [
          -115.0478521,
          36.145163
        ]
      },
      "id": "node/2600804630"
    },
    {
      "type": "Feature",
      "properties": {
        "@id": "node/2600806708",
        "addr:city": "Las Vegas",
        "addr:housenumber": "2264",
        "addr:postcode": "89104",
        "addr:state": "NV",
        "addr:street": "South Nellis Boulevard",
        "name": "Super 99 Center",
        "opening_hours": "Mo-Su 09:00-20:00",
        "shop": "convenience",
        "wheelchair": "yes"
      },
      "geometry": {
        "type": "Point",
        "coordinates": [
          -115.0630776,
          36.1452944
        ]
      },
      "id": "node/2600806708"
    },
    {
      "type": "Feature",
      "properties": {
        "@id": "node/2603780367",
        "brand": "7-Eleven",
        "brand:wikidata": "Q259340",
        "brand:wikipedia": "en:7-Eleven",
        "name": "7-Eleven",
        "shop": "convenience"
      },
      "geometry": {
        "type": "Point",
        "coordinates": [
          -115.0660331,
          36.1366323
        ]
      },
      "id": "node/2603780367"
    },
    {
      "type": "Feature",
      "properties": {
        "@id": "node/2612603442",
        "addr:city": "Henderson",
        "addr:housenumber": "10345 South",
        "addr:postcode": "89052",
        "addr:state": "NV",
        "addr:street": "Eastern Avenue",
        "brand": "Trader Joe's",
        "brand:wikidata": "Q688825",
        "brand:wikipedia": "en:Trader Joe's",
        "name": "Trader Joe's",
        "opening_hours": "Mo-Su 08:00-21:00",
        "shop": "supermarket"
      },
      "geometry": {
        "type": "Point",
        "coordinates": [
          -115.1092556,
          36.0008937
        ]
      },
      "id": "node/2612603442"
    },
    {
      "type": "Feature",
      "properties": {
        "@id": "node/2624945142",
        "addr:city": "Las Vegas",
        "addr:housenumber": "7575 West",
        "addr:postcode": "89128",
        "addr:state": "NV",
        "addr:street": "Washington Avenue",
        "brand": "Trader Joe's",
        "brand:wikidata": "Q688825",
        "brand:wikipedia": "en:Trader Joe's",
        "name": "Trader Joe's",
        "opening_hours": "Mo-Su 08:00-21:00",
        "phone": "17022428240",
        "shop": "supermarket",
        "website": "https://www.traderjoes.com/"
      },
      "geometry": {
        "type": "Point",
        "coordinates": [
          -115.257803,
          36.1806142
        ]
      },
      "id": "node/2624945142"
    },
    {
      "type": "Feature",
      "properties": {
        "@id": "node/2638072760",
        "addr:housenumber": "2691",
        "addr:postcode": "89102-4345",
        "addr:street": "West Sahara Avenue",
        "brand": "7-Eleven",
        "brand:wikidata": "Q259340",
        "brand:wikipedia": "en:7-Eleven",
        "name": "7-Eleven",
        "opening_hours": "24/7",
        "phone": "+17028760380",
        "shop": "convenience",
        "website": "http://www.7eleven.com"
      },
      "geometry": {
        "type": "Point",
        "coordinates": [
          -115.1770835,
          36.1435584
        ]
      },
      "id": "node/2638072760"
    },
    {
      "type": "Feature",
      "properties": {
        "@id": "node/2638075435",
        "shop": "convenience"
      },
      "geometry": {
        "type": "Point",
        "coordinates": [
          -115.2087067,
          36.1438227
        ]
      },
      "id": "node/2638075435"
    },
    {
      "type": "Feature",
      "properties": {
        "@id": "node/2678431880",
        "shop": "convenience",
        "source": "Bing"
      },
      "geometry": {
        "type": "Point",
        "coordinates": [
          -94.3764334,
          37.838014
        ]
      },
      "id": "node/2678431880"
    },
    {
      "type": "Feature",
      "properties": {
        "@id": "node/2678431908",
        "shop": "convenience"
      },
      "geometry": {
        "type": "Point",
        "coordinates": [
          -94.3489086,
          37.8413185
        ]
      },
      "id": "node/2678431908"
    },
    {
      "type": "Feature",
      "properties": {
        "@id": "node/2678431916",
        "shop": "convenience",
        "source": "Bing"
      },
      "geometry": {
        "type": "Point",
        "coordinates": [
          -94.3247848,
          37.8358703
        ]
      },
      "id": "node/2678431916"
    },
    {
      "type": "Feature",
      "properties": {
        "@id": "node/2678431918",
        "shop": "convenience",
        "source": "Bing"
      },
      "geometry": {
        "type": "Point",
        "coordinates": [
          -94.3363397,
          37.836277
        ]
      },
      "id": "node/2678431918"
    },
    {
      "type": "Feature",
      "properties": {
        "@id": "node/2678431920",
        "shop": "supermarket",
        "source": "Bing"
      },
      "geometry": {
        "type": "Point",
        "coordinates": [
          -94.3511616,
          37.8375734
        ]
      },
      "id": "node/2678431920"
    },
    {
      "type": "Feature",
      "properties": {
        "@id": "node/2678431931",
        "shop": "convenience",
        "source": "Bing"
      },
      "geometry": {
        "type": "Point",
        "coordinates": [
          -94.3609785,
          37.8376751
        ]
      },
      "id": "node/2678431931"
    },
    {
      "type": "Feature",
      "properties": {
        "@id": "node/2678431932",
        "shop": "convenience",
        "source": "Bing"
      },
      "geometry": {
        "type": "Point",
        "coordinates": [
          -94.3429648,
          37.8362813
        ]
      },
      "id": "node/2678431932"
    },
    {
      "type": "Feature",
      "properties": {
        "@id": "node/2678431946",
        "shop": "convenience"
      },
      "geometry": {
        "type": "Point",
        "coordinates": [
          -94.3502336,
          37.8419497
        ]
      },
      "id": "node/2678431946"
    },
    {
      "type": "Feature",
      "properties": {
        "@id": "node/2681812556",
        "shop": "convenience"
      },
      "geometry": {
        "type": "Point",
        "coordinates": [
          -115.1724162,
          36.158178
        ]
      },
      "id": "node/2681812556"
    },
    {
      "type": "Feature",
      "properties": {
        "@id": "node/2693543960",
        "name": "Vegas Market",
        "shop": "convenience"
      },
      "geometry": {
        "type": "Point",
        "coordinates": [
          -115.1464749,
          36.1212725
        ]
      },
      "id": "node/2693543960"
    },
    {
      "type": "Feature",
      "properties": {
        "@id": "node/2735776419",
        "name": "Sahara Mini Mart",
        "shop": "convenience"
      },
      "geometry": {
        "type": "Point",
        "coordinates": [
          -115.0617879,
          36.1445375
        ]
      },
      "id": "node/2735776419"
    },
    {
      "type": "Feature",
      "properties": {
        "@id": "node/2746582836",
        "brand": "7-Eleven",
        "brand:wikidata": "Q259340",
        "brand:wikipedia": "en:7-Eleven",
        "name": "7-Eleven",
        "shop": "convenience"
      },
      "geometry": {
        "type": "Point",
        "coordinates": [
          -115.1049939,
          36.1302425
        ]
      },
      "id": "node/2746582836"
    },
    {
      "type": "Feature",
      "properties": {
        "@id": "node/2746582837",
        "addr:city": "Las Vegas",
        "addr:housenumber": "3736",
        "addr:postcode": "89121",
        "addr:state": "NV",
        "addr:street": "East Desert Inn Road",
        "name": "Marketon",
        "operator": "MARKETON INC.",
        "phone": "(702) 450-1200",
        "shop": "supermarket",
        "website": "http://www.marketon.com"
      },
      "geometry": {
        "type": "Point",
        "coordinates": [
          -115.0932006,
          36.1305001
        ]
      },
      "id": "node/2746582837"
    },
    {
      "type": "Feature",
      "properties": {
        "@id": "node/2748752738",
        "brand": "7-Eleven",
        "brand:wikidata": "Q259340",
        "brand:wikipedia": "en:7-Eleven",
        "name": "7-Eleven",
        "shop": "convenience"
      },
      "geometry": {
        "type": "Point",
        "coordinates": [
          -115.0737515,
          36.1223469
        ]
      },
      "id": "node/2748752738"
    },
    {
      "type": "Feature",
      "properties": {
        "@id": "node/2762201854",
        "brand": "Sprouts Farmers Market",
        "brand:wikidata": "Q7581369",
        "brand:wikipedia": "en:Sprouts Farmers Market",
        "check_date": "2022-06-21",
        "name": "Sprouts Farmers Market",
        "opening_hours": "07:00-22:00",
        "organic": "yes",
        "payment:american_express": "yes",
        "payment:cash": "yes",
        "payment:credit_cards": "yes",
        "payment:debit_cards": "yes",
        "payment:mastercard": "yes",
        "payment:visa": "yes",
        "shop": "supermarket",
        "short_name": "Sprouts"
      },
      "geometry": {
        "type": "Point",
        "coordinates": [
          -115.241278,
          36.1153544
        ]
      },
      "id": "node/2762201854"
    },
    {
      "type": "Feature",
      "properties": {
        "@id": "node/2778782561",
        "addr:housenumber": "4180",
        "addr:postcode": "89115",
        "addr:street": "North Las Vegas Boulevard",
        "brand": "7-Eleven",
        "brand:wikidata": "Q259340",
        "brand:wikipedia": "en:7-Eleven",
        "name": "7-Eleven",
        "opening_hours": "24/7",
        "phone": "17026434543",
        "shop": "convenience",
        "website": "http://www.7eleven.com"
      },
      "geometry": {
        "type": "Point",
        "coordinates": [
          -115.0617276,
          36.2356565
        ]
      },
      "id": "node/2778782561"
    },
    {
      "type": "Feature",
      "properties": {
        "@id": "node/2782611907",
        "addr:housenumber": "2403",
        "addr:postcode": "89169",
        "addr:street": "Eastern Avenue",
        "brand": "7-Eleven",
        "brand:wikidata": "Q259340",
        "brand:wikipedia": "en:7-Eleven",
        "name": "7-Eleven",
        "opening_hours": "24/7",
        "phone": "+17024313999",
        "shop": "convenience",
        "website": "http://www.7eleven.com"
      },
      "geometry": {
        "type": "Point",
        "coordinates": [
          -115.118399,
          36.1447927
        ]
      },
      "id": "node/2782611907"
    },
    {
      "type": "Feature",
      "properties": {
        "@id": "node/2799625790",
        "name": "Smoke Shop - Mini Mart",
        "shop": "convenience"
      },
      "geometry": {
        "type": "Point",
        "coordinates": [
          -115.0670845,
          36.1446856
        ]
      },
      "id": "node/2799625790"
    },
    {
      "type": "Feature",
      "properties": {
        "@id": "node/2799676623",
        "name": "El Super",
        "shop": "supermarket"
      },
      "geometry": {
        "type": "Point",
        "coordinates": [
          -115.0821038,
          36.1579488
        ]
      },
      "id": "node/2799676623"
    },
    {
      "type": "Feature",
      "properties": {
        "@id": "node/2810237534",
        "brand": "7-Eleven",
        "brand:wikidata": "Q259340",
        "brand:wikipedia": "en:7-Eleven",
        "name": "7-Eleven",
        "opening_hours": "24/7",
        "shop": "convenience"
      },
      "geometry": {
        "type": "Point",
        "coordinates": [
          -115.1418518,
          36.1272595
        ]
      },
      "id": "node/2810237534"
    },
    {
      "type": "Feature",
      "properties": {
        "@id": "node/2810237535",
        "brand": "7-Eleven",
        "brand:wikidata": "Q259340",
        "brand:wikipedia": "en:7-Eleven",
        "name": "7-Eleven",
        "opening_hours": "24/7",
        "shop": "convenience"
      },
      "geometry": {
        "type": "Point",
        "coordinates": [
          -115.1456263,
          36.1293809
        ]
      },
      "id": "node/2810237535"
    },
    {
      "type": "Feature",
      "properties": {
        "@id": "node/2835280114",
        "shop": "convenience"
      },
      "geometry": {
        "type": "Point",
        "coordinates": [
          -115.2066652,
          36.1661676
        ]
      },
      "id": "node/2835280114"
    },
    {
      "type": "Feature",
      "properties": {
        "@id": "node/2871584248",
        "shop": "convenience"
      },
      "geometry": {
        "type": "Point",
        "coordinates": [
          -114.7720737,
          36.0291649
        ]
      },
      "id": "node/2871584248"
    },
    {
      "type": "Feature",
      "properties": {
        "@id": "node/2888437181",
        "addr:housenumber": "2202",
        "addr:postcode": "89104",
        "addr:street": "Paradise Road",
        "brand": "7-Eleven",
        "brand:wikidata": "Q259340",
        "brand:wikipedia": "en:7-Eleven",
        "name": "7-Eleven",
        "opening_hours": "24/7",
        "phone": "17024744272",
        "shop": "convenience",
        "website": "http://www.7eleven.com"
      },
      "geometry": {
        "type": "Point",
        "coordinates": [
          -115.1545831,
          36.1448649
        ]
      },
      "id": "node/2888437181"
    },
    {
      "type": "Feature",
      "properties": {
        "@id": "node/2928438167",
        "shop": "convenience"
      },
      "geometry": {
        "type": "Point",
        "coordinates": [
          -119.337048,
          40.5730485
        ]
      },
      "id": "node/2928438167"
    },
    {
      "type": "Feature",
      "properties": {
        "@id": "node/2937819163",
        "name": "The Nixon Store",
        "shop": "convenience"
      },
      "geometry": {
        "type": "Point",
        "coordinates": [
          -119.3632985,
          39.8200278
        ]
      },
      "id": "node/2937819163"
    },
    {
      "type": "Feature",
      "properties": {
        "@id": "node/2983731603",
        "name": "Rebel",
        "shop": "convenience"
      },
      "geometry": {
        "type": "Point",
        "coordinates": [
          -115.073707,
          36.0998217
        ]
      },
      "id": "node/2983731603"
    },
    {
      "type": "Feature",
      "properties": {
        "@id": "node/2983734497",
        "addr:housenumber": "3768",
        "addr:postcode": "89121",
        "addr:street": "East Tropicana Avenue",
        "brand": "7-Eleven",
        "brand:wikidata": "Q259340",
        "brand:wikipedia": "en:7-Eleven",
        "name": "7-Eleven",
        "opening_hours": "24/7",
        "phone": "+17024519551",
        "shop": "convenience",
        "website": "http://www.7eleven.com"
      },
      "geometry": {
        "type": "Point",
        "coordinates": [
          -115.0925854,
          36.1005844
        ]
      },
      "id": "node/2983734497"
    },
    {
      "type": "Feature",
      "properties": {
        "@id": "node/3011310369",
        "addr:city": "Elko",
        "addr:postcode": "89801",
        "name": "Joe's Market",
        "shop": "supermarket"
      },
      "geometry": {
        "type": "Point",
        "coordinates": [
          -115.7560508,
          40.8282314
        ]
      },
      "id": "node/3011310369"
    },
    {
      "type": "Feature",
      "properties": {
        "@id": "node/3030179765",
        "addr:city": "Elko",
        "addr:postcode": "89801",
        "name": "La Unica",
        "shop": "supermarket"
      },
      "geometry": {
        "type": "Point",
        "coordinates": [
          -115.7567441,
          40.8287953
        ]
      },
      "id": "node/3030179765"
    },
    {
      "type": "Feature",
      "properties": {
        "@id": "node/3055046562",
        "addr:city": "Pahrump",
        "addr:housenumber": "51",
        "addr:postcode": "89048",
        "addr:state": "NV",
        "addr:street": "Charles Brown Highway",
        "name": "Green Valley Grocery",
        "opening_hours": "24/7",
        "operator": "Green Valley Grocery",
        "phone": "+1 (775) 751-6780",
        "shop": "convenience",
        "website": "https://www.gvgrocery.com/"
      },
      "geometry": {
        "type": "Point",
        "coordinates": [
          -116.0134199,
          36.2045943
        ]
      },
      "id": "node/3055046562"
    },
    {
      "type": "Feature",
      "properties": {
        "@id": "node/3066192933",
        "shop": "convenience"
      },
      "geometry": {
        "type": "Point",
        "coordinates": [
          -116.0154055,
          36.2791681
        ]
      },
      "id": "node/3066192933"
    },
    {
      "type": "Feature",
      "properties": {
        "@id": "node/3078103489",
        "brand": "Albertsons",
        "brand:wikidata": "Q2831861",
        "brand:wikipedia": "en:Albertsons",
        "name": "Albertsons",
        "shop": "supermarket"
      },
      "geometry": {
        "type": "Point",
        "coordinates": [
          -115.125658,
          36.1569952
        ]
      },
      "id": "node/3078103489"
    },
    {
      "type": "Feature",
      "properties": {
        "@id": "node/3097588564",
        "brand": "Circle K",
        "brand:wikidata": "Q3268010",
        "brand:wikipedia": "en:Circle K",
        "name": "Circle K",
        "opening_hours": "Mo-Su 00:00-24:00",
        "shop": "convenience"
      },
      "geometry": {
        "type": "Point",
        "coordinates": [
          -115.0328419,
          36.084001
        ]
      },
      "id": "node/3097588564"
    },
    {
      "type": "Feature",
      "properties": {
        "@id": "node/3097588568",
        "shop": "convenience"
      },
      "geometry": {
        "type": "Point",
        "coordinates": [
          -115.0735079,
          36.0852413
        ]
      },
      "id": "node/3097588568"
    },
    {
      "type": "Feature",
      "properties": {
        "@id": "node/3110240556",
        "addr:city": "Las Vegas",
        "addr:housenumber": "10000",
        "addr:postcode": "89117",
        "addr:street": "West Sahara Avenue",
        "brand": "Sprouts Farmers Market",
        "brand:wikidata": "Q7581369",
        "brand:wikipedia": "en:Sprouts Farmers Market",
        "name": "Sprouts Farmers Market",
        "opening_hours": "Mo-Su 07:00-22:00",
        "operator": "Sprouts",
        "phone": "17022165060",
        "shop": "supermarket",
        "short_name": "Sprouts",
        "website": "https://www.sprouts.com/"
      },
      "geometry": {
        "type": "Point",
        "coordinates": [
          -115.311962,
          36.1459394
        ]
      },
      "id": "node/3110240556"
    },
    {
      "type": "Feature",
      "properties": {
        "@id": "node/3190959336",
        "addr:city": "Las Vegas",
        "addr:housenumber": "3365",
        "addr:postcode": "89121",
        "addr:state": "NV",
        "addr:street": "East Tropicana Avenue",
        "brand": "Sprouts Farmers Market",
        "brand:wikidata": "Q7581369",
        "brand:wikipedia": "en:Sprouts Farmers Market",
        "contact:phone": "+1 702 7770650",
        "name": "Sprouts Farmers Market",
        "opening_hours": "Mo-Su 07:00-22:00",
        "shop": "supermarket",
        "short_name": "Sprouts",
        "website": "https://www.sprouts.com/"
      },
      "geometry": {
        "type": "Point",
        "coordinates": [
          -115.1021074,
          36.09878
        ]
      },
      "id": "node/3190959336"
    },
    {
      "type": "Feature",
      "properties": {
        "@id": "node/3191101017",
        "shop": "convenience"
      },
      "geometry": {
        "type": "Point",
        "coordinates": [
          -115.0913289,
          36.1285684
        ]
      },
      "id": "node/3191101017"
    },
    {
      "type": "Feature",
      "properties": {
        "@id": "node/3192216320",
        "brand": "Food 4 Less",
        "brand:wikidata": "Q5465282",
        "brand:wikipedia": "en:Food 4 Less",
        "name": "Food 4 Less",
        "shop": "supermarket"
      },
      "geometry": {
        "type": "Point",
        "coordinates": [
          -115.1045388,
          36.1164049
        ]
      },
      "id": "node/3192216320"
    },
    {
      "type": "Feature",
      "properties": {
        "@id": "node/3192405691",
        "addr:city": "Las Vegas",
        "addr:housenumber": "3850",
        "addr:postcode": "89121",
        "addr:street": "East Flamingo Road",
        "brand": "Smith's",
        "brand:wikidata": "Q7544856",
        "brand:wikipedia": "en:Smith's Food and Drug",
        "name": "Smith's",
        "official_name": "Smith's Food and Drug",
        "opening_hours": "Mo-Su 06:00-24:00",
        "phone": "+1 (702) 451-5536",
        "shop": "supermarket"
      },
      "geometry": {
        "type": "Point",
        "coordinates": [
          -115.08995,
          36.1163984
        ]
      },
      "id": "node/3192405691"
    },
    {
      "type": "Feature",
      "properties": {
        "@id": "node/3253250781",
        "shop": "convenience"
      },
      "geometry": {
        "type": "Point",
        "coordinates": [
          -115.1952575,
          36.1306957
        ]
      },
      "id": "node/3253250781"
    },
    {
      "type": "Feature",
      "properties": {
        "@id": "node/3329751009",
        "name": "Mr. Mini Mart",
        "shop": "convenience"
      },
      "geometry": {
        "type": "Point",
        "coordinates": [
          -115.0644707,
          36.1193806
        ]
      },
      "id": "node/3329751009"
    },
    {
      "type": "Feature",
      "properties": {
        "@id": "node/3329751018",
        "addr:city": "Las Vegas",
        "addr:housenumber": "3310",
        "addr:postcode": "89122",
        "addr:state": "NV",
        "addr:street": "East Desert Inn Road",
        "name": "Maria's Market",
        "shop": "supermarket"
      },
      "geometry": {
        "type": "Point",
        "coordinates": [
          -115.0648906,
          36.1292637
        ]
      },
      "id": "node/3329751018"
    },
    {
      "type": "Feature",
      "properties": {
        "@id": "node/3383260035",
        "brand": "7-Eleven",
        "brand:wikidata": "Q259340",
        "brand:wikipedia": "en:7-Eleven",
        "name": "7-Eleven",
        "shop": "convenience"
      },
      "geometry": {
        "type": "Point",
        "coordinates": [
          -119.9522085,
          39.249315
        ]
      },
      "id": "node/3383260035"
    },
    {
      "type": "Feature",
      "properties": {
        "@id": "node/3474537656",
        "addr:city": "Las Vegas",
        "addr:housenumber": "5500",
        "addr:postcode": "89122",
        "addr:state": "NV",
        "addr:street": "Boulder Highway",
        "brand": "Albertsons",
        "brand:wikidata": "Q2831861",
        "brand:wikipedia": "en:Albertsons",
        "name": "Albertsons",
        "opening_hours": "Mo-Fr 09:00-21:00; Sa 09:00-18:00; Su 10:00-18:00",
        "phone": "+1-702-435-6777",
        "ref": "1059",
        "shop": "supermarket",
        "website": "https://www.albertsons.com/"
      },
      "geometry": {
        "type": "Point",
        "coordinates": [
          -115.0545853,
          36.1016802
        ]
      },
      "id": "node/3474537656"
    },
    {
      "type": "Feature",
      "properties": {
        "@id": "node/3482731991",
        "addr:city": "Gardnerville",
        "addr:housenumber": "1341",
        "addr:postcode": "89410",
        "addr:state": "NV",
        "addr:street": "US 395",
        "name": "Smith's",
        "opening_hours": "07:00-24:00",
        "phone": "775-782-0155",
        "shop": "supermarket",
        "website": "https://www.smithsfoodanddrug.com/storeHours?store=70600389"
      },
      "geometry": {
        "type": "Point",
        "coordinates": [
          -119.7386254,
          38.937551
        ]
      },
      "id": "node/3482731991"
    },
    {
      "type": "Feature",
      "properties": {
        "@id": "node/3527326771",
        "addr:city": "Las Vegas",
        "addr:housenumber": "8925",
        "addr:postcode": "89123",
        "addr:state": "NV",
        "addr:street": "South Las Vegas Boulevard",
        "air_conditioning": "yes",
        "brand": "7-Eleven",
        "brand:wikidata": "Q259340",
        "brand:wikipedia": "en:7-Eleven",
        "delivery": "yes",
        "name": "7-Eleven",
        "opening_hours": "24/7",
        "operator": "7-Eleven",
        "phone": "+1 (702) 361-6441",
        "shop": "convenience",
        "website": "https://www.7-eleven.com/locations/nv/las-vegas/8925-s.-las-vegas-blvd.-32195"
      },
      "geometry": {
        "type": "Point",
        "coordinates": [
          -115.1731653,
          36.0279062
        ]
      },
      "id": "node/3527326771"
    },
    {
      "type": "Feature",
      "properties": {
        "@id": "node/3529311238",
        "brand": "7-Eleven",
        "brand:wikidata": "Q259340",
        "brand:wikipedia": "en:7-Eleven",
        "name": "7-Eleven",
        "shop": "convenience"
      },
      "geometry": {
        "type": "Point",
        "coordinates": [
          -115.0635731,
          36.0997631
        ]
      },
      "id": "node/3529311238"
    },
    {
      "type": "Feature",
      "properties": {
        "@id": "node/3613120094",
        "addr:city": "Las Vegas",
        "addr:housenumber": "6689",
        "addr:postcode": "89119",
        "addr:state": "NV",
        "addr:street": "South Las Vegas Boulevard",
        "brand": "Whole Foods Market",
        "brand:wikidata": "Q1809448",
        "brand:wikipedia": "en:Whole Foods Market",
        "name": "Whole Foods Market",
        "phone": "+1-702-589-7711",
        "shop": "supermarket"
      },
      "geometry": {
        "type": "Point",
        "coordinates": [
          -115.1742467,
          36.0676171
        ]
      },
      "id": "node/3613120094"
    },
    {
      "type": "Feature",
      "properties": {
        "@id": "node/3678389995",
        "addr:housenumber": "1619",
        "addr:postcode": "89104",
        "addr:street": "South Las Vegas Boulevard",
        "brand": "ampm",
        "brand:wikidata": "Q306960",
        "brand:wikipedia": "en:Ampm",
        "name": "ampm",
        "opening_hours": "24/7",
        "phone": "+1(702)386-1738",
        "shop": "convenience",
        "website": "http://www.ampm.com"
      },
      "geometry": {
        "type": "Point",
        "coordinates": [
          -115.1517512,
          36.1515434
        ]
      },
      "id": "node/3678389995"
    },
    {
      "type": "Feature",
      "properties": {
        "@id": "node/3678390000",
        "addr:housenumber": "1701",
        "addr:postcode": "89104",
        "addr:street": "South Las Vegas Boulevard",
        "brand": "7-Eleven",
        "brand:wikidata": "Q259340",
        "brand:wikipedia": "en:7-Eleven",
        "name": "7-Eleven",
        "opening_hours": "24/7",
        "phone": "+1(702)731-1511",
        "shop": "convenience",
        "website": "http://www.7-eleven.com"
      },
      "geometry": {
        "type": "Point",
        "coordinates": [
          -115.1521146,
          36.1508898
        ]
      },
      "id": "node/3678390000"
    },
    {
      "type": "Feature",
      "properties": {
        "@id": "node/3785014818",
        "amenity": "drinking_water"
      },
      "geometry": {
        "type": "Point",
        "coordinates": [
          12.4934389,
          41.8873381
        ]
      },
      "id": "node/3785014818"
    },
    {
      "type": "Feature",
      "properties": {
        "@id": "node/3793402279",
        "addr:city": "Reno",
        "addr:country": "US",
        "addr:housenumber": "777",
        "addr:postcode": "89509",
        "addr:state": "NV",
        "addr:street": "South Virginia Street",
        "entrance": "yes",
        "name": "Quickie Mart",
        "shop": "convenience"
      },
      "geometry": {
        "type": "Point",
        "coordinates": [
          -119.8089414,
          39.5170358
        ]
      },
      "id": "node/3793402279"
    },
    {
      "type": "Feature",
      "properties": {
        "@id": "node/3796621980",
        "addr:city": "Las Vegas",
        "addr:housenumber": "3890",
        "addr:postcode": "89109",
        "addr:state": "NV",
        "addr:street": "South Maryland Parkway",
        "name": "Seafood City Supermarket",
        "shop": "supermarket"
      },
      "geometry": {
        "type": "Point",
        "coordinates": [
          -115.1356618,
          36.1182658
        ]
      },
      "id": "node/3796621980"
    },
    {
      "type": "Feature",
      "properties": {
        "@id": "node/3796622001",
        "brand": "7-Eleven",
        "brand:wikidata": "Q259340",
        "brand:wikipedia": "en:7-Eleven",
        "name": "7-Eleven",
        "shop": "convenience",
        "wheelchair": "yes"
      },
      "geometry": {
        "type": "Point",
        "coordinates": [
          -115.137997,
          36.1224404
        ]
      },
      "id": "node/3796622001"
    },
    {
      "type": "Feature",
      "properties": {
        "@id": "node/3796637536",
        "addr:city": "Las Vegas",
        "addr:housenumber": "2885",
        "addr:postcode": "89121",
        "addr:state": "NV",
        "addr:street": "East Desert Inn Road",
        "brand": "Albertsons",
        "brand:wikidata": "Q2831861",
        "brand:wikipedia": "en:Albertsons",
        "name": "Albertsons",
        "ref": "662",
        "shop": "supermarket"
      },
      "geometry": {
        "type": "Point",
        "coordinates": [
          -115.1110985,
          36.128264
        ]
      },
      "id": "node/3796637536"
    },
    {
      "type": "Feature",
      "properties": {
        "@id": "node/3802875085",
        "name": "Speedee Mart",
        "shop": "convenience"
      },
      "geometry": {
        "type": "Point",
        "coordinates": [
          -115.1102992,
          36.100417
        ]
      },
      "id": "node/3802875085"
    },
    {
      "type": "Feature",
      "properties": {
        "@id": "node/3802984991",
        "name": "Los Compadres Meat Market",
        "shop": "supermarket"
      },
      "geometry": {
        "type": "Point",
        "coordinates": [
          -115.0747724,
          36.0998634
        ]
      },
      "id": "node/3802984991"
    },
    {
      "type": "Feature",
      "properties": {
        "@id": "node/3803001455",
        "name": "Green Valley Grocery",
        "shop": "convenience"
      },
      "geometry": {
        "type": "Point",
        "coordinates": [
          -115.0795853,
          36.2544017
        ]
      },
      "id": "node/3803001455"
    },
    {
      "type": "Feature",
      "properties": {
        "@id": "node/3822199156",
        "addr:city": "Las Vegas",
        "addr:housenumber": "2224",
        "addr:postcode": "89104",
        "addr:state": "NV",
        "addr:street": "South Nellis Boulevard",
        "brand": "Dollar General Market",
        "brand:wikidata": "Q145168",
        "brand:wikipedia": "en:Dollar General",
        "name": "Dollar General Market",
        "opening_hours": "Mo-Su 07:00-22:00",
        "phone": "+1 702-522-0259",
        "ref": "13389",
        "shop": "supermarket",
        "wheelchair": "yes"
      },
      "geometry": {
        "type": "Point",
        "coordinates": [
          -115.063847,
          36.1466238
        ]
      },
      "id": "node/3822199156"
    },
    {
      "type": "Feature",
      "properties": {
        "@id": "node/3834980734",
        "name": "Marketon",
        "shop": "supermarket"
      },
      "geometry": {
        "type": "Point",
        "coordinates": [
          -115.063927,
          36.1761424
        ]
      },
      "id": "node/3834980734"
    },
    {
      "type": "Feature",
      "properties": {
        "@id": "node/3834980812",
        "addr:housenumber": "780",
        "addr:postcode": "89110",
        "addr:street": "North Nellis Boulevard",
        "brand": "7-Eleven",
        "brand:wikidata": "Q259340",
        "brand:wikipedia": "en:7-Eleven",
        "name": "7-Eleven",
        "opening_hours": "24/7",
        "phone": "17024523674",
        "shop": "convenience",
        "website": "http://www.7eleven.com"
      },
      "geometry": {
        "type": "Point",
        "coordinates": [
          -115.0616409,
          36.1737746
        ]
      },
      "id": "node/3834980812"
    },
    {
      "type": "Feature",
      "properties": {
        "@id": "node/3835158035",
        "brand": "Smith's",
        "brand:wikidata": "Q7544856",
        "brand:wikipedia": "en:Smith's Food and Drug",
        "name": "Smith's",
        "official_name": "Smith's Food and Drug",
        "shop": "supermarket"
      },
      "geometry": {
        "type": "Point",
        "coordinates": [
          -115.060395,
          36.1675713
        ]
      },
      "id": "node/3835158035"
    },
    {
      "type": "Feature",
      "properties": {
        "@id": "node/3835158059",
        "name": "Palengke Oriental Market",
        "shop": "convenience"
      },
      "geometry": {
        "type": "Point",
        "coordinates": [
          -115.0635255,
          36.1659098
        ]
      },
      "id": "node/3835158059"
    },
    {
      "type": "Feature",
      "properties": {
        "@id": "node/3931648682",
        "name": "La Favorita Market",
        "shop": "convenience"
      },
      "geometry": {
        "type": "Point",
        "coordinates": [
          -115.1509124,
          36.1204604
        ]
      },
      "id": "node/3931648682"
    },
    {
      "type": "Feature",
      "properties": {
        "@id": "node/4020584223",
        "amenity": "marketplace",
        "name": "Eataly"
      },
      "geometry": {
        "type": "Point",
        "coordinates": [
          -115.17356,
          36.1041919
        ]
      },
      "id": "node/4020584223"
    },
    {
      "type": "Feature",
      "properties": {
        "@id": "node/4052483509",
        "brand": "Dollar General Market",
        "brand:wikidata": "Q145168",
        "brand:wikipedia": "en:Dollar General",
        "name": "Dollar General Market",
        "shop": "supermarket"
      },
      "geometry": {
        "type": "Point",
        "coordinates": [
          -115.1375671,
          36.1365476
        ]
      },
      "id": "node/4052483509"
    },
    {
      "type": "Feature",
      "properties": {
        "@id": "node/4052483510",
        "brand": "7-Eleven",
        "brand:wikidata": "Q259340",
        "brand:wikipedia": "en:7-Eleven",
        "name": "7-Eleven",
        "shop": "convenience"
      },
      "geometry": {
        "type": "Point",
        "coordinates": [
          -115.1363308,
          36.136582
        ]
      },
      "id": "node/4052483510"
    },
    {
      "type": "Feature",
      "properties": {
        "@id": "node/4052483527",
        "name": "Fiesta Mart",
        "shop": "convenience"
      },
      "geometry": {
        "type": "Point",
        "coordinates": [
          -115.1376606,
          36.1295606
        ]
      },
      "id": "node/4052483527"
    },
    {
      "type": "Feature",
      "properties": {
        "@id": "node/4052505241",
        "addr:housenumber": "2683",
        "addr:street": "South Maryland Parkway",
        "brand": "7-Eleven",
        "brand:wikidata": "Q259340",
        "brand:wikipedia": "en:7-Eleven",
        "name": "7-Eleven",
        "shop": "convenience"
      },
      "geometry": {
        "type": "Point",
        "coordinates": [
          -115.137484,
          36.1409612
        ]
      },
      "id": "node/4052505241"
    },
    {
      "type": "Feature",
      "properties": {
        "@id": "node/4052505255",
        "addr:housenumber": "2540",
        "addr:postcode": "89109",
        "addr:street": "South Maryland Parkway",
        "brand": "Smith's",
        "brand:wikidata": "Q7544856",
        "brand:wikipedia": "en:Smith's Food and Drug",
        "name": "Smith's",
        "opening_hours": "Mo-Su 08:00-20:00",
        "phone": "+1-702-735-8928",
        "shop": "supermarket",
        "website": "https://www.smithsfoodanddrug.com/"
      },
      "geometry": {
        "type": "Point",
        "coordinates": [
          -115.1349559,
          36.1433578
        ]
      },
      "id": "node/4052505255"
    },
    {
      "type": "Feature",
      "properties": {
        "@id": "node/4053647122",
        "addr:city": "Reno",
        "addr:country": "US",
        "addr:housenumber": "436",
        "addr:postcode": "89501",
        "addr:state": "NV",
        "addr:street": "North Virginia Street",
        "entrance": "yes",
        "name": "Jashan Market",
        "shop": "convenience"
      },
      "geometry": {
        "type": "Point",
        "coordinates": [
          -119.8143603,
          39.5307528
        ]
      },
      "id": "node/4053647122"
    },
    {
      "type": "Feature",
      "properties": {
        "@id": "node/4113362168",
        "brand": "7-Eleven",
        "brand:wikidata": "Q259340",
        "brand:wikipedia": "en:7-Eleven",
        "name": "7-Eleven",
        "shop": "convenience"
      },
      "geometry": {
        "type": "Point",
        "coordinates": [
          -115.1254065,
          36.1621903
        ]
      },
      "id": "node/4113362168"
    },
    {
      "type": "Feature",
      "properties": {
        "@id": "node/4113362356",
        "brand": "Circle K",
        "brand:wikidata": "Q3268010",
        "brand:wikipedia": "en:Circle K",
        "name": "Circle K",
        "shop": "convenience"
      },
      "geometry": {
        "type": "Point",
        "coordinates": [
          -115.105044,
          36.1480124
        ]
      },
      "id": "node/4113362356"
    },
    {
      "type": "Feature",
      "properties": {
        "@id": "node/4136403934",
        "brand": "7-Eleven",
        "brand:wikidata": "Q259340",
        "brand:wikipedia": "en:7-Eleven",
        "name": "7-Eleven",
        "shop": "convenience"
      },
      "geometry": {
        "type": "Point",
        "coordinates": [
          -115.0038435,
          36.0581546
        ]
      },
      "id": "node/4136403934"
    },
    {
      "type": "Feature",
      "properties": {
        "@id": "node/4179884191",
        "brand": "7-Eleven",
        "brand:wikidata": "Q259340",
        "brand:wikipedia": "en:7-Eleven",
        "name": "7-Eleven",
        "shop": "convenience"
      },
      "geometry": {
        "type": "Point",
        "coordinates": [
          -115.115625,
          36.1882203
        ]
      },
      "id": "node/4179884191"
    },
    {
      "type": "Feature",
      "properties": {
        "@id": "node/4179884282",
        "brand": "ampm",
        "brand:wikidata": "Q306960",
        "brand:wikipedia": "en:Ampm",
        "name": "ampm",
        "shop": "convenience"
      },
      "geometry": {
        "type": "Point",
        "coordinates": [
          -115.0806259,
          36.1879918
        ]
      },
      "id": "node/4179884282"
    },
    {
      "type": "Feature",
      "properties": {
        "@id": "node/4179884285",
        "name": "S & K Market",
        "shop": "convenience"
      },
      "geometry": {
        "type": "Point",
        "coordinates": [
          -115.0806,
          36.1889537
        ]
      },
      "id": "node/4179884285"
    },
    {
      "type": "Feature",
      "properties": {
        "@id": "node/4179884549",
        "shop": "supermarket"
      },
      "geometry": {
        "type": "Point",
        "coordinates": [
          -115.0699067,
          36.1889659
        ]
      },
      "id": "node/4179884549"
    },
    {
      "type": "Feature",
      "properties": {
        "@id": "node/4179884598",
        "name": "Green Valley Grocery",
        "shop": "convenience"
      },
      "geometry": {
        "type": "Point",
        "coordinates": [
          -115.0796808,
          36.1812808
        ]
      },
      "id": "node/4179884598"
    },
    {
      "type": "Feature",
      "properties": {
        "@id": "node/4179884600",
        "brand": "7-Eleven",
        "brand:wikidata": "Q259340",
        "brand:wikipedia": "en:7-Eleven",
        "name": "7-Eleven",
        "shop": "convenience"
      },
      "geometry": {
        "type": "Point",
        "coordinates": [
          -115.0797425,
          36.1806375
        ]
      },
      "id": "node/4179884600"
    },
    {
      "type": "Feature",
      "properties": {
        "@id": "node/4179884632",
        "brand": "Circle K",
        "brand:wikidata": "Q3268010",
        "brand:wikipedia": "en:Circle K",
        "name": "Circle K",
        "shop": "convenience"
      },
      "geometry": {
        "type": "Point",
        "coordinates": [
          -115.0809291,
          36.1738535
        ]
      },
      "id": "node/4179884632"
    },
    {
      "type": "Feature",
      "properties": {
        "@id": "node/4179884635",
        "brand": "ampm",
        "brand:wikidata": "Q306960",
        "brand:wikipedia": "en:Ampm",
        "name": "ampm",
        "shop": "convenience"
      },
      "geometry": {
        "type": "Point",
        "coordinates": [
          -115.0810254,
          36.1730094
        ]
      },
      "id": "node/4179884635"
    },
    {
      "type": "Feature",
      "properties": {
        "@id": "node/4179884649",
        "name": "Cardenas Market",
        "shop": "supermarket"
      },
      "geometry": {
        "type": "Point",
        "coordinates": [
          -115.0791395,
          36.1721869
        ]
      },
      "id": "node/4179884649"
    },
    {
      "type": "Feature",
      "properties": {
        "@id": "node/4179884662",
        "brand": "7-Eleven",
        "brand:wikidata": "Q259340",
        "brand:wikipedia": "en:7-Eleven",
        "name": "7-Eleven",
        "shop": "convenience"
      },
      "geometry": {
        "type": "Point",
        "coordinates": [
          -115.0811061,
          36.165992
        ]
      },
      "id": "node/4179884662"
    },
    {
      "type": "Feature",
      "properties": {
        "@id": "node/4197803693",
        "addr:housenumber": "629",
        "addr:postcode": "89101",
        "addr:street": "Las Vegas Boulevard North",
        "name": "Laos Market",
        "phone": "(702)366-0881",
        "shop": "supermarket"
      },
      "geometry": {
        "type": "Point",
        "coordinates": [
          -115.1368357,
          36.1762051
        ]
      },
      "id": "node/4197803693"
    },
    {
      "type": "Feature",
      "properties": {
        "@id": "node/4200422294",
        "addr:housenumber": "4801",
        "addr:street": "Spring Mountain Road",
        "name": "Sieu Thi Thuan Phat Superstore",
        "shop": "supermarket"
      },
      "geometry": {
        "type": "Point",
        "coordinates": [
          -115.206624,
          36.125022
        ]
      },
      "id": "node/4200422294"
    },
    {
      "type": "Feature",
      "properties": {
        "@id": "node/4200473689",
        "addr:housenumber": "4155",
        "addr:street": "Spring Mountain Road",
        "brand": "99 Ranch Market",
        "brand:wikidata": "Q4646307",
        "brand:wikipedia": "en:99 Ranch Market",
        "cuisine": "asian",
        "name": "99 Ranch Market",
        "name:en": "99 Ranch Market",
        "name:zh-Hans": "大华超级市场",
        "name:zh-Hant": "大華超級市場",
        "shop": "supermarket"
      },
      "geometry": {
        "type": "Point",
        "coordinates": [
          -115.19527,
          36.125464
        ]
      },
      "id": "node/4200473689"
    },
    {
      "type": "Feature",
      "properties": {
        "@id": "node/4200473989",
        "addr:housenumber": "5115",
        "addr:street": "Spring Mountain Road",
        "name": "SF Supermarket",
        "shop": "supermarket"
      },
      "geometry": {
        "type": "Point",
        "coordinates": [
          -115.210691,
          36.125655
        ]
      },
      "id": "node/4200473989"
    },
    {
      "type": "Feature",
      "properties": {
        "@id": "node/4200473990",
        "addr:housenumber": "4825",
        "addr:street": "West Flamingo Road",
        "name": "Bangkok Market",
        "shop": "supermarket"
      },
      "geometry": {
        "type": "Point",
        "coordinates": [
          -115.2072,
          36.114535
        ]
      },
      "id": "node/4200473990"
    },
    {
      "type": "Feature",
      "properties": {
        "@id": "node/4291441784",
        "brand": "Grocery Outlet",
        "brand:wikidata": "Q5609934",
        "brand:wikipedia": "en:Grocery Outlet",
        "name": "Grocery Outlet",
        "official_name": "Grocery Outlet Bargain Market",
        "shop": "supermarket"
      },
      "geometry": {
        "type": "Point",
        "coordinates": [
          -119.7376273,
          38.9366987
        ]
      },
      "id": "node/4291441784"
    },
    {
      "type": "Feature",
      "properties": {
        "@id": "node/4393079890",
        "addr:housenumber": "6850",
        "addr:postcode": "89146",
        "addr:street": "Spring Mountain Road",
        "name": "Greenland supermarket",
        "name:en": "Grrenland supermarket",
        "shop": "supermarket"
      },
      "geometry": {
        "type": "Point",
        "coordinates": [
          -115.2417232,
          36.1262987
        ]
      },
      "id": "node/4393079890"
    },
    {
      "type": "Feature",
      "properties": {
        "@id": "node/4396672155",
        "addr:city": "Reno",
        "addr:country": "US",
        "addr:housenumber": "229",
        "addr:postcode": "89501",
        "addr:state": "NV",
        "addr:street": "West 2nd Street",
        "entrance": "yes",
        "name": "DJ Liquor & Groceries",
        "shop": "convenience"
      },
      "geometry": {
        "type": "Point",
        "coordinates": [
          -119.8166827,
          39.526398
        ]
      },
      "id": "node/4396672155"
    },
    {
      "type": "Feature",
      "properties": {
        "@id": "node/4398651555",
        "name": "Sierra Market",
        "shop": "convenience"
      },
      "geometry": {
        "type": "Point",
        "coordinates": [
          -119.7573427,
          38.9470429
        ]
      },
      "id": "node/4398651555"
    },
    {
      "type": "Feature",
      "properties": {
        "@id": "node/4416178442",
        "brand": "ARCO",
        "brand:wikidata": "Q304769",
        "brand:wikipedia": "en:ARCO",
        "name": "Sierra ARCO (Marathon Petroleum)",
        "shop": "convenience"
      },
      "geometry": {
        "type": "Point",
        "coordinates": [
          -119.8682233,
          39.533985
        ]
      },
      "id": "node/4416178442"
    },
    {
      "type": "Feature",
      "properties": {
        "@id": "node/4416233906",
        "brand": "7-Eleven",
        "brand:wikidata": "Q259340",
        "brand:wikipedia": "en:7-Eleven",
        "name": "7-Eleven",
        "shop": "convenience"
      },
      "geometry": {
        "type": "Point",
        "coordinates": [
          -119.8616137,
          39.5268651
        ]
      },
      "id": "node/4416233906"
    },
    {
      "type": "Feature",
      "properties": {
        "@id": "node/4417185871",
        "addr:city": "Las Vegas",
        "addr:country": "US",
        "addr:housenumber": "3650",
        "addr:street": "South Town Center Drive",
        "name": "Terrible Herbst",
        "shop": "convenience"
      },
      "geometry": {
        "type": "Point",
        "coordinates": [
          -115.3248517,
          36.1229733
        ]
      },
      "id": "node/4417185871"
    },
    {
      "type": "Feature",
      "properties": {
        "@id": "node/4446852015",
        "addr:city": "Reno",
        "addr:country": "US",
        "addr:housenumber": "1086C",
        "addr:postcode": "89502",
        "addr:state": "NV",
        "addr:street": "South Virginia Street",
        "entrance": "yes",
        "name": "KJ Mini Mart",
        "shop": "convenience"
      },
      "geometry": {
        "type": "Point",
        "coordinates": [
          -119.8065339,
          39.5134066
        ]
      },
      "id": "node/4446852015"
    },
    {
      "type": "Feature",
      "properties": {
        "@id": "node/4448970993",
        "addr:housenumber": "8555",
        "addr:postcode": "89117",
        "addr:street": "West Sahara Avenue",
        "brand": "Smith's",
        "brand:wikidata": "Q7544856",
        "name": "Smith's",
        "official_name": "Smith's Food and Drug",
        "opening_hours": "Mo-Su 06:00-24:00",
        "phone": "17023417474",
        "shop": "supermarket",
        "website": "http://www.smithsfoodanddrugs.com"
      },
      "geometry": {
        "type": "Point",
        "coordinates": [
          -115.277498,
          36.1427304
        ]
      },
      "id": "node/4448970993"
    },
    {
      "type": "Feature",
      "properties": {
        "@id": "node/4453903190",
        "addr:city": "Las Vegas",
        "addr:housenumber": "2315",
        "addr:postcode": "89135",
        "addr:state": "NV",
        "addr:street": "Summa Drive",
        "brand": "Trader Joe's",
        "brand:wikidata": "Q688825",
        "brand:wikipedia": "en:Trader Joe's",
        "name": "Trader Joe's",
        "opening_hours": "Mo-Su 08:00-21:00",
        "phone": "+1-702-242-0547",
        "shop": "supermarket",
        "website": "https://www.traderjoes.com/"
      },
      "geometry": {
        "type": "Point",
        "coordinates": [
          -115.335281,
          36.145576
        ]
      },
      "id": "node/4453903190"
    },
    {
      "type": "Feature",
      "properties": {
        "@id": "node/4472161290",
        "name": "Horizon Market",
        "name:en": "Horizon Market",
        "shop": "convenience"
      },
      "geometry": {
        "type": "Point",
        "coordinates": [
          -116.0512363,
          36.264226
        ]
      },
      "id": "node/4472161290"
    },
    {
      "type": "Feature",
      "properties": {
        "@id": "node/4479290789",
        "addr:housenumber": "2550",
        "addr:postcode": "89117",
        "addr:street": "West Sahara Avenue",
        "brand": "Albertsons",
        "brand:wikidata": "Q2831861",
        "brand:wikipedia": "en:Albertsons",
        "name": "Albertsons",
        "name:en": "Albertsons",
        "opening_hours": "Mo-Su 07:00-24:00",
        "phone": "+1(702)242-1138",
        "shop": "supermarket",
        "website": "https://www.albertsons.com/"
      },
      "geometry": {
        "type": "Point",
        "coordinates": [
          -115.2958144,
          36.1433298
        ]
      },
      "id": "node/4479290789"
    },
    {
      "type": "Feature",
      "properties": {
        "@id": "node/4543792743",
        "addr:city": "Reno",
        "addr:country": "US",
        "addr:housenumber": "110",
        "addr:postcode": "89505",
        "addr:state": "NV",
        "addr:street": "East 2nd Street",
        "entrance": "yes",
        "name": "Go-Fer Market #2",
        "shop": "convenience"
      },
      "geometry": {
        "type": "Point",
        "coordinates": [
          -119.811435,
          39.5271728
        ]
      },
      "id": "node/4543792743"
    },
    {
      "type": "Feature",
      "properties": {
        "@id": "node/4594848821",
        "addr:city": "Carson City",
        "addr:housenumber": "3701",
        "addr:postcode": "89701",
        "addr:state": "NV",
        "addr:street": "South Carson Street",
        "brand": "Raley's",
        "brand:wikidata": "Q7286970",
        "brand:wikipedia": "en:Raley's Supermarkets",
        "name": "Raley's",
        "shop": "supermarket"
      },
      "geometry": {
        "type": "Point",
        "coordinates": [
          -119.7680838,
          39.1330542
        ]
      },
      "id": "node/4594848821"
    },
    {
      "type": "Feature",
      "properties": {
        "@id": "node/4609365823",
        "name": "Area 51 Alien Center",
        "shop": "convenience",
        "shop:gift": "yes",
        "tourism": "attraction"
      },
      "geometry": {
        "type": "Point",
        "coordinates": [
          -116.3959837,
          36.6437669
        ]
      },
      "id": "node/4609365823"
    },
    {
      "type": "Feature",
      "properties": {
        "@id": "node/4668653096",
        "amenity": "marketplace",
        "name": "Hawaiian Marketplace"
      },
      "geometry": {
        "type": "Point",
        "coordinates": [
          -115.1721504,
          36.1064487
        ]
      },
      "id": "node/4668653096"
    },
    {
      "type": "Feature",
      "properties": {
        "@id": "node/4758760477",
        "addr:city": "Laroles",
        "addr:postcode": "18494",
        "addr:street": "Carretera Mairena",
        "brand": "Covirán",
        "brand:website": "https://www.coviran.es",
        "brand:wikidata": "Q61070539",
        "brand:wikipedia": "es:Covirán",
        "name": "Covirán",
        "name:es": "Covirán",
        "name:pt": "Coviran",
        "shop": "supermarket"
      },
      "geometry": {
        "type": "Point",
        "coordinates": [
          -3.0155699,
          37.0097906
        ]
      },
      "id": "node/4758760477"
    },
    {
      "type": "Feature",
      "properties": {
        "@id": "node/4770476644",
        "name": "Family Foods Market",
        "shop": "convenience"
      },
      "geometry": {
        "type": "Point",
        "coordinates": [
          -115.1337223,
          36.1660718
        ]
      },
      "id": "node/4770476644"
    },
    {
      "type": "Feature",
      "properties": {
        "@id": "node/4799932838",
        "addr:housenumber": "2000",
        "addr:postcode": "89030",
        "addr:street": "East Lake Mead Boulevard",
        "brand": "7-Eleven",
        "brand:wikidata": "Q259340",
        "brand:wikipedia": "en:7-Eleven",
        "name": "7-Eleven",
        "opening_hours": "24/7",
        "phone": "+17023990857",
        "shop": "convenience",
        "website": "http://www.7eleven.com"
      },
      "geometry": {
        "type": "Point",
        "coordinates": [
          -115.1282027,
          36.1961294
        ]
      },
      "id": "node/4799932838"
    },
    {
      "type": "Feature",
      "properties": {
        "@id": "node/4799932840",
        "shop": "convenience"
      },
      "geometry": {
        "type": "Point",
        "coordinates": [
          -115.1257458,
          36.1963934
        ]
      },
      "id": "node/4799932840"
    },
    {
      "type": "Feature",
      "properties": {
        "@id": "node/4799932844",
        "addr:housenumber": "810",
        "addr:postcode": "89030",
        "addr:street": "East Lake Mead Boulevard",
        "name": "Rebel",
        "opening_hours": "24/7",
        "phone": "+17026399619",
        "shop": "convenience",
        "website": "http://www.7eleven.com"
      },
      "geometry": {
        "type": "Point",
        "coordinates": [
          -115.129494,
          36.1963185
        ]
      },
      "id": "node/4799932844"
    },
    {
      "type": "Feature",
      "properties": {
        "@id": "node/4800679048",
        "shop": "convenience"
      },
      "geometry": {
        "type": "Point",
        "coordinates": [
          -115.0897825,
          36.1952123
        ]
      },
      "id": "node/4800679048"
    },
    {
      "type": "Feature",
      "properties": {
        "@id": "node/4800679051",
        "shop": "convenience"
      },
      "geometry": {
        "type": "Point",
        "coordinates": [
          -115.088707,
          36.1952072
        ]
      },
      "id": "node/4800679051"
    },
    {
      "type": "Feature",
      "properties": {
        "@id": "node/4800731573",
        "shop": "convenience"
      },
      "geometry": {
        "type": "Point",
        "coordinates": [
          -115.1970885,
          36.1995061
        ]
      },
      "id": "node/4800731573"
    },
    {
      "type": "Feature",
      "properties": {
        "@id": "node/4800731575",
        "shop": "convenience"
      },
      "geometry": {
        "type": "Point",
        "coordinates": [
          -115.1992575,
          36.202226
        ]
      },
      "id": "node/4800731575"
    },
    {
      "type": "Feature",
      "properties": {
        "@id": "node/4800731580",
        "addr:city": "Las Vegas",
        "addr:housenumber": "2400",
        "addr:postcode": "89108",
        "addr:state": "NV",
        "addr:street": "North Rainbow Boulevard",
        "name": "Green Valley Grocery",
        "opening_hours": "24/7",
        "phone": "+1(702)655-8435",
        "shop": "convenience",
        "website": "http://www.gvgrocery.com"
      },
      "geometry": {
        "type": "Point",
        "coordinates": [
          -115.2416766,
          36.203767
        ]
      },
      "id": "node/4800731580"
    },
    {
      "type": "Feature",
      "properties": {
        "@id": "node/4800791153",
        "addr:city": "Las Vegas",
        "addr:housenumber": "4800",
        "addr:postcode": "89130",
        "addr:state": "NV",
        "addr:street": "West Craig Road",
        "brand": "Speedway",
        "brand:wikidata": "Q7575683",
        "brand:wikipedia": "en:Speedway (store)",
        "name": "Speedway",
        "ref": "3018",
        "shop": "convenience"
      },
      "geometry": {
        "type": "Point",
        "coordinates": [
          -115.2083316,
          36.2393931
        ]
      },
      "id": "node/4800791153"
    },
    {
      "type": "Feature",
      "properties": {
        "@id": "node/4800791157",
        "shop": "convenience"
      },
      "geometry": {
        "type": "Point",
        "coordinates": [
          -115.2403876,
          36.2471464
        ]
      },
      "id": "node/4800791157"
    },
    {
      "type": "Feature",
      "properties": {
        "@id": "node/4802737038",
        "name": "Sharma Mart",
        "shop": "convenience"
      },
      "geometry": {
        "type": "Point",
        "coordinates": [
          -119.8074352,
          39.5439894
        ]
      },
      "id": "node/4802737038"
    },
    {
      "type": "Feature",
      "properties": {
        "@id": "node/4805129852",
        "shop": "convenience"
      },
      "geometry": {
        "type": "Point",
        "coordinates": [
          -115.2697645,
          36.2831668
        ]
      },
      "id": "node/4805129852"
    },
    {
      "type": "Feature",
      "properties": {
        "@id": "node/4807011848",
        "shop": "convenience"
      },
      "geometry": {
        "type": "Point",
        "coordinates": [
          -115.0808057,
          36.2026245
        ]
      },
      "id": "node/4807011848"
    },
    {
      "type": "Feature",
      "properties": {
        "@id": "node/4807037393",
        "shop": "convenience"
      },
      "geometry": {
        "type": "Point",
        "coordinates": [
          -115.0792983,
          36.2398556
        ]
      },
      "id": "node/4807037393"
    },
    {
      "type": "Feature",
      "properties": {
        "@id": "node/4807037398",
        "shop": "convenience"
      },
      "geometry": {
        "type": "Point",
        "coordinates": [
          -115.0797544,
          36.2263941
        ]
      },
      "id": "node/4807037398"
    },
    {
      "type": "Feature",
      "properties": {
        "@id": "node/4807037414",
        "shop": "convenience"
      },
      "geometry": {
        "type": "Point",
        "coordinates": [
          -115.0888409,
          36.2399117
        ]
      },
      "id": "node/4807037414"
    },
    {
      "type": "Feature",
      "properties": {
        "@id": "node/4807037417",
        "shop": "convenience"
      },
      "geometry": {
        "type": "Point",
        "coordinates": [
          -115.0792716,
          36.217224
        ]
      },
      "id": "node/4807037417"
    },
    {
      "type": "Feature",
      "properties": {
        "@id": "node/4807037426",
        "shop": "convenience"
      },
      "geometry": {
        "type": "Point",
        "coordinates": [
          -115.0805211,
          36.2411018
        ]
      },
      "id": "node/4807037426"
    },
    {
      "type": "Feature",
      "properties": {
        "@id": "node/4807037458",
        "shop": "convenience"
      },
      "geometry": {
        "type": "Point",
        "coordinates": [
          -115.0808541,
          36.2244164
        ]
      },
      "id": "node/4807037458"
    },
    {
      "type": "Feature",
      "properties": {
        "@id": "node/4807045868",
        "shop": "convenience"
      },
      "geometry": {
        "type": "Point",
        "coordinates": [
          -115.0791963,
          36.1882542
        ]
      },
      "id": "node/4807045868"
    },
    {
      "type": "Feature",
      "properties": {
        "@id": "node/4807052779",
        "shop": "convenience"
      },
      "geometry": {
        "type": "Point",
        "coordinates": [
          -115.0800297,
          36.1732298
        ]
      },
      "id": "node/4807052779"
    },
    {
      "type": "Feature",
      "properties": {
        "@id": "node/4808967165",
        "shop": "convenience"
      },
      "geometry": {
        "type": "Point",
        "coordinates": [
          -115.1260192,
          36.2182975
        ]
      },
      "id": "node/4808967165"
    },
    {
      "type": "Feature",
      "properties": {
        "@id": "node/4808967166",
        "shop": "convenience"
      },
      "geometry": {
        "type": "Point",
        "coordinates": [
          -115.1281451,
          36.2172497
        ]
      },
      "id": "node/4808967166"
    },
    {
      "type": "Feature",
      "properties": {
        "@id": "node/4808973310",
        "shop": "convenience"
      },
      "geometry": {
        "type": "Point",
        "coordinates": [
          -115.1435542,
          36.1961787
        ]
      },
      "id": "node/4808973310"
    },
    {
      "type": "Feature",
      "properties": {
        "@id": "node/4808977655",
        "shop": "convenience"
      },
      "geometry": {
        "type": "Point",
        "coordinates": [
          -115.1800432,
          36.2181867
        ]
      },
      "id": "node/4808977655"
    },
    {
      "type": "Feature",
      "properties": {
        "@id": "node/4808977667",
        "shop": "convenience"
      },
      "geometry": {
        "type": "Point",
        "coordinates": [
          -115.1788576,
          36.216923
        ]
      },
      "id": "node/4808977667"
    },
    {
      "type": "Feature",
      "properties": {
        "@id": "node/4808980334",
        "shop": "convenience"
      },
      "geometry": {
        "type": "Point",
        "coordinates": [
          -115.1621753,
          36.2180442
        ]
      },
      "id": "node/4808980334"
    },
    {
      "type": "Feature",
      "properties": {
        "@id": "node/4808980339",
        "shop": "convenience"
      },
      "geometry": {
        "type": "Point",
        "coordinates": [
          -115.1607457,
          36.2182954
        ]
      },
      "id": "node/4808980339"
    },
    {
      "type": "Feature",
      "properties": {
        "@id": "node/4809020762",
        "brand": "7-Eleven",
        "brand:wikidata": "Q259340",
        "brand:wikipedia": "en:7-Eleven",
        "name": "7-Eleven",
        "shop": "convenience"
      },
      "geometry": {
        "type": "Point",
        "coordinates": [
          -115.2068717,
          36.2178646
        ]
      },
      "id": "node/4809020762"
    },
    {
      "type": "Feature",
      "properties": {
        "@id": "node/4809027070",
        "shop": "convenience"
      },
      "geometry": {
        "type": "Point",
        "coordinates": [
          -115.2118391,
          36.2176309
        ]
      },
      "id": "node/4809027070"
    },
    {
      "type": "Feature",
      "properties": {
        "@id": "node/4809030541",
        "shop": "convenience"
      },
      "geometry": {
        "type": "Point",
        "coordinates": [
          -115.2395678,
          36.2184165
        ]
      },
      "id": "node/4809030541"
    },
    {
      "type": "Feature",
      "properties": {
        "@id": "node/4809034644",
        "addr:housenumber": "3195",
        "addr:postcode": "89108-4578",
        "addr:street": "West Cheyenne Avenue",
        "name": "Rebel",
        "opening_hours": "24/7",
        "phone": "+1(702645-4205",
        "shop": "convenience",
        "website": "https://www.rebeloil.com/"
      },
      "geometry": {
        "type": "Point",
        "coordinates": [
          -115.2429687,
          36.2176478
        ]
      },
      "id": "node/4809034644"
    },
    {
      "type": "Feature",
      "properties": {
        "@id": "node/4809034650",
        "addr:housenumber": "6702",
        "addr:postcode": "89108",
        "addr:street": "West Cheyenne Avenue",
        "brand": "7-Eleven",
        "brand:wikidata": "Q259340",
        "brand:wikipedia": "en:7-Eleven",
        "name": "7-Eleven",
        "name:en": "7-11",
        "opening_hours": "24/7",
        "phone": "17026458015",
        "shop": "convenience",
        "website": "http://www.7eleven.com"
      },
      "geometry": {
        "type": "Point",
        "coordinates": [
          -115.2427032,
          36.2186735
        ]
      },
      "id": "node/4809034650"
    },
    {
      "type": "Feature",
      "properties": {
        "@id": "node/4809036032",
        "addr:housenumber": "9190",
        "addr:postcode": "89129",
        "addr:street": "West Cheyenne Avenue",
        "name": "7-Eleven",
        "opening_hours": "24/7",
        "phone": "+1-702-242-6464",
        "shop": "convenience",
        "website": "http://www.7eleven.com"
      },
      "geometry": {
        "type": "Point",
        "coordinates": [
          -115.2964947,
          36.2191386
        ]
      },
      "id": "node/4809036032"
    },
    {
      "type": "Feature",
      "properties": {
        "@id": "node/4809037247",
        "addr:housenumber": "3320",
        "addr:postcode": "89129",
        "addr:street": "Novat Street",
        "name": "Terrible Herbst",
        "opening_hours": "24/7",
        "phone": "17022285821",
        "shop": "convenience",
        "website": "https://www.terribleherbst.com/"
      },
      "geometry": {
        "type": "Point",
        "coordinates": [
          -115.3294382,
          36.220662
        ]
      },
      "id": "node/4809037247"
    },
    {
      "type": "Feature",
      "properties": {
        "@id": "node/4810448859",
        "shop": "convenience"
      },
      "geometry": {
        "type": "Point",
        "coordinates": [
          -115.1794196,
          36.2622818
        ]
      },
      "id": "node/4810448859"
    },
    {
      "type": "Feature",
      "properties": {
        "@id": "node/4810450469",
        "shop": "convenience"
      },
      "geometry": {
        "type": "Point",
        "coordinates": [
          -115.1795968,
          36.2400461
        ]
      },
      "id": "node/4810450469"
    },
    {
      "type": "Feature",
      "properties": {
        "@id": "node/4810848929",
        "addr:housenumber": "6390",
        "addr:postcode": "89149",
        "addr:street": "North Durango Drive",
        "name": "Short Line Express",
        "opening_hours": "24/7",
        "phone": "+1-702-302-7749",
        "shop": "convenience",
        "website": "http://www.shortlineexpress.com"
      },
      "geometry": {
        "type": "Point",
        "coordinates": [
          -115.2873594,
          36.2769655
        ]
      },
      "id": "node/4810848929"
    },
    {
      "type": "Feature",
      "properties": {
        "@id": "node/4812871065",
        "shop": "convenience"
      },
      "geometry": {
        "type": "Point",
        "coordinates": [
          -115.0916068,
          36.2181612
        ]
      },
      "id": "node/4812871065"
    },