{
  "type": "FeatureCollection",
  "generator": "overpass-ide",
  "copyright": "The data included in this document is from www.openstreetmap.org. The data is made available under ODbL.",
  "timestamp": "2023-03-06T00:00:37Z",
  "features": [
    {
      "type": "Feature",
      "properties": {
        "@id": "node/251652542",
        "fixme": "name",
        "old_name": "Bigg’s",
        "shop": "supermarket"
      },
      "geometry": {
        "type": "Point",
        "coordinates": [
          -84.4579244,
          39.3406715
        ]
      },
      "id": "node/251652542"
    },
    {
      "type": "Feature",
      "properties": {
        "@id": "node/252114045",
        "created_by": "Potlatch 0.7b",
        "name": "Marsh",
        "shop": "supermarket"
      },
      "geometry": {
        "type": "Point",
        "coordinates": [
          -84.4998864,
          39.2793201
        ]
      },
      "id": "node/252114045"
    },
    {
      "type": "Feature",
      "properties": {
        "@id": "node/256658654",
        "brand": "Kroger",
        "brand:wikidata": "Q153417",
        "brand:wikipedia": "en:Kroger",
        "name": "Harpers Point Kroger",
        "old_name": "Thriftway;Winn Dixie;Kroger Food & Drug;Kroger Fresh Fare",
        "shop": "supermarket",
        "website": "https://www.kroger.com/stores/details/014/00353"
      },
      "geometry": {
        "type": "Point",
        "coordinates": [
          -84.3259551,
          39.2715172
        ]
      },
      "id": "node/256658654"
    },
    {
      "type": "Feature",
      "properties": {
        "@id": "node/257874034",
        "brand": "Kroger",
        "brand:wikidata": "Q153417",
        "brand:wikipedia": "en:Kroger",
        "name": "Kroger Food & Drug",
        "shop": "supermarket"
      },
      "geometry": {
        "type": "Point",
        "coordinates": [
          -84.3506518,
          39.2382034
        ]
      },
      "id": "node/257874034"
    },
    {
      "type": "Feature",
      "properties": {
        "@id": "node/258513434",
        "brand": "Kroger",
        "brand:wikidata": "Q153417",
        "brand:wikipedia": "en:Kroger",
        "name": "Kroger Food & Drug",
        "shop": "supermarket"
      },
      "geometry": {
        "type": "Point",
        "coordinates": [
          -84.3978257,
          39.2272708
        ]
      },
      "id": "node/258513434"
    },
    {
      "type": "Feature",
      "properties": {
        "@id": "node/266310881",
        "amenity": "drinking_water"
      },
      "geometry": {
        "type": "Point",
        "coordinates": [
          12.4934985,
          41.8923773
        ]
      },
      "id": "node/266310881"
    },
    {
      "type": "Feature",
      "properties": {
        "@id": "node/274212016",
        "name": "Missler's IGA",
        "shop": "supermarket"
      },
      "geometry": {
        "type": "Point",
        "coordinates": [
          -82.7248609,
          41.0410212
        ]
      },
      "id": "node/274212016"
    },
    {
      "type": "Feature",
      "properties": {
        "@id": "node/274214308",
        "amenity": "fuel",
        "created_by": "Potlatch 0.9c",
        "name": "Main Street Carry Out",
        "shop": "convenience"
      },
      "geometry": {
        "type": "Point",
        "coordinates": [
          -82.7327588,
          41.0561166
        ]
      },
      "id": "node/274214308"
    },
    {
      "type": "Feature",
      "properties": {
        "@id": "node/357450365",
        "addr:city": "Aurora",
        "addr:housenumber": "300",
        "addr:postcode": "44202",
        "addr:state": "OH",
        "addr:street": "Aurora Commons Circle",
        "brand": "Marc's",
        "brand:wikidata": "Q17080259",
        "brand:wikipedia": "en:Marc's",
        "gnis:county_id": "133",
        "gnis:created": "12/01/1990",
        "gnis:state_id": "39",
        "name": "Marc's",
        "opening_hours": "Mo-Sa 07:00-21:00; Su 07:00-19:00",
        "shop": "supermarket"
      },
      "geometry": {
        "type": "Point",
        "coordinates": [
          -81.3569108,
          41.3158135
        ]
      },
      "id": "node/357450365"
    },
    {
      "type": "Feature",
      "properties": {
        "@id": "node/388984003",
        "amenity": "drinking_water",
        "fountain": "nasone"
      },
      "geometry": {
        "type": "Point",
        "coordinates": [
          12.494519,
          41.8877413
        ]
      },
      "id": "node/388984003"
    },
    {
      "type": "Feature",
      "properties": {
        "@id": "node/445969831",
        "addr:city": "Mentor",
        "addr:housenumber": "7294",
        "addr:postcode": "44060",
        "addr:state": "OH",
        "addr:street": "Lakeshore Boulevard",
        "name": "Mentor Family Foods",
        "shop": "supermarket"
      },
      "geometry": {
        "type": "Point",
        "coordinates": [
          -81.3792461,
          41.6999067
        ]
      },
      "id": "node/445969831"
    },
    {
      "type": "Feature",
      "properties": {
        "@id": "node/445969833",
        "addr:city": "Mentor-on-the-Lake",
        "addr:housenumber": "6079",
        "addr:postcode": "44060",
        "addr:state": "OH",
        "addr:street": "Andrews Road",
        "brand": "Giant Eagle",
        "brand:wikidata": "Q1522721",
        "brand:wikipedia": "en:Giant Eagle",
        "name": "Giant Eagle",
        "opening_hours": "24/7",
        "payment:apple_pay": "yes",
        "phone": "+1-440-257-7271",
        "shop": "supermarket"
      },
      "geometry": {
        "type": "Point",
        "coordinates": [
          -81.3597646,
          41.7067374
        ]
      },
      "id": "node/445969833"
    },
    {
      "type": "Feature",
      "properties": {
        "@id": "node/445969834",
        "addr:city": "Mentor-on-the-Lake",
        "addr:housenumber": "5929",
        "addr:postcode": "44060",
        "addr:state": "OH",
        "addr:street": "Andrews Road",
        "brand": "Marc's",
        "brand:wikidata": "Q17080259",
        "brand:wikipedia": "en:Marc's",
        "name": "Marc's",
        "shop": "supermarket"
      },
      "geometry": {
        "type": "Point",
        "coordinates": [
          -81.3592458,
          41.7102002
        ]
      },
      "id": "node/445969834"
    },
    {
      "type": "Feature",
      "properties": {
        "@id": "node/445969837",
        "addr:city": "Mentor",
        "addr:housenumber": "7353",
        "addr:postcode": "44060",
        "addr:state": "OH",
        "addr:street": "Mentor Avenue",
        "brand": "Marc's",
        "brand:wikidata": "Q17080259",
        "brand:wikipedia": "en:Marc's",
        "name": "Marc's",
        "shop": "supermarket"
      },
      "geometry": {
        "type": "Point",
        "coordinates": [
          -81.3787687,
          41.6538433
        ]
      },
      "id": "node/445969837"
    },
    {
      "type": "Feature",
      "properties": {
        "@id": "node/445970136",
        "name": "Heinen's",
        "shop": "supermarket"
      },
      "geometry": {
        "type": "Point",
        "coordinates": [
          -81.442469,
          41.6067326
        ]
      },
      "id": "node/445970136"
    },
    {
      "type": "Feature",
      "properties": {
        "@id": "node/471484950",
        "name": "Montville Country Store",
        "shop": "convenience"
      },
      "geometry": {
        "type": "Point",
        "coordinates": [
          -81.0505272,
          41.6074889
        ]
      },
      "id": "node/471484950"
    },
    {
      "type": "Feature",
      "properties": {
        "@id": "node/474724523",
        "addr:city": "Cincinnati",
        "addr:housenumber": "5695",
        "addr:postcode": "45238",
        "addr:state": "OH",
        "addr:street": "Rapid Run Road",
        "brand": "Speedway",
        "brand:wikidata": "Q7575683",
        "brand:wikipedia": "en:Speedway (store)",
        "name": "Speedway",
        "ref": "5409",
        "shop": "convenience"
      },
      "geometry": {
        "type": "Point",
        "coordinates": [
          -84.6353093,
          39.1113819
        ]
      },
      "id": "node/474724523"
    },
    {
      "type": "Feature",
      "properties": {
        "@id": "node/495113034",
        "amenity": "drinking_water",
        "check_date": "2022-06-22"
      },
      "geometry": {
        "type": "Point",
        "coordinates": [
          12.4934283,
          41.8913309
        ]
      },
      "id": "node/495113034"
    },
    {
      "type": "Feature",
      "properties": {
        "@id": "node/506392229",
        "amenity": "ice_cream",
        "brand": "United Dairy Farmers",
        "brand:wikidata": "Q7887677",
        "brand:wikipedia": "en:United Dairy Farmers",
        "name": "United Dairy Farmers",
        "shop": "convenience",
        "short_name": "UDF"
      },
      "geometry": {
        "type": "Point",
        "coordinates": [
          -83.0086682,
          40.0051812
        ]
      },
      "id": "node/506392229"
    },
    {
      "type": "Feature",
      "properties": {
        "@id": "node/506867784",
        "brand": "Whole Foods Market",
        "brand:wikidata": "Q1809448",
        "brand:wikipedia": "en:Whole Foods Market",
        "name": "Whole Foods Market",
        "shop": "supermarket"
      },
      "geometry": {
        "type": "Point",
        "coordinates": [
          -83.0525156,
          40.0066484
        ]
      },
      "id": "node/506867784"
    },
    {
      "type": "Feature",
      "properties": {
        "@id": "node/519559486",
        "brand": "IGA",
        "brand:wikidata": "Q3146662",
        "brand:wikipedia": "en:IGA (supermarkets)",
        "name": "IGA",
        "shop": "supermarket"
      },
      "geometry": {
        "type": "Point",
        "coordinates": [
          -84.402704,
          39.2096865
        ]
      },
      "id": "node/519559486"
    },
    {
      "type": "Feature",
      "properties": {
        "@id": "node/519619659",
        "name": "The Hills Market",
        "shop": "supermarket"
      },
      "geometry": {
        "type": "Point",
        "coordinates": [
          -83.035295,
          40.1251939
        ]
      },
      "id": "node/519619659"
    },
    {
      "type": "Feature",
      "properties": {
        "@id": "node/572682791",
        "addr:city": "Cincinnati",
        "addr:country": "US",
        "addr:housenumber": "9450",
        "addr:postcode": "45249",
        "addr:state": "OH",
        "addr:street": "Fields Ertel Road",
        "brand": "ALDI",
        "brand:wikidata": "Q41171672",
        "brand:wikipedia": "en:Aldi",
        "name": "ALDI",
        "old_name": "hhgregg; Steinberg’s; SUN Electronics",
        "opening_hours": "Mo-Su 09:00-20:00",
        "ref": "43",
        "shop": "supermarket",
        "source": "local_knowledge",
        "website": "https://www.aldi.us/"
      },
      "geometry": {
        "type": "Point",
        "coordinates": [
          -84.3002734,
          39.2916518
        ]
      },
      "id": "node/572682791"
    },
    {
      "type": "Feature",
      "properties": {
        "@id": "node/595699430",
        "name": "Wagner's IGA",
        "shop": "supermarket",
        "wheelchair": "yes"
      },
      "geometry": {
        "type": "Point",
        "coordinates": [
          -84.3754062,
          40.3925908
        ]
      },
      "id": "node/595699430"
    },
    {
      "type": "Feature",
      "properties": {
        "@id": "node/612013914",
        "brand": "Kroger",
        "brand:wikidata": "Q153417",
        "brand:wikipedia": "en:Kroger",
        "name": "Kroger",
        "shop": "supermarket"
      },
      "geometry": {
        "type": "Point",
        "coordinates": [
          -83.1642895,
          40.1029665
        ]
      },
      "id": "node/612013914"
    },
    {
      "type": "Feature",
      "properties": {
        "@id": "node/612014010",
        "brand": "Giant Eagle",
        "brand:wikidata": "Q1522721",
        "brand:wikipedia": "en:Giant Eagle",
        "name": "Giant Eagle",
        "shop": "supermarket"
      },
      "geometry": {
        "type": "Point",
        "coordinates": [
          -83.1559425,
          40.1027859
        ]
      },
      "id": "node/612014010"
    },
    {
      "type": "Feature",
      "properties": {
        "@id": "node/612014909",
        "brand": "Kroger",
        "brand:wikidata": "Q153417",
        "brand:wikipedia": "en:Kroger",
        "name": "Kroger",
        "shop": "supermarket"
      },
      "geometry": {
        "type": "Point",
        "coordinates": [
          -83.1225112,
          40.0978921
        ]
      },
      "id": "node/612014909"
    },
    {
      "type": "Feature",
      "properties": {
        "@id": "node/636471377",
        "name": "Harvest Market",
        "shop": "convenience"
      },
      "geometry": {
        "type": "Point",
        "coordinates": [
          -81.8356975,
          40.7484505
        ]
      },
      "id": "node/636471377"
    },
    {
      "type": "Feature",
      "properties": {
        "@id": "node/657689723",
        "shop": "convenience"
      },
      "geometry": {
        "type": "Point",
        "coordinates": [
          -82.6819439,
          41.0318889
        ]
      },
      "id": "node/657689723"
    },
    {
      "type": "Feature",
      "properties": {
        "@id": "node/685457655",
        "amenity": "drinking_water",
        "check_date": "2021-11-01"
      },
      "geometry": {
        "type": "Point",
        "coordinates": [
          12.4867108,
          41.8902623
        ]
      },
      "id": "node/685457655"
    },
    {
      "type": "Feature",
      "properties": {
        "@id": "node/685461877",
        "amenity": "drinking_water",
        "check_date": "2021-11-01"
      },
      "geometry": {
        "type": "Point",
        "coordinates": [
          12.4875779,
          41.8891234
        ]
      },
      "id": "node/685461877"
    },
    {
      "type": "Feature",
      "properties": {
        "@id": "node/773401232",
        "name": "Mount Repose Mini Mart",
        "shop": "convenience"
      },
      "geometry": {
        "type": "Point",
        "coordinates": [
          -84.2251846,
          39.2007187
        ]
      },
      "id": "node/773401232"
    },
    {
      "type": "Feature",
      "properties": {
        "@id": "node/809969851",
        "brand": "Kroger",
        "brand:wikidata": "Q153417",
        "brand:wikipedia": "en:Kroger",
        "name": "Kroger",
        "shop": "supermarket"
      },
      "geometry": {
        "type": "Point",
        "coordinates": [
          -82.4591221,
          40.4010087
        ]
      },
      "id": "node/809969851"
    },
    {
      "type": "Feature",
      "properties": {
        "@id": "node/812598739",
        "addr:city": "Galloway",
        "addr:country": "US",
        "addr:housenumber": "360",
        "addr:postcode": "43119",
        "addr:state": "OH",
        "addr:street": "Hubbard Road",
        "name": "Darby Mart",
        "old_name": "Short Stop",
        "shop": "convenience"
      },
      "geometry": {
        "type": "Point",
        "coordinates": [
          -83.2311196,
          39.9551329
        ]
      },
      "id": "node/812598739"
    },
    {
      "type": "Feature",
      "properties": {
        "@id": "node/899817488",
        "amenity": "fuel",
        "name": "Marathon",
        "note": "South Madison OH",
        "operator": "Marathon",
        "shop": "convenience"
      },
      "geometry": {
        "type": "Point",
        "coordinates": [
          -81.046944,
          41.754472
        ]
      },
      "id": "node/899817488"
    },
    {
      "type": "Feature",
      "properties": {
        "@id": "node/899817522",
        "addr:city": "Newark",
        "addr:housenumber": "910",
        "addr:postcode": "43056",
        "addr:state": "OH",
        "addr:street": "Hebron Road",
        "brand": "Kroger",
        "brand:wikidata": "Q153417",
        "brand:wikipedia": "en:Kroger",
        "name": "Kroger",
        "ref": "926",
        "shop": "supermarket"
      },
      "geometry": {
        "type": "Point",
        "coordinates": [
          -82.4450863,
          40.0259096
        ]
      },
      "id": "node/899817522"
    },
    {
      "type": "Feature",
      "properties": {
        "@id": "node/911522777",
        "name": "Freshway",
        "shop": "supermarket"
      },
      "geometry": {
        "type": "Point",
        "coordinates": [
          -81.5484559,
          41.135443
        ]
      },
      "id": "node/911522777"
    },
    {
      "type": "Feature",
      "properties": {
        "@id": "node/932359070",
        "brand": "Kroger",
        "brand:wikidata": "Q153417",
        "brand:wikipedia": "en:Kroger",
        "name": "Kroger Hyde Park",
        "shop": "supermarket"
      },
      "geometry": {
        "type": "Point",
        "coordinates": [
          -84.4295123,
          39.1446868
        ]
      },
      "id": "node/932359070"
    },
    {
      "type": "Feature",
      "properties": {
        "@id": "node/944649490",
        "brand": "Giant Eagle",
        "brand:wikidata": "Q1522721",
        "brand:wikipedia": "en:Giant Eagle",
        "name": "Giant Eagle",
        "shop": "supermarket"
      },
      "geometry": {
        "type": "Point",
        "coordinates": [
          -81.4085807,
          41.1532501
        ]
      },
      "id": "node/944649490"
    },
    {
      "type": "Feature",
      "properties": {
        "@id": "node/953890053",
        "amenity": "drinking_water"
      },
      "geometry": {
        "type": "Point",
        "coordinates": [
          12.4879526,
          41.8887986
        ]
      },
      "id": "node/953890053"
    },
    {
      "type": "Feature",
      "properties": {
        "@id": "node/953890062",
        "amenity": "drinking_water",
        "check_date": "2021-11-01",
        "man_made": "water_tap"
      },
      "geometry": {
        "type": "Point",
        "coordinates": [
          12.4883755,
          41.890985
        ]
      },
      "id": "node/953890062"
    },
    {
      "type": "Feature",
      "properties": {
        "@id": "node/953909059",
        "amenity": "drinking_water",
        "fountain": "nasone",
        "wikimedia_commons": "File:Nasone via dei santi Quattro,roma,italy 62022.jpeg"
      },
      "geometry": {
        "type": "Point",
        "coordinates": [
          12.4968765,
          41.8889852
        ]
      },
      "id": "node/953909059"
    },
    {
      "type": "Feature",
      "properties": {
        "@id": "node/1038421208",
        "name": "Heinen's",
        "shop": "supermarket",
        "wheelchair": "yes"
      },
      "geometry": {
        "type": "Point",
        "coordinates": [
          -81.4602319,
          41.4630473
        ]
      },
      "id": "node/1038421208"
    },
    {
      "type": "Feature",
      "properties": {
        "@id": "node/1038431264",
        "name": "Miles Farmers Market",
        "shop": "supermarket"
      },
      "geometry": {
        "type": "Point",
        "coordinates": [
          -81.4767382,
          41.424116
        ]
      },
      "id": "node/1038431264"
    },
    {
      "type": "Feature",
      "properties": {
        "@id": "node/1100965841",
        "brand": "Giant Eagle",
        "brand:wikidata": "Q1522721",
        "brand:wikipedia": "en:Giant Eagle",
        "name": "Giant Eagle",
        "shop": "supermarket"
      },
      "geometry": {
        "type": "Point",
        "coordinates": [
          -83.0933896,
          40.1605699
        ]
      },
      "id": "node/1100965841"
    },
    {
      "type": "Feature",
      "properties": {
        "@id": "node/1124059000",
        "brand": "Kroger",
        "brand:wikidata": "Q153417",
        "brand:wikipedia": "en:Kroger",
        "name": "Kroger",
        "shop": "supermarket"
      },
      "geometry": {
        "type": "Point",
        "coordinates": [
          -83.0922646,
          40.1217727
        ]
      },
      "id": "node/1124059000"
    },
    {
      "type": "Feature",
      "properties": {
        "@id": "node/1152156790",
        "shop": "supermarket"
      },
      "geometry": {
        "type": "Point",
        "coordinates": [
          -81.3029727,
          41.6420969
        ]
      },
      "id": "node/1152156790"
    },
    {
      "type": "Feature",
      "properties": {
        "@id": "node/1164153415",
        "name": "Dave's Supermarket",
        "shop": "supermarket"
      },
      "geometry": {
        "type": "Point",
        "coordinates": [
          -81.5930249,
          41.5008183
        ]
      },
      "id": "node/1164153415"
    },
    {
      "type": "Feature",
      "properties": {
        "@id": "node/1170494282",
        "amenity": "drinking_water",
        "fountain": "nasone"
      },
      "geometry": {
        "type": "Point",
        "coordinates": [
          12.4942213,
          41.8900377
        ]
      },
      "id": "node/1170494282"
    },
    {
      "type": "Feature",
      "properties": {
        "@id": "node/1181037651",
        "addr:city": "Fairview Park",
        "addr:housenumber": "19110",
        "addr:postcode": "44126",
        "addr:state": "OH",
        "addr:street": "Lorain Road",
        "brand": "Convenient Food Mart",
        "brand:wikidata": "Q5166143",
        "brand:wikipedia": "en:Convenient Food Mart",
        "name": "Convenient Food Mart",
        "not:brand:wikidata": "Q5166143",
        "shop": "convenience"
      },
      "geometry": {
        "type": "Point",
        "coordinates": [
          -81.8640533,
          41.4423574
        ]
      },
      "id": "node/1181037651"
    },
    {
      "type": "Feature",
      "properties": {
        "@id": "node/1181038018",
        "brand": "Giant Eagle",
        "brand:wikidata": "Q1522721",
        "brand:wikipedia": "en:Giant Eagle",
        "name": "Giant Eagle",
        "operator": "Giant Eagle",
        "shop": "supermarket"
      },
      "geometry": {
        "type": "Point",
        "coordinates": [
          -81.8607053,
          41.441444
        ]
      },
      "id": "node/1181038018"
    },
    {
      "type": "Feature",
      "properties": {
        "@id": "node/1184559474",
        "name": "Convenient",
        "shop": "convenience"
      },
      "geometry": {
        "type": "Point",
        "coordinates": [
          -81.9235422,
          41.3831804
        ]
      },
      "id": "node/1184559474"
    },
    {
      "type": "Feature",
      "properties": {
        "@id": "node/1219696666",
        "addr:city": "Cincinnati",
        "addr:housenumber": "4450",
        "addr:postcode": "45245",
        "addr:state": "OH",
        "addr:street": "Eastgate Boulevard",
        "brand": "Jungle Jim’s International Market",
        "brand:wikidata": "Q6312849",
        "name": "Jungle Jim’s International Market Eastgate",
        "old_name": "bigg’s Hypermarket;bigg’s Place Mall",
        "operator": "Jungle Jim’s International Market",
        "operator:wikidata": "Q6312849",
        "shop": "supermarket",
        "wikidata": "Q108187621"
      },
      "geometry": {
        "type": "Point",
        "coordinates": [
          -84.2733795,
          39.093319
        ]
      },
      "id": "node/1219696666"
    },
    {
      "type": "Feature",
      "properties": {
        "@id": "node/1223981453",
        "name": "Marina Store",
        "shop": "convenience"
      },
      "geometry": {
        "type": "Point",
        "coordinates": [
          -82.6850802,
          41.4799326
        ]
      },
      "id": "node/1223981453"
    },
    {
      "type": "Feature",
      "properties": {
        "@id": "node/1232535984",
        "brand": "Circle K",
        "brand:wikidata": "Q3268010",
        "brand:wikipedia": "en:Circle K",
        "name": "Circle K",
        "shop": "convenience"
      },
      "geometry": {
        "type": "Point",
        "coordinates": [
          -81.7895504,
          41.4634159
        ]
      },
      "id": "node/1232535984"
    },
    {
      "type": "Feature",
      "properties": {
        "@id": "node/1249412846",
        "name": "Ohio Filling Station",
        "shop": "convenience"
      },
      "geometry": {
        "type": "Point",
        "coordinates": [
          -89.461959,
          41.5590978
        ]
      },
      "id": "node/1249412846"
    },
    {
      "type": "Feature",
      "properties": {
        "@id": "node/1258967004",
        "brand": "Kroger",
        "brand:wikidata": "Q153417",
        "brand:wikipedia": "en:Kroger",
        "name": "Kroger Food & Drug",
        "shop": "supermarket"
      },
      "geometry": {
        "type": "Point",
        "coordinates": [
          -84.2805598,
          39.1761271
        ]
      },
      "id": "node/1258967004"
    },
    {
      "type": "Feature",
      "properties": {
        "@id": "node/1269964462",
        "addr:city": "Cincinnati",
        "addr:housenumber": "5901",
        "addr:postcode": "45236",
        "addr:state": "OH",
        "addr:street": "East Galbraith Road",
        "brand": "Whole Foods Market",
        "brand:wikidata": "Q1809448",
        "brand:wikipedia": "en:Whole Foods Market",
        "name": "Whole Foods Market",
        "old_name": "Whole Foods",
        "payment:cash": "yes",
        "payment:credit_cards": "yes",
        "shop": "supermarket",
        "shop:historic": "supermarket"
      },
      "geometry": {
        "type": "Point",
        "coordinates": [
          -84.3738203,
          39.2050974
        ]
      },
      "id": "node/1269964462"
    },
    {
      "type": "Feature",
      "properties": {
        "@id": "node/1276399796",
        "brand": "ALDI",
        "brand:wikidata": "Q41171672",
        "brand:wikipedia": "en:Aldi",
        "name": "ALDI",
        "shop": "supermarket"
      },
      "geometry": {
        "type": "Point",
        "coordinates": [
          -84.4205062,
          39.2525275
        ]
      },
      "id": "node/1276399796"
    },
    {
      "type": "Feature",
      "properties": {
        "@id": "node/1276400037",
        "alt_name": "CAM",
        "alt_name:zh": "辛华",
        "name": "Cincinnati Asian Market",
        "name:zh": "辛欣超市;辛城华欣",
        "operator": "CAM Asian Supermarket",
        "shop": "supermarket",
        "website": "http://www.huaxin.us/english/location_cinE.htm",
        "website:zh": "http://www.huaxin.us/location_cin.htm"
      },
      "geometry": {
        "type": "Point",
        "coordinates": [
          -84.4213377,
          39.2526108
        ]
      },
      "id": "node/1276400037"
    },
    {
      "type": "Feature",
      "properties": {
        "@id": "node/1278852075",
        "addr:housenumber": "7000",
        "addr:street": "East Broad Street",
        "brand": "Kroger",
        "brand:wikidata": "Q153417",
        "brand:wikipedia": "en:Kroger",
        "name": "Kroger",
        "shop": "supermarket",
        "website": "http://kroger.com"
      },
      "geometry": {
        "type": "Point",
        "coordinates": [
          -82.8163581,
          39.9844942
        ]
      },
      "id": "node/1278852075"
    },
    {
      "type": "Feature",
      "properties": {
        "@id": "node/1285915287",
        "brand": "Kroger",
        "brand:wikidata": "Q153417",
        "name": "Kroger",
        "shop": "supermarket"
      },
      "geometry": {
        "type": "Point",
        "coordinates": [
          -84.3760786,
          39.3772617
        ]
      },
      "id": "node/1285915287"
    },
    {
      "type": "Feature",
      "properties": {
        "@id": "node/1287065632",
        "brand": "Kroger",
        "brand:wikidata": "Q153417",
        "brand:wikipedia": "en:Kroger",
        "name": "Kroger",
        "shop": "supermarket"
      },
      "geometry": {
        "type": "Point",
        "coordinates": [
          -84.2788539,
          39.3606812
        ]
      },
      "id": "node/1287065632"
    },
    {
      "type": "Feature",
      "properties": {
        "@id": "node/1312442539",
        "amenity": "fuel",
        "brand": "Shell",
        "fuel:octane_87": "yes",
        "fuel:octane_89": "yes",
        "fuel:octane_93": "yes",
        "name": "Concord Corners Shell",
        "shop": "convenience"
      },
      "geometry": {
        "type": "Point",
        "coordinates": [
          -81.2415669,
          41.6635674
        ]
      },
      "id": "node/1312442539"
    },
    {
      "type": "Feature",
      "properties": {
        "@id": "node/1312454364",
        "amenity": "fuel",
        "brand": "Marathon",
        "fuel:octane_87": "yes",
        "name": "Lakeside Plaza Marathon",
        "shop": "convenience"
      },
      "geometry": {
        "type": "Point",
        "coordinates": [
          -83.497996,
          39.9487415
        ]
      },
      "id": "node/1312454364"
    },
    {
      "type": "Feature",
      "properties": {
        "@id": "node/1313395617",
        "amenity": "marketplace",
        "name": "CVS Caremark Pharmacy"
      },
      "geometry": {
        "type": "Point",
        "coordinates": [
          -80.7413003,
          41.0240771
        ]
      },
      "id": "node/1313395617"
    },
    {
      "type": "Feature",
      "properties": {
        "@id": "node/1440311458",
        "name": "Cornell's",
        "shop": "supermarket"
      },
      "geometry": {
        "type": "Point",
        "coordinates": [
          -82.5439126,
          41.3881092
        ]
      },
      "id": "node/1440311458"
    },
    {
      "type": "Feature",
      "properties": {
        "@id": "node/1455182712",
        "name": "The Store",
        "note": "yes, that's it's name",
        "shop": "convenience"
      },
      "geometry": {
        "type": "Point",
        "coordinates": [
          -80.5670204,
          41.6068371
        ]
      },
      "id": "node/1455182712"
    },
    {
      "type": "Feature",
      "properties": {
        "@id": "node/1603856325",
        "name": "Mr Deal’s",
        "shop": "supermarket"
      },
      "geometry": {
        "type": "Point",
        "coordinates": [
          -84.3250752,
          39.9539348
        ]
      },
      "id": "node/1603856325"
    },
    {
      "type": "Feature",
      "properties": {
        "@id": "node/1656861982",
        "amenity": "drinking_water",
        "check_date": "2021-11-01",
        "man_made": "water_tap"
      },
      "geometry": {
        "type": "Point",
        "coordinates": [
          12.4883955,
          41.8907173
        ]
      },
      "id": "node/1656861982"
    },
    {
      "type": "Feature",
      "properties": {
        "@id": "node/1680660241",
        "brand": "Marc's",
        "brand:wikidata": "Q17080259",
        "brand:wikipedia": "en:Marc's",
        "name": "Marc's",
        "shop": "supermarket"
      },
      "geometry": {
        "type": "Point",
        "coordinates": [
          -81.2109585,
          41.5789999
        ]
      },
      "id": "node/1680660241"
    },
    {
      "type": "Feature",
      "properties": {
        "@id": "node/1705310660",
        "name": "C&M Convenient Store",
        "shop": "convenience"
      },
      "geometry": {
        "type": "Point",
        "coordinates": [
          -81.5803822,
          41.5113051
        ]
      },
      "id": "node/1705310660"
    },
    {
      "type": "Feature",
      "properties": {
        "@id": "node/1709280191",
        "amenity": "drinking_water",
        "check_date": "2021-11-02",
        "fountain": "bottle_refill",
        "name:ru": "вода с газом и без. бесплатная"
      },
      "geometry": {
        "type": "Point",
        "coordinates": [
          12.4911794,
          41.891319
        ]
      },
      "id": "node/1709280191"
    },
    {
      "type": "Feature",
      "properties": {
        "@id": "node/1726785730",
        "name": "Sidney Food Town",
        "shop": "supermarket"
      },
      "geometry": {
        "type": "Point",
        "coordinates": [
          -84.1570098,
          40.2970424
        ]
      },
      "id": "node/1726785730"
    },
    {
      "type": "Feature",
      "properties": {
        "@id": "node/1727290121",
        "addr:city": "Westerville",
        "addr:housenumber": "5991",
        "addr:postcode": "43081",
        "addr:state": "OH",
        "addr:street": "South Sunbury Road",
        "brand": "Kroger",
        "brand:wikidata": "Q153417",
        "brand:wikipedia": "en:Kroger",
        "name": "Kroger",
        "opening_hours": "Su-Sa 06:00-01:00",
        "phone": "+1-614-895-1500",
        "shop": "supermarket",
        "website": "https://www.kroger.com/stores/details/016/00965"
      },
      "geometry": {
        "type": "Point",
        "coordinates": [
          -82.8967531,
          40.0847517
        ]
      },
      "id": "node/1727290121"
    },
    {
      "type": "Feature",
      "properties": {
        "@id": "node/1727969355",
        "addr:housenumber": "2424",
        "addr:postcode": "43202",
        "addr:street": "North High Street",
        "name": "North Campus Food Mart",
        "shop": "convenience",
        "source": "Knowledge"
      },
      "geometry": {
        "type": "Point",
        "coordinates": [
          -83.0101176,
          40.0117783
        ]
      },
      "id": "node/1727969355"
    },
    {
      "type": "Feature",
      "properties": {
        "@id": "node/1727991598",
        "amenity": "marketplace",
        "name": "Union Market",
        "opening_hours": "Su-Fr 10:30-21:00; Sa 10:30-19:00",
        "source": "Knowledge"
      },
      "geometry": {
        "type": "Point",
        "coordinates": [
          -83.0091075,
          39.9979049
        ]
      },
      "id": "node/1727991598"
    },
    {
      "type": "Feature",
      "properties": {
        "@id": "node/1728590189",
        "addr:housename": "Paul's Market",
        "addr:housenumber": "11",
        "addr:postcode": "55853",
        "addr:street": "N Perry St.",
        "name": "Paul's Market",
        "shop": "convenience",
        "source": "local_knowledge",
        "website": "http://www.paulsmarketnewriegel.com/"
      },
      "geometry": {
        "type": "Point",
        "coordinates": [
          -83.3186044,
          41.0516823
        ]
      },
      "id": "node/1728590189"
    },
    {
      "type": "Feature",
      "properties": {
        "@id": "node/1729776829",
        "brand": "Giant Eagle",
        "brand:wikidata": "Q1522721",
        "brand:wikipedia": "en:Giant Eagle",
        "name": "Giant Eagle",
        "shop": "supermarket",
        "source": "local_knowledge"
      },
      "geometry": {
        "type": "Point",
        "coordinates": [
          -81.4625181,
          40.5073473
        ]
      },
      "id": "node/1729776829"
    },
    {
      "type": "Feature",
      "properties": {
        "@id": "node/1729913506",
        "addr:housenumber": "490",
        "addr:postcode": "43209",
        "addr:street": "North Cassady Avenue",
        "name": "Dairy Mart",
        "shop": "convenience"
      },
      "geometry": {
        "type": "Point",
        "coordinates": [
          -82.9317021,
          39.9805005
        ]
      },
      "id": "node/1729913506"
    },
    {
      "type": "Feature",
      "properties": {
        "@id": "node/1730088560",
        "addr:city": "Pataskala",
        "addr:housename": "Kroger Marketplace",
        "addr:housenumber": "350",
        "addr:postcode": "43062",
        "addr:street": "East Broad Street",
        "brand": "Kroger",
        "brand:wikidata": "Q153417",
        "brand:wikipedia": "en:Kroger",
        "designation": "Supermarket",
        "name": "Kroger",
        "shop": "supermarket",
        "website": "Kroger.com"
      },
      "geometry": {
        "type": "Point",
        "coordinates": [
          -82.6637902,
          40.0064561
        ]
      },
      "id": "node/1730088560"
    },
    {
      "type": "Feature",
      "properties": {
        "@id": "node/1748257602",
        "name": "IGA",
        "shop": "supermarket"
      },
      "geometry": {
        "type": "Point",
        "coordinates": [
          -80.7620745,
          41.0253507
        ]
      },
      "id": "node/1748257602"
    },
    {
      "type": "Feature",
      "properties": {
        "@id": "node/1757172253",
        "brand": "ALDI",
        "brand:wikidata": "Q41171672",
        "name": "ALDI",
        "shop": "supermarket"
      },
      "geometry": {
        "type": "Point",
        "coordinates": [
          -81.6083491,
          41.4697388
        ]
      },
      "id": "node/1757172253"
    },
    {
      "type": "Feature",
      "properties": {
        "@id": "node/1757570971",
        "name": "Sunday's Market",
        "shop": "convenience"
      },
      "geometry": {
        "type": "Point",
        "coordinates": [
          -84.2295329,
          41.5321737
        ]
      },
      "id": "node/1757570971"
    },
    {
      "type": "Feature",
      "properties": {
        "@id": "node/1785895736",
        "name": "Kohl's Market",
        "shop": "supermarket"
      },
      "geometry": {
        "type": "Point",
        "coordinates": [
          -84.0581929,
          40.9196525
        ]
      },
      "id": "node/1785895736"
    },
    {
      "type": "Feature",
      "properties": {
        "@id": "node/1803049095",
        "addr:city": "Cleveland",
        "addr:housenumber": "2202",
        "addr:postcode": "44109",
        "addr:state": "OH",
        "addr:street": "Broadview Road",
        "amenity": "fuel",
        "brand": "Speedway",
        "brand:wikidata": "Q7575683",
        "fuel:diesel": "yes",
        "name": "Speedway",
        "opening_hours": "24/7",
        "ref": "3341",
        "self_service": "yes",
        "shop": "convenience"
      },
      "geometry": {
        "type": "Point",
        "coordinates": [
          -81.6997628,
          41.4385975
        ]
      },
      "id": "node/1803049095"
    },
    {
      "type": "Feature",
      "properties": {
        "@id": "node/1804092247",
        "addr:housenumber": "23455",
        "addr:postcode": "43113",
        "addr:street": "US 23 S",
        "brand": "Aldi",
        "brand:wikidata": "Q125054",
        "brand:wikipedia": "en:Aldi",
        "name": "Aldi",
        "shop": "supermarket",
        "website": "https://www.aldi.us/"
      },
      "geometry": {
        "type": "Point",
        "coordinates": [
          -82.9559538,
          39.5888257
        ]
      },
      "id": "node/1804092247"
    },
    {
      "type": "Feature",
      "properties": {
        "@id": "node/1823679825",
        "shop": "convenience"
      },
      "geometry": {
        "type": "Point",
        "coordinates": [
          -82.7254213,
          41.0529752
        ]
      },
      "id": "node/1823679825"
    },
    {
      "type": "Feature",
      "properties": {
        "@id": "node/1877967951",
        "amenity": "convenience_store",
        "name": "Bellstores",
        "operator": "Bellstores",
        "shop": "convenience"
      },
      "geometry": {
        "type": "Point",
        "coordinates": [
          -83.1492415,
          39.9725368
        ]
      },
      "id": "node/1877967951"
    },
    {
      "type": "Feature",
      "properties": {
        "@id": "node/1877967964",
        "amenity": "convenience_store",
        "name": "Duchess",
        "operator": "Duchess",
        "shop": "convenience"
      },
      "geometry": {
        "type": "Point",
        "coordinates": [
          -83.1507382,
          39.9726108
        ]
      },
      "id": "node/1877967964"
    },
    {
      "type": "Feature",
      "properties": {
        "@id": "node/1892470370",
        "name": "Cleveland Deli and Beverage",
        "shop": "convenience"
      },
      "geometry": {
        "type": "Point",
        "coordinates": [
          -81.8009263,
          41.4334755
        ]
      },
      "id": "node/1892470370"
    },
    {
      "type": "Feature",
      "properties": {
        "@id": "node/1892470622",
        "brand": "Marc's",
        "brand:wikidata": "Q17080259",
        "name": "Marc's",
        "shop": "supermarket"
      },
      "geometry": {
        "type": "Point",
        "coordinates": [
          -81.8018921,
          41.4347211
        ]
      },
      "id": "node/1892470622"
    },
    {
      "type": "Feature",
      "properties": {
        "@id": "node/1912975646",
        "name": "Murray Hill Market",
        "shop": "convenience"
      },
      "geometry": {
        "type": "Point",
        "coordinates": [
          -81.5983448,
          41.5066961
        ]
      },
      "id": "node/1912975646"
    },
    {
      "type": "Feature",
      "properties": {
        "@id": "node/1923897671",
        "Catering": "Yes",
        "addr:city": "Columbus",
        "addr:housenumber": "3600",
        "addr:postcode": "43214",
        "addr:state": "OH",
        "addr:street": "Indianola Avenue",
        "name": "Weiland's Gourmet Market",
        "shop": "supermarket",
        "website": "weilandsgourmetmarket.com/",
        "wheelchair": "limited"
      },
      "geometry": {
        "type": "Point",
        "coordinates": [
          -82.9997034,
          40.0371907
        ]
      },
      "id": "node/1923897671"
    },
    {
      "type": "Feature",
      "properties": {
        "@id": "node/1949342996",
        "addr:housenumber": "657",
        "addr:street": "E. Manhattan Boulevard",
        "brand": "Save-A-Lot",
        "brand:wikidata": "Q7427972",
        "brand:wikipedia": "en:Save-A-Lot",
        "name": "Save-A-Lot",
        "shop": "supermarket",
        "website": "save-a-lot.com"
      },
      "geometry": {
        "type": "Point",
        "coordinates": [
          -83.5306219,
          41.6883356
        ]
      },
      "id": "node/1949342996"
    },
    {
      "type": "Feature",
      "properties": {
        "@id": "node/1960546202",
        "amenity": "marketplace",
        "name": "A&A Grocery"
      },
      "geometry": {
        "type": "Point",
        "coordinates": [
          -83.2817569,
          40.8290652
        ]
      },
      "id": "node/1960546202"
    },
    {
      "type": "Feature",
      "properties": {
        "@id": "node/1962139444",
        "amenity": "marketplace"
      },
      "geometry": {
        "type": "Point",
        "coordinates": [
          -83.2682629,
          40.8273755
        ]
      },
      "id": "node/1962139444"
    },
    {
      "type": "Feature",
      "properties": {
        "@id": "node/1980646662",
        "brand": "7-Eleven",
        "brand:wikidata": "Q259340",
        "brand:wikipedia": "en:7-Eleven",
        "name": "7-Eleven",
        "shop": "convenience",
        "source": "Bing"
      },
      "geometry": {
        "type": "Point",
        "coordinates": [
          -82.6993654,
          41.247973
        ]
      },
      "id": "node/1980646662"
    },
    {
      "type": "Feature",
      "properties": {
        "@id": "node/1986116918",
        "addr:housename": "Save a Lot",
        "addr:housenumber": "5841",
        "addr:postcode": "44127",
        "addr:street": "Broadway Ave",
        "brand": "Save-A-Lot",
        "brand:wikidata": "Q7427972",
        "brand:wikipedia": "en:Save-A-Lot",
        "designation": "Supermarket",
        "name": "Save-A-Lot",
        "shop": "supermarket",
        "source": "Self",
        "website": "https://savealot.com/"
      },
      "geometry": {
        "type": "Point",
        "coordinates": [
          -81.6491083,
          41.4660646
        ]
      },
      "id": "node/1986116918"
    },
    {
      "type": "Feature",
      "properties": {
        "@id": "node/2001929251",
        "addr:city": "Cleveland",
        "addr:housenumber": "3038",
        "addr:state": "OH",
        "addr:street": "West 117th Street",
        "brand": "Giant Eagle",
        "brand:wikidata": "Q1522721",
        "brand:wikipedia": "en:Giant Eagle",
        "name": "Giant Eagle",
        "shop": "supermarket"
      },
      "geometry": {
        "type": "Point",
        "coordinates": [
          -81.7713985,
          41.468969
        ]
      },
      "id": "node/2001929251"
    },
    {
      "type": "Feature",
      "properties": {
        "@id": "node/2020078470",
        "brand": "Giant Eagle",
        "brand:wikidata": "Q1522721",
        "brand:wikipedia": "en:Giant Eagle",
        "name": "Giant Eagle",
        "shop": "supermarket"
      },
      "geometry": {
        "type": "Point",
        "coordinates": [
          -81.5875193,
          41.0092538
        ]
      },
      "id": "node/2020078470"
    },
    {
      "type": "Feature",
      "properties": {
        "@id": "node/2030594169",
        "brand": "Shell",
        "brand:wikidata": "Q110716465",
        "brand:wikipedia": "en:Royal Dutch Shell",
        "name": "Shell",
        "opening_hours": "PH,Mo-Su 00:00-18:00+",
        "shop": "convenience"
      },
      "geometry": {
        "type": "Point",
        "coordinates": [
          -81.3508505,
          41.3177139
        ]
      },
      "id": "node/2030594169"
    },
    {
      "type": "Feature",
      "properties": {
        "@id": "node/2034779133",
        "name": "Village Market",
        "shop": "supermarket"
      },
      "geometry": {
        "type": "Point",
        "coordinates": [
          -82.2155072,
          41.1822918
        ]
      },
      "id": "node/2034779133"
    },
    {
      "type": "Feature",
      "properties": {
        "@id": "node/2058303472",
        "shop": "convenience"
      },
      "geometry": {
        "type": "Point",
        "coordinates": [
          -82.9424268,
          39.9931501
        ]
      },
      "id": "node/2058303472"
    },
    {
      "type": "Feature",
      "properties": {
        "@id": "node/2076922304",
        "brand": "Kroger",
        "brand:wikidata": "Q153417",
        "brand:wikipedia": "en:Kroger",
        "name": "Kroger",
        "shop": "supermarket"
      },
      "geometry": {
        "type": "Point",
        "coordinates": [
          -82.9769789,
          39.1331644
        ]
      },
      "id": "node/2076922304"
    },
    {
      "type": "Feature",
      "properties": {
        "@id": "node/2091968346",
        "alt_name": "UDF",
        "amenity": "ice_cream",
        "brand": "United Dairy Farmers",
        "brand:wikidata": "Q7887677",
        "brand:wikipedia": "en:United Dairy Farmers",
        "cuisine": "ice_cream",
        "name": "United Dairy Farmers",
        "not:shop": "convenience",
        "opening_hours": "\"on special event\"",
        "shop": "convenience",
        "short_name": "UDF",
        "takeaway": "only"
      },
      "geometry": {
        "type": "Point",
        "coordinates": [
          -84.5075097,
          39.0978219
        ]
      },
      "id": "node/2091968346"
    },
    {
      "type": "Feature",
      "properties": {
        "@id": "node/2107714872",
        "brand": "Circle K",
        "brand:wikidata": "Q3268010",
        "brand:wikipedia": "en:Circle K",
        "designation": "Convenience Store",
        "name": "Circle K",
        "shop": "convenience"
      },
      "geometry": {
        "type": "Point",
        "coordinates": [
          -84.1731359,
          40.4683345
        ]
      },
      "id": "node/2107714872"
    },
    {
      "type": "Feature",
      "properties": {
        "@id": "node/2122070014",
        "name": "Rite Shop",
        "shop": "convenience"
      },
      "geometry": {
        "type": "Point",
        "coordinates": [
          -81.7001618,
          41.4709399
        ]
      },
      "id": "node/2122070014"
    },
    {
      "type": "Feature",
      "properties": {
        "@id": "node/2209204813",
        "addr:city": "Cleveland",
        "addr:housenumber": "13130",
        "addr:street": "Shaker Square",
        "name": "Dave's Supermarket",
        "operator": "Dave's",
        "shop": "supermarket"
      },
      "geometry": {
        "type": "Point",
        "coordinates": [
          -81.5911706,
          41.4830725
        ]
      },
      "id": "node/2209204813"
    },
    {
      "type": "Feature",
      "properties": {
        "@id": "node/2217336610",
        "addr:city": "Lakewood",
        "addr:housenumber": "14861",
        "addr:postcode": "44107",
        "addr:state": "OH",
        "addr:street": "Detroit Avenue",
        "brand": "Marc's",
        "brand:wikidata": "Q17080259",
        "brand:wikipedia": "en:Marc's",
        "name": "Marc's",
        "shop": "supermarket"
      },
      "geometry": {
        "type": "Point",
        "coordinates": [
          -81.8010806,
          41.4839974
        ]
      },
      "id": "node/2217336610"
    },
    {
      "type": "Feature",
      "properties": {
        "@id": "node/2217360849",
        "name": "Moon's Food Store",
        "shop": "convenience"
      },
      "geometry": {
        "type": "Point",
        "coordinates": [
          -81.7898282,
          41.4858743
        ]
      },
      "id": "node/2217360849"
    },
    {
      "type": "Feature",
      "properties": {
        "@id": "node/2233268143",
        "brand": "Save-A-Lot",
        "brand:wikidata": "Q7427972",
        "name": "Save-A-Lot",
        "shop": "supermarket"
      },
      "geometry": {
        "type": "Point",
        "coordinates": [
          -81.6447763,
          41.4483698
        ]
      },
      "id": "node/2233268143"
    },
    {
      "type": "Feature",
      "properties": {
        "@id": "node/2233289011",
        "name": "Convienent Food Mart",
        "shop": "convenience"
      },
      "geometry": {
        "type": "Point",
        "coordinates": [
          -81.6393555,
          41.4550724
        ]
      },
      "id": "node/2233289011"
    },
    {
      "type": "Feature",
      "properties": {
        "@id": "node/2256263585",
        "addr:city": "Columbus",
        "addr:housenumber": "1177",
        "addr:street": "Polaris Parkway",
        "brand": "Kroger",
        "brand:wikidata": "Q153417",
        "brand:wikipedia": "en:Kroger",
        "name": "Kroger",
        "shop": "supermarket"
      },
      "geometry": {
        "type": "Point",
        "coordinates": [
          -82.9900362,
          40.1401683
        ]
      },
      "id": "node/2256263585"
    },
    {
      "type": "Feature",
      "properties": {
        "@id": "node/2274130844",
        "addr:city": "Cleveland Heights",
        "addr:housenumber": "3628",
        "addr:postcode": "44118",
        "addr:state": "OH",
        "addr:street": "Mayfield Road",
        "name": "Dave's Market",
        "shop": "supermarket"
      },
      "geometry": {
        "type": "Point",
        "coordinates": [
          -81.5529645,
          41.5175272
        ]
      },
      "id": "node/2274130844"
    },
    {
      "type": "Feature",
      "properties": {
        "@id": "node/2274184675",
        "addr:city": "Columbus",
        "addr:housenumber": "889",
        "addr:street": "Bethel Road",
        "name": "CAM International Market",
        "shop": "supermarket"
      },
      "geometry": {
        "type": "Point",
        "coordinates": [
          -83.0427705,
          40.0625612
        ]
      },
      "id": "node/2274184675"
    },
    {
      "type": "Feature",
      "properties": {
        "@id": "node/2276233693",
        "brand": "Convenient Food Mart",
        "brand:wikidata": "Q5166143",
        "brand:wikipedia": "en:Convenient Food Mart",
        "name": "Convenient Food Mart",
        "shop": "convenience"
      },
      "geometry": {
        "type": "Point",
        "coordinates": [
          -81.7009992,
          41.4528961
        ]
      },
      "id": "node/2276233693"
    },
    {
      "type": "Feature",
      "properties": {
        "@id": "node/2276233696",
        "brand": "Save-A-Lot",
        "brand:wikidata": "Q7427972",
        "brand:wikipedia": "en:Save-A-Lot",
        "name": "Save-A-Lot",
        "shop": "supermarket"
      },
      "geometry": {
        "type": "Point",
        "coordinates": [
          -81.7022304,
          41.4706705
        ]
      },
      "id": "node/2276233696"
    },
    {
      "type": "Feature",
      "properties": {
        "@id": "node/2276233705",
        "name": "Hanini Express",
        "shop": "convenience"
      },
      "geometry": {
        "type": "Point",
        "coordinates": [
          -81.6996053,
          41.4670432
        ]
      },
      "id": "node/2276233705"
    },
    {
      "type": "Feature",
      "properties": {
        "@id": "node/2276233712",
        "addr:city": "Cleveland",
        "addr:housenumber": "2700",
        "addr:street": "West 25th Street",
        "name": "Sun Valley Convenience",
        "shop": "convenience"
      },
      "geometry": {
        "type": "Point",
        "coordinates": [
          -81.699616,
          41.475161
        ]
      },
      "id": "node/2276233712"
    },
    {
      "type": "Feature",
      "properties": {
        "@id": "node/2280284188",
        "name": "7-Eleven",
        "shop": "convenience"
      },
      "geometry": {
        "type": "Point",
        "coordinates": [
          -83.5664142,
          41.7001754
        ]
      },
      "id": "node/2280284188"
    },
    {
      "type": "Feature",
      "properties": {
        "@id": "node/2289370175",
        "addr:city": "Cleveland",
        "addr:housenumber": "7250",
        "addr:postcode": "44129",
        "addr:state": "OH",
        "addr:street": "Brookpark Road",
        "brand": "Speedway",
        "brand:wikidata": "Q7575683",
        "brand:wikipedia": "en:Speedway (store)",
        "name": "Speedway",
        "phone": "+1 216 398 4445",
        "ref": "9172",
        "shop": "convenience"
      },
      "geometry": {
        "type": "Point",
        "coordinates": [
          -81.733774,
          41.4192224
        ]
      },
      "id": "node/2289370175"
    },
    {
      "type": "Feature",
      "properties": {
        "@id": "node/2300339248",
        "brand": "IGA",
        "brand:wikidata": "Q3146662",
        "brand:wikipedia": "en:IGA (supermarkets)",
        "name": "IGA Express",
        "shop": "convenience"
      },
      "geometry": {
        "type": "Point",
        "coordinates": [
          -84.2800146,
          39.4921589
        ]
      },
      "id": "node/2300339248"
    },
    {
      "type": "Feature",
      "properties": {
        "@id": "node/2307927723",
        "shop": "convenience"
      },
      "geometry": {
        "type": "Point",
        "coordinates": [
          -83.3795328,
          39.9536501
        ]
      },
      "id": "node/2307927723"
    },
    {
      "type": "Feature",
      "properties": {
        "@id": "node/2307959073",
        "name": "Pilot",
        "shop": "convenience"
      },
      "geometry": {
        "type": "Point",
        "coordinates": [
          -83.3697887,
          39.9591756
        ]
      },
      "id": "node/2307959073"
    },
    {
      "type": "Feature",
      "properties": {
        "@id": "node/2313823782",
        "shop": "convenience"
      },
      "geometry": {
        "type": "Point",
        "coordinates": [
          -84.5400254,
          39.1623772
        ]
      },
      "id": "node/2313823782"
    },
    {
      "type": "Feature",
      "properties": {
        "@id": "node/2320540467",
        "addr:city": "Columbus",
        "addr:housenumber": "3670",
        "addr:postcode": "43235",
        "addr:street": "West Dublin - Granville Road",
        "brand": "Whole Foods Market",
        "brand:wikidata": "Q1809448",
        "brand:wikipedia": "en:Whole Foods Market",
        "name": "Whole Foods Market",
        "shop": "supermarket"
      },
      "geometry": {
        "type": "Point",
        "coordinates": [
          -83.0867522,
          40.0983016
        ]
      },
      "id": "node/2320540467"
    },
    {
      "type": "Feature",
      "properties": {
        "@id": "node/2334730383",
        "addr:housenumber": "1202",
        "addr:street": "Main Street",
        "name": "Park & Vine",
        "shop": "convenience",
        "website": "http://www.parkandvine.com/"
      },
      "geometry": {
        "type": "Point",
        "coordinates": [
          -84.5115395,
          39.1093742
        ]
      },
      "id": "node/2334730383"
    },
    {
      "type": "Feature",
      "properties": {
        "@id": "node/2339078708",
        "shop": "convenience"
      },
      "geometry": {
        "type": "Point",
        "coordinates": [
          -83.6037222,
          39.6166207
        ]
      },
      "id": "node/2339078708"
    },
    {
      "type": "Feature",
      "properties": {
        "@id": "node/2355724991",
        "shop": "convenience"
      },
      "geometry": {
        "type": "Point",
        "coordinates": [
          -84.3878289,
          39.622258
        ]
      },
      "id": "node/2355724991"
    },
    {
      "type": "Feature",
      "properties": {
        "@id": "node/2367702865",
        "brand": "The Fresh Market",
        "brand:wikidata": "Q7735265",
        "brand:wikipedia": "en:The Fresh Market",
        "name": "The Fresh Market",
        "shop": "supermarket"
      },
      "geometry": {
        "type": "Point",
        "coordinates": [
          -83.6237372,
          41.6756548
        ]
      },
      "id": "node/2367702865"
    },
    {
      "type": "Feature",
      "properties": {
        "@id": "node/2372851429",
        "name": "Kroger Food & Drug",
        "shop": "supermarket"
      },
      "geometry": {
        "type": "Point",
        "coordinates": [
          -84.4712447,
          39.2600753
        ]
      },
      "id": "node/2372851429"
    },
    {
      "type": "Feature",
      "properties": {
        "@id": "node/2374055892",
        "addr:city": "Cleveland",
        "addr:state": "OH",
        "name": "Linda's Superette",
        "shop": "convenience"
      },
      "geometry": {
        "type": "Point",
        "coordinates": [
          -81.7092684,
          41.4907173
        ]
      },
      "id": "node/2374055892"
    },
    {
      "type": "Feature",
      "properties": {
        "@id": "node/2374055904",
        "name": "Simon's",
        "shop": "supermarket"
      },
      "geometry": {
        "type": "Point",
        "coordinates": [
          -81.6327789,
          41.5051866
        ]
      },
      "id": "node/2374055904"
    },
    {
      "type": "Feature",
      "properties": {
        "@id": "node/2374920847",
        "amenity": "restaurant",
        "cuisine": "pizza",
        "name": "True North",
        "operator": "Yum! Brands",
        "shop": "convenience"
      },
      "geometry": {
        "type": "Point",
        "coordinates": [
          -81.7998563,
          41.137009
        ]
      },
      "id": "node/2374920847"
    },
    {
      "type": "Feature",
      "properties": {
        "@id": "node/2388724982",
        "brand": "Giant Eagle",
        "brand:wikidata": "Q1522721",
        "brand:wikipedia": "en:Giant Eagle",
        "name": "Giant Eagle",
        "shop": "supermarket"
      },
      "geometry": {
        "type": "Point",
        "coordinates": [
          -81.4419927,
          41.3094451
        ]
      },
      "id": "node/2388724982"
    },
    {
      "type": "Feature",
      "properties": {
        "@id": "node/2390924234",
        "amenity": "fuel",
        "brand": "Shell",
        "shop": "convenience"
      },
      "geometry": {
        "type": "Point",
        "coordinates": [
          -81.6511141,
          41.4870576
        ]
      },
      "id": "node/2390924234"
    },
    {
      "type": "Feature",
      "properties": {
        "@id": "node/2391064885",
        "internet_access": "wlan",
        "internet_access:fee": "no",
        "name": "Flying J",
        "shop": "convenience"
      },
      "geometry": {
        "type": "Point",
        "coordinates": [
          -83.5383409,
          39.6463303
        ]
      },
      "id": "node/2391064885"
    },
    {
      "type": "Feature",
      "properties": {
        "@id": "node/2393501576",
        "addr:city": "Fairlawn",
        "addr:housenumber": "3750",
        "addr:postcode": "44333",
        "addr:state": "OH",
        "addr:street": "West Market Street",
        "brand": "Giant Eagle",
        "brand:wikidata": "Q1522721",
        "brand:wikipedia": "en:Giant Eagle",
        "name": "Giant Eagle",
        "ref": "5861",
        "shop": "supermarket"
      },
      "geometry": {
        "type": "Point",
        "coordinates": [
          -81.6358906,
          41.1330191
        ]
      },
      "id": "node/2393501576"
    },
    {
      "type": "Feature",
      "properties": {
        "@id": "node/2412648735",
        "addr:housenumber": "600",
        "addr:street": "600 Crestview Drive",
        "amenity": "marketplace"
      },
      "geometry": {
        "type": "Point",
        "coordinates": [
          -81.7838584,
          41.2742142
        ]
      },
      "id": "node/2412648735"
    },
    {
      "type": "Feature",
      "properties": {
        "@id": "node/2423702277",
        "addr:housenumber": "118",
        "addr:postcode": "45305",
        "addr:street": "West Franklin Street",
        "name": "Dot’s Market",
        "shop": "supermarket",
        "website": "https://www.dotsmarket.com/index.htm"
      },
      "geometry": {
        "type": "Point",
        "coordinates": [
          -84.0749929,
          39.6369409
        ]
      },
      "id": "node/2423702277"
    },
    {
      "type": "Feature",
      "properties": {
        "@id": "node/2424111812",
        "addr:housenumber": "9323",
        "addr:postcode": "43062",
        "addr:street": "Columbia Road Southwest",
        "name": "Etna Carryout",
        "shop": "convenience"
      },
      "geometry": {
        "type": "Point",
        "coordinates": [
          -82.6943165,
          39.9582726
        ]
      },
      "id": "node/2424111812"
    },
    {
      "type": "Feature",
      "properties": {
        "@id": "node/2435488147",
        "name": "Hometown Grocery",
        "shop": "convenience"
      },
      "geometry": {
        "type": "Point",
        "coordinates": [
          -81.6505617,
          41.4881836
        ]
      },
      "id": "node/2435488147"
    },
    {
      "type": "Feature",
      "properties": {
        "@id": "node/2460485985",
        "name": "Rock Cliff Market",
        "shop": "convenience"
      },
      "geometry": {
        "type": "Point",
        "coordinates": [
          -81.6523297,
          41.5064635
        ]
      },
      "id": "node/2460485985"
    },
    {
      "type": "Feature",
      "properties": {
        "@id": "node/2460844488",
        "addr:city": "Circleville",
        "addr:country": "US",
        "addr:housenumber": "1470",
        "addr:postcode": "43113",
        "addr:state": "OH",
        "addr:street": "S Court St",
        "brand": "Walmart",
        "brand:wikidata": "Q483551",
        "brand:wikipedia": "en:Walmart",
        "name": "Walmart Supercenter",
        "opening_hours": "24/7",
        "operator": "Walmart",
        "phone": "+1-740-477-3678",
        "ref:walmart": "1427",
        "shop": "supermarket",
        "website": "https://www.walmart.com/store/1427/circleville-oh/whats-new"
      },
      "geometry": {
        "type": "Point",
        "coordinates": [
          -82.9482116,
          39.5821683
        ]
      },
      "id": "node/2460844488"
    },
    {
      "type": "Feature",
      "properties": {
        "@id": "node/2461801688",
        "addr:city": "Ashville",
        "addr:housenumber": "300",
        "addr:postcode": "43103",
        "addr:street": "Long Street",
        "brand": "IGA",
        "brand:wikidata": "Q3146662",
        "brand:wikipedia": "en:IGA (supermarkets)",
        "name": "IGA",
        "note": "Small town grocery store.  Beer Sales.",
        "shop": "supermarket"
      },
      "geometry": {
        "type": "Point",
        "coordinates": [
          -82.952861,
          39.7192326
        ]
      },
      "id": "node/2461801688"
    },
    {
      "type": "Feature",
      "properties": {
        "@id": "node/2461944705",
        "name": "Simon's",
        "shop": "supermarket"
      },
      "geometry": {
        "type": "Point",
        "coordinates": [
          -81.6044853,
          41.4822298
        ]
      },
      "id": "node/2461944705"
    },
    {
      "type": "Feature",
      "properties": {
        "@id": "node/2468030873",
        "name": "Acme Fresh Market",
        "shop": "supermarket"
      },
      "geometry": {
        "type": "Point",
        "coordinates": [
          -81.4476929,
          41.2384718
        ]
      },
      "id": "node/2468030873"
    },
    {
      "type": "Feature",
      "properties": {
        "@id": "node/2508663802",
        "amenity": "ice_cream",
        "brand": "United Dairy Farmers",
        "brand:wikidata": "Q7887677",
        "brand:wikipedia": "en:United Dairy Farmers",
        "name": "United Dairy Farmers",
        "shop": "convenience",
        "short_name": "UDF"
      },
      "geometry": {
        "type": "Point",
        "coordinates": [
          -83.0878808,
          40.1579741
        ]
      },
      "id": "node/2508663802"
    },
    {
      "type": "Feature",
      "properties": {
        "@id": "node/2508671307",
        "name": "GNC Wellness",
        "shop": "convenience"
      },
      "geometry": {
        "type": "Point",
        "coordinates": [
          -83.0925302,
          40.1608086
        ]
      },
      "id": "node/2508671307"
    },
    {
      "type": "Feature",
      "properties": {
        "@id": "node/2508688313",
        "name": "Supzilla",
        "shop": "convenience"
      },
      "geometry": {
        "type": "Point",
        "coordinates": [
          -83.0922955,
          40.1473924
        ]
      },
      "id": "node/2508688313"
    },
    {
      "type": "Feature",
      "properties": {
        "@id": "node/2514801736",
        "shop": "convenience"
      },
      "geometry": {
        "type": "Point",
        "coordinates": [
          -84.5406828,
          39.8393547
        ]
      },
      "id": "node/2514801736"
    },
    {
      "type": "Feature",
      "properties": {
        "@id": "node/2537299968",
        "amenity": "drinking_water",
        "fountain": "nasone",
        "indoor": "no",
        "wikimedia_commons": "File:Nasone via mecenate, Roma, Italia Jun 30, 2022 06-19-16 PM.jpeg"
      },
      "geometry": {
        "type": "Point",
        "coordinates": [
          12.4987211,
          41.8911676
        ]
      },
      "id": "node/2537299968"
    },
    {
      "type": "Feature",
      "properties": {
        "@id": "node/2575269887",
        "addr:city": "Streetsboro",
        "addr:housename": "Flea Market",
        "addr:housenumber": "1513",
        "addr:postcode": "44241",
        "addr:street": "Streetsboro Road",
        "amenity": "marketplace",
        "name": "Streetsboro Flea Market",
        "phone": "+1-330-422-1380 ‎"
      },
      "geometry": {
        "type": "Point",
        "coordinates": [
          -81.3390547,
          41.2408379
        ]
      },
      "id": "node/2575269887"
    },
    {
      "type": "Feature",
      "properties": {
        "@id": "node/2582557339",
        "addr:city": "South Euclid",
        "addr:housenumber": "13865",
        "addr:postcode": "44118",
        "addr:state": "OH",
        "addr:street": "Cedar Road",
        "brand": "Gordon Food Service",
        "brand:wikidata": "Q1538006",
        "brand:wikipedia": "en:Gordon Food Service",
        "name": "Gordon Food Service",
        "shop": "supermarket"
      },
      "geometry": {
        "type": "Point",
        "coordinates": [
          -81.540803,
          41.5022968
        ]
      },
      "id": "node/2582557339"
    },
    {
      "type": "Feature",
      "properties": {
        "@id": "node/2603353868",
        "shop": "supermarket"
      },
      "geometry": {
        "type": "Point",
        "coordinates": [
          -81.6633228,
          41.5123254
        ]
      },
      "id": "node/2603353868"
    },
    {
      "type": "Feature",
      "properties": {
        "@id": "node/2604623576",
        "alcohol": "beer;wine",
        "cheque_cashing": "yes",
        "lottery": "yes",
        "name": "Jack’s “Best for Less”",
        "shop": "convenience",
        "source": "survey"
      },
      "geometry": {
        "type": "Point",
        "coordinates": [
          -84.5166325,
          39.1163145
        ]
      },
      "id": "node/2604623576"
    },
    {
      "type": "Feature",
      "properties": {
        "@id": "node/2604649112",
        "shop": "convenience"
      },
      "geometry": {
        "type": "Point",
        "coordinates": [
          -84.5066984,
          39.1100281
        ]
      },
      "id": "node/2604649112"
    },
    {
      "type": "Feature",
      "properties": {
        "@id": "node/2610955416",
        "addr:city": "Mayfield Heights",
        "addr:housenumber": "6695",
        "addr:postcode": "44124",
        "addr:state": "OH",
        "addr:street": "Eastgate Drive",
        "brand": "Marc's",
        "brand:wikidata": "Q17080259",
        "brand:wikipedia": "en:Marc's",
        "name": "Marc's",
        "shop": "supermarket"
      },
      "geometry": {
        "type": "Point",
        "coordinates": [
          -81.4378364,
          41.5250902
        ]
      },
      "id": "node/2610955416"
    },
    {
      "type": "Feature",
      "properties": {
        "@id": "node/2611715938",
        "brand": "Convenient Food Mart",
        "brand:wikidata": "Q5166143",
        "brand:wikipedia": "en:Convenient Food Mart",
        "name": "Convenient Food Mart",
        "shop": "convenience"
      },
      "geometry": {
        "type": "Point",
        "coordinates": [
          -81.8142311,
          41.4770713
        ]
      },
      "id": "node/2611715938"
    },
    {
      "type": "Feature",
      "properties": {
        "@id": "node/2613030988",
        "brand": "Kroger",
        "brand:wikidata": "Q153417",
        "brand:wikipedia": "en:Kroger",
        "name": "Kroger",
        "shop": "supermarket"
      },
      "geometry": {
        "type": "Point",
        "coordinates": [
          -84.5250195,
          39.2899869
        ]
      },
      "id": "node/2613030988"
    },
    {
      "type": "Feature",
      "properties": {
        "@id": "node/2623018514",
        "name": "Fey's",
        "shop": "convenience"
      },
      "geometry": {
        "type": "Point",
        "coordinates": [
          -83.010689,
          40.0113398
        ]
      },
      "id": "node/2623018514"
    },
    {
      "type": "Feature",
      "properties": {
        "@id": "node/2624880887",
        "name": "Dorothy Lane Market",
        "shop": "supermarket"
      },
      "geometry": {
        "type": "Point",
        "coordinates": [
          -84.2293239,
          39.5775924
        ]
      },
      "id": "node/2624880887"
    },
    {
      "type": "Feature",
      "properties": {
        "@id": "node/2626154742",
        "shop": "convenience"
      },
      "geometry": {
        "type": "Point",
        "coordinates": [
          -81.6507459,
          41.5233318
        ]
      },
      "id": "node/2626154742"
    },
    {
      "type": "Feature",
      "properties": {
        "@id": "node/2629289729",
        "name": "Firehouse Pizza & Convenience Store",
        "shop": "convenience"
      },
      "geometry": {
        "type": "Point",
        "coordinates": [
          -82.7855831,
          38.7694492
        ]
      },
      "id": "node/2629289729"
    },
    {
      "type": "Feature",
      "properties": {
        "@id": "node/2629294562",
        "shop": "convenience"
      },
      "geometry": {
        "type": "Point",
        "coordinates": [
          -82.7284627,
          38.8136862
        ]
      },
      "id": "node/2629294562"
    },
    {
      "type": "Feature",
      "properties": {
        "@id": "node/2632615744",
        "addr:city": "Holgate",
        "addr:housenumber": "135",
        "addr:postcode": "43527",
        "addr:street": "Railway Avenue",
        "name": "Holgate County Pride",
        "phone": "+1-419-264-2121",
        "shop": "supermarket"
      },
      "geometry": {
        "type": "Point",
        "coordinates": [
          -84.1318723,
          41.2496095
        ]
      },
      "id": "node/2632615744"
    },
    {
      "type": "Feature",
      "properties": {
        "@id": "node/2639145167",
        "name": "Professor Market",
        "shop": "convenience"
      },
      "geometry": {
        "type": "Point",
        "coordinates": [
          -81.6864673,
          41.4816467
        ]
      },
      "id": "node/2639145167"
    },
    {
      "type": "Feature",
      "properties": {
        "@id": "node/2639787582",
        "addr:city": "cleveland",
        "addr:housenumber": "6405",
        "addr:postcode": "44105",
        "addr:state": "OH",
        "addr:street": "Fleet Avenue",
        "name": "Slavic Village Market LLC",
        "phone": "+1-216-883-9549",
        "shop": "convenience"
      },
      "geometry": {
        "type": "Point",
        "coordinates": [
          -81.6452616,
          41.4562116
        ]
      },
      "id": "node/2639787582"
    },
    {
      "type": "Feature",
      "properties": {
        "@id": "node/2667523736",
        "name": "La Borincana Foods",
        "shop": "convenience"
      },
      "geometry": {
        "type": "Point",
        "coordinates": [
          -81.7098062,
          41.4796264
        ]
      },
      "id": "node/2667523736"
    },
    {
      "type": "Feature",
      "properties": {
        "@id": "node/2687482997",
        "shop": "convenience"
      },
      "geometry": {
        "type": "Point",
        "coordinates": [
          -81.6917785,
          41.4764853
        ]
      },
      "id": "node/2687482997"
    },
    {
      "type": "Feature",
      "properties": {
        "@id": "node/2692998772",
        "brand": "Save-A-Lot",
        "brand:wikidata": "Q7427972",
        "brand:wikipedia": "en:Save-A-Lot",
        "name": "Save-A-Lot",
        "shop": "supermarket"
      },
      "geometry": {
        "type": "Point",
        "coordinates": [
          -81.6034204,
          41.5242325
        ]
      },
      "id": "node/2692998772"
    },
    {
      "type": "Feature",
      "properties": {
        "@id": "node/2695310646",
        "name": "Cedar's Finest Drive-Thru",
        "shop": "convenience"
      },
      "geometry": {
        "type": "Point",
        "coordinates": [
          -81.6332104,
          41.4998726
        ]
      },
      "id": "node/2695310646"
    },
    {
      "type": "Feature",
      "properties": {
        "@id": "node/2709376774",
        "brand": "Marc's",
        "brand:wikidata": "Q17080259",
        "brand:wikipedia": "en:Marc's",
        "name": "Marc's",
        "shop": "supermarket",
        "wheelchair": "yes"
      },
      "geometry": {
        "type": "Point",
        "coordinates": [
          -81.513606,
          41.0275684
        ]
      },
      "id": "node/2709376774"
    },
    {
      "type": "Feature",
      "properties": {
        "@id": "node/2715025449",
        "brand:wikidata": "Q125054",
        "name": "Aldi",
        "shop": "supermarket"
      },
      "geometry": {
        "type": "Point",
        "coordinates": [
          -81.3335708,
          40.8368967
        ]
      },
      "id": "node/2715025449"
    },
    {
      "type": "Feature",
      "properties": {
        "@id": "node/2745777233",
        "cuisine": "asian",
        "name": "Saigon Market",
        "name:en": "Saigon Market",
        "name:vi": "Chợ Sài Gòn",
        "shop": "grocery",
        "website": "http://www.findlaymarket.org/merchants/saigon-market"
      },
      "geometry": {
        "type": "Point",
        "coordinates": [
          -84.5191165,
          39.1150667
        ]
      },
      "id": "node/2745777233"
    },
    {
      "type": "Feature",
      "properties": {
        "@id": "node/2748027620",
        "name": "Tina’s Carryout",
        "shop": "convenience",
        "source": "survey"
      },
      "geometry": {
        "type": "Point",
        "coordinates": [
          -84.5141007,
          39.1129545
        ]
      },
      "id": "node/2748027620"
    },
    {
      "type": "Feature",
      "properties": {
        "@id": "node/2753103110",
        "addr:city": "Gahanna",
        "addr:housenumber": "300",
        "addr:postcode": "43230",
        "addr:state": "OH",
        "addr:street": "South Hamiltion Road",
        "air_conditioning": "yes",
        "brand": "Kroger",
        "brand:wikidata": "Q153417",
        "brand:wikipedia": "en:Kroger",
        "internet_access": "wlan",
        "name": "Kroger",
        "opening_hours": "Mo-Su 06:00-01:00",
        "operator": "The Kroger Co",
        "payment:cash": "yes",
        "payment:credit_cards": "yes",
        "payment:debit_cards": "yes",
        "phone": "+1-614-416-6430",
        "shop": "supermarket",
        "website": "https://www.kroger.com/stores/details/016/00522"
      },
      "geometry": {
        "type": "Point",
        "coordinates": [
          -82.8648777,
          40.0121613
        ]
      },
      "id": "node/2753103110"
    },
    {
      "type": "Feature",
      "properties": {
        "@id": "node/2766965442",
        "brand": "Kroger",
        "brand:wikidata": "Q153417",
        "brand:wikipedia": "en:Kroger",
        "name": "Kroger",
        "shop": "supermarket"
      },
      "geometry": {
        "type": "Point",
        "coordinates": [
          -84.2712275,
          39.1030344
        ]
      },
      "id": "node/2766965442"
    },
    {
      "type": "Feature",
      "properties": {
        "@id": "node/2784737190",
        "shop": "convenience"
      },
      "geometry": {
        "type": "Point",
        "coordinates": [
          -84.0890884,
          40.6979142
        ]
      },
      "id": "node/2784737190"
    },
    {
      "type": "Feature",
      "properties": {
        "@id": "node/2794798796",
        "name": "Kent Natural Foods Co-Op",
        "shop": "health_food"
      },
      "geometry": {
        "type": "Point",
        "coordinates": [
          -81.3571175,
          41.1539308
        ]
      },
      "id": "node/2794798796"
    },
    {
      "type": "Feature",
      "properties": {
        "@id": "node/2867814554",
        "addr:city": "Akron",
        "addr:housenumber": "3235",
        "addr:postcode": "44319",
        "addr:street": "Manchester Road",
        "internet_access": "wlan",
        "name": "Acme Fresh Market #14",
        "operator": "Acme Fresh Market",
        "shop": "supermarket"
      },
      "geometry": {
        "type": "Point",
        "coordinates": [
          -81.5523387,
          41.0125148
        ]
      },
      "id": "node/2867814554"
    },
    {
      "type": "Feature",
      "properties": {
        "@id": "node/2867825545",
        "addr:city": "Strongsville",
        "addr:housenumber": "16224",
        "addr:postcode": "44136",
        "addr:street": "Pearl Road",
        "brand": "Marc's",
        "brand:wikidata": "Q17080259",
        "brand:wikipedia": "en:Marc's",
        "name": "Marc's",
        "phone": "+1-440-846-5550",
        "shop": "supermarket",
        "website": "https://www.marcs.com/",
        "wheelchair": "yes"
      },
      "geometry": {
        "type": "Point",
        "coordinates": [
          -81.8369725,
          41.298508
        ]
      },
      "id": "node/2867825545"
    },
    {
      "type": "Feature",
      "properties": {
        "@id": "node/2875382585",
        "shop": "convenience"
      },
      "geometry": {
        "type": "Point",
        "coordinates": [
          -84.5109767,
          39.1056981
        ]
      },
      "id": "node/2875382585"
    },
    {
      "type": "Feature",
      "properties": {
        "@id": "node/2884629473",
        "addr:city": "Strongsville",
        "addr:housenumber": "8789",
        "addr:postcode": "44136",
        "addr:street": "Pearl Road",
        "brand": "Gordon Food Service",
        "brand:wikidata": "Q1538006",
        "brand:wikipedia": "en:Gordon Food Service",
        "name": "Gordon Food Service",
        "shop": "supermarket"
      },
      "geometry": {
        "type": "Point",
        "coordinates": [
          -81.824273,
          41.3446032
        ]
      },
      "id": "node/2884629473"
    },
    {
      "type": "Feature",
      "properties": {
        "@id": "node/2884633560",
        "addr:city": "Strongsville",
        "addr:country": "US",
        "addr:housenumber": "8585",
        "addr:postcode": "44136",
        "addr:state": "OH",
        "addr:street": "Pearl Road",
        "brand": "Walmart",
        "brand:wikidata": "Q483551",
        "brand:wikipedia": "en:Walmart",
        "name": "Walmart Supercenter",
        "opening_hours": "24/7",
        "operator": "Walmart",
        "phone": "+1-440-826-0004",
        "ref:walmart": "2266",
        "shop": "supermarket",
        "website": "https://www.walmart.com/store/2266/strongsville-oh/whats-new",
        "wheelchair": "yes"
      },
      "geometry": {
        "type": "Point",
        "coordinates": [
          -81.819712,
          41.3461585
        ]
      },
      "id": "node/2884633560"
    },
    {
      "type": "Feature",
      "properties": {
        "@id": "node/2899163916",
        "shop": "convenience"
      },
      "geometry": {
        "type": "Point",
        "coordinates": [
          -84.5100487,
          39.1292869
        ]
      },
      "id": "node/2899163916"
    },
    {
      "type": "Feature",
      "properties": {
        "@id": "node/2911703189",
        "name": "Bright Rd Beverages",
        "shop": "convenience"
      },
      "geometry": {
        "type": "Point",
        "coordinates": [
          -83.6178155,
          41.06445
        ]
      },
      "id": "node/2911703189"
    },
    {
      "type": "Feature",
      "properties": {
        "@id": "node/2915335247",
        "addr:city": "Findlay",
        "addr:postcode": "45840",
        "indoor": "yes",
        "name": "Oiler Mart",
        "shop": "convenience"
      },
      "geometry": {
        "type": "Point",
        "coordinates": [
          -83.6523877,
          41.0530922
        ]
      },
      "id": "node/2915335247"
    },
    {
      "type": "Feature",
      "properties": {
        "@id": "node/2932380330",
        "name": "Short List Grocery and Carryout",
        "shop": "supermarket"
      },
      "geometry": {
        "type": "Point",
        "coordinates": [
          -82.6473383,
          38.6044355
        ]
      },
      "id": "node/2932380330"
    },
    {
      "type": "Feature",
      "properties": {
        "@id": "node/2932380340",
        "addr:city": "Ironton",
        "addr:housenumber": "1113",
        "addr:postcode": "45638",
        "addr:state": "OH",
        "addr:street": "Ironton Hills Drive",
        "name": "Ironton Food Fair",
        "opening_hours": "Mo-Su 07:00-21:00",
        "operator": "Forth Foods Inc.",
        "payment:american_express": "yes",
        "payment:cash": "yes",
        "payment:coins": "yes",
        "payment:credit_cards": "yes",
        "payment:debit_cards": "yes",
        "payment:discover_card": "yes",
        "payment:ebt": "yes",
        "payment:mastercard": "yes",
        "payment:visa": "yes",
        "payment:visa_debit": "yes",
        "phone": "+17405333035",
        "shop": "supermarket",
        "website": "https://www.foodfairmarkets.com/"
      },
      "geometry": {
        "type": "Point",
        "coordinates": [
          -82.674465,
          38.5433778
        ]
      },
      "id": "node/2932380340"
    },
    {
      "type": "Feature",
      "properties": {
        "@id": "node/2935001159",
        "brand:wikidata": "Q125054",
        "name": "ALDI",
        "shop": "supermarket"
      },
      "geometry": {
        "type": "Point",
        "coordinates": [
          -82.6134187,
          41.2587737
        ]
      },
      "id": "node/2935001159"
    },
    {
      "type": "Feature",
      "properties": {
        "@id": "node/2938328451",
        "name": "Lenny's Fruits and Vegetables",
        "shop": "convenience"
      },
      "geometry": {
        "type": "Point",
        "coordinates": [
          -84.6163211,
          39.1571764
        ]
      },
      "id": "node/2938328451"
    },
    {
      "type": "Feature",
      "properties": {
        "@id": "node/2939115001",
        "brand": "Save-A-Lot",
        "brand:wikidata": "Q7427972",
        "brand:wikipedia": "en:Save-A-Lot",
        "name": "Save-A-Lot",
        "shop": "supermarket"
      },
      "geometry": {
        "type": "Point",
        "coordinates": [
          -84.5812337,
          39.1394143
        ]
      },
      "id": "node/2939115001"
    },
    {
      "type": "Feature",
      "properties": {
        "@id": "node/2952483669",
        "name": "Galbraith Food Mart",
        "shop": "convenience"
      },
      "geometry": {
        "type": "Point",
        "coordinates": [
          -84.5936693,
          39.2206091
        ]
      },
      "id": "node/2952483669"
    },
    {
      "type": "Feature",
      "properties": {
        "@id": "node/2964517930",
        "name": "Cincy Deli and Sandwich Shop",
        "opening_hours:covid19": "same",
        "payment:cash": "yes",
        "payment:credit_cards": "yes",
        "payment:debit_cards": "yes",
        "shop": "convenience"
      },
      "geometry": {
        "type": "Point",
        "coordinates": [
          -84.5106748,
          39.1328536
        ]
      },
      "id": "node/2964517930"
    },
    {
      "type": "Feature",
      "properties": {
        "@id": "node/2964529110",
        "name": "N&I Market",
        "shop": "convenience"
      },
      "geometry": {
        "type": "Point",
        "coordinates": [
          -84.4884286,
          39.1319965
        ]
      },
      "id": "node/2964529110"
    },
    {
      "type": "Feature",
      "properties": {
        "@id": "node/2972063759",
        "name": "Zoar Market",
        "shop": "convenience"
      },
      "geometry": {
        "type": "Point",
        "coordinates": [
          -81.4245221,
          40.6183403
        ]
      },
      "id": "node/2972063759"
    },
    {
      "type": "Feature",
      "properties": {
        "@id": "node/2972063772",
        "addr:city": "Bolivar",
        "addr:housenumber": "11099",
        "addr:postcode": "44612",
        "addr:state": "OH",
        "addr:street": "Sr 212",
        "amenity": "fuel",
        "brand": "Speedway",
        "brand:wikidata": "Q7575683",
        "brand:wikipedia": "en:Speedway (store)",
        "fuel:diesel": "yes",
        "name": "Speedway",
        "ref": "6241",
        "shop": "convenience"
      },
      "geometry": {
        "type": "Point",
        "coordinates": [
          -81.4438345,
          40.6409612
        ]
      },
      "id": "node/2972063772"
    },
    {
      "type": "Feature",
      "properties": {
        "@id": "node/2985485035",
        "name": "La Mexicana",
        "shop": "convenience"
      },
      "geometry": {
        "type": "Point",
        "coordinates": [
          -81.2403196,
          41.724227
        ]
      },
      "id": "node/2985485035"
    },
    {
      "type": "Feature",
      "properties": {
        "@id": "node/2987200714",
        "addr:housenumber": "4755",
        "addr:street": "Mahoning Avenue",
        "brand": "Marc's",
        "brand:wikidata": "Q17080259",
        "brand:wikipedia": "en:Marc's",
        "name": "Marc's",
        "phone": "+1 330 792 4044",
        "shop": "supermarket"
      },
      "geometry": {
        "type": "Point",
        "coordinates": [
          -80.742666,
          41.0996184
        ]
      },
      "id": "node/2987200714"
    },
    {
      "type": "Feature",
      "properties": {
        "@id": "node/2987644160",
        "shop": "convenience"
      },
      "geometry": {
        "type": "Point",
        "coordinates": [
          -83.0143594,
          39.9393595
        ]
      },
      "id": "node/2987644160"
    },
    {
      "type": "Feature",
      "properties": {
        "@id": "node/3036162638",
        "brand": "ampm",
        "brand:wikidata": "Q306960",
        "brand:wikipedia": "en:Ampm",
        "name": "ampm",
        "shop": "convenience"
      },
      "geometry": {
        "type": "Point",
        "coordinates": [
          -81.5140189,
          41.2987028
        ]
      },
      "id": "node/3036162638"
    },
    {
      "type": "Feature",
      "properties": {
        "@id": "node/3076756486",
        "name": "Mom Gin’s",
        "shop": "convenience"
      },
      "geometry": {
        "type": "Point",
        "coordinates": [
          -84.507173,
          39.1106054
        ]
      },
      "id": "node/3076756486"
    },
    {
      "type": "Feature",
      "properties": {
        "@id": "node/3077186410",
        "name": "H&A Market Convience Store",
        "shop": "convenience"
      },
      "geometry": {
        "type": "Point",
        "coordinates": [
          -84.512215,
          39.1106297
        ]
      },
      "id": "node/3077186410"
    },
    {
      "type": "Feature",
      "properties": {
        "@id": "node/3092005174",
        "cuisine": "swedish",
        "name": "Swedish Food Market",
        "opening_hours": "Mo-Sa 08:30-20:30;Su 08:30-19:30",
        "shop": "grocery"
      },
      "geometry": {
        "type": "Point",
        "coordinates": [
          -84.4343779,
          39.3156306
        ]
      },
      "id": "node/3092005174"
    },
    {
      "type": "Feature",
      "properties": {
        "@id": "node/3100429580",
        "amenity": "ice_cream",
        "brand": "United Dairy Farmers",
        "brand:wikidata": "Q7887677",
        "brand:wikipedia": "en:United Dairy Farmers",
        "loc_name": "UDF",
        "name": "United Dairy Farmers",
        "shop": "convenience",
        "short_name": "UDF"
      },
      "geometry": {
        "type": "Point",
        "coordinates": [
          -84.422662,
          39.1416744
        ]
      },
      "id": "node/3100429580"
    },
    {
      "type": "Feature",
      "properties": {
        "@id": "node/3111609576",
        "amenity": "fuel",
        "brand": "Fuel Mart",
        "name": "Fuel Mart 641",
        "shop": "convenience"
      },
      "geometry": {
        "type": "Point",
        "coordinates": [
          -83.4642318,
          41.5224717
        ]
      },
      "id": "node/3111609576"
    },
    {
      "type": "Feature",
      "properties": {
        "@id": "node/3112209966",
        "brand": "Love's",
        "brand:wikidata": "Q1872496",
        "name": "Love's",
        "shop": "convenience"
      },
      "geometry": {
        "type": "Point",
        "coordinates": [
          -83.6129088,
          39.6208483
        ]
      },
      "id": "node/3112209966"
    },
    {
      "type": "Feature",
      "properties": {
        "@id": "node/3125351328",
        "addr:city": "Akron",
        "addr:housenumber": "4072",
        "addr:postcode": "44333",
        "addr:state": "OH",
        "addr:street": "Medina Road",
        "brand": "GetGo",
        "brand:wikidata": "Q5553766",
        "brand:wikipedia": "en:GetGo",
        "name": "GetGo",
        "ref": "3703",
        "shop": "convenience"
      },
      "geometry": {
        "type": "Point",
        "coordinates": [
          -81.6454782,
          41.1355103
        ]
      },
      "id": "node/3125351328"
    },
    {
      "type": "Feature",
      "properties": {
        "@id": "node/3129733092",
        "name": "Dave's",
        "shop": "supermarket"
      },
      "geometry": {
        "type": "Point",
        "coordinates": [
          -81.6589199,
          41.4921525
        ]
      },
      "id": "node/3129733092"
    },
    {
      "type": "Feature",
      "properties": {
        "@id": "node/3129733094",
        "name": "Square Deal",
        "shop": "convenience"
      },
      "geometry": {
        "type": "Point",
        "coordinates": [
          -81.6686859,
          41.4988882
        ]
      },
      "id": "node/3129733094"
    },
    {
      "type": "Feature",
      "properties": {
        "@id": "node/3131268992",
        "name": "K&A Market",
        "shop": "convenience"
      },
      "geometry": {
        "type": "Point",
        "coordinates": [
          -84.5160623,
          39.1126158
        ]
      },
      "id": "node/3131268992"
    },
    {
      "type": "Feature",
      "properties": {
        "@id": "node/3136414807",
        "addr:city": "Akron",
        "addr:housenumber": "3979",
        "addr:postcode": "44333",
        "addr:state": "OH",
        "addr:street": "Medina Road",
        "brand": "Acme Fresh Market",
        "brand:wikidata": "Q4674393",
        "name": "Acme Fresh Market",
        "phone": "+1-330-666-6781",
        "ref": "15",
        "shop": "supermarket",
        "website": "https://www.acmestores.com/locations"
      },
      "geometry": {
        "type": "Point",
        "coordinates": [
          -81.6423618,
          41.1376665
        ]
      },
      "id": "node/3136414807"
    },
    {
      "type": "Feature",
      "properties": {
        "@id": "node/3137774811",
        "addr:city": "Akron",
        "addr:housenumber": "3885",
        "addr:postcode": "44333",
        "addr:state": "OH",
        "addr:street": "Medina Road",
        "internet_access": "wlan",
        "name": "Mustard Seed Market",
        "shop": "supermarket"
      },
      "geometry": {
        "type": "Point",
        "coordinates": [
          -81.6389123,
          41.1381689
        ]
      },
      "id": "node/3137774811"
    },
    {
      "type": "Feature",
      "properties": {
        "@id": "node/3139499047",
        "brand": "Kroger",
        "brand:wikidata": "Q153417",
        "name": "Kroger",
        "shop": "supermarket"
      },
      "geometry": {
        "type": "Point",
        "coordinates": [
          -84.2748941,
          39.3111632
        ]
      },
      "id": "node/3139499047"
    },
    {
      "type": "Feature",
      "properties": {
        "@id": "node/3147805908",
        "name": "Earth Fare",
        "shop": "supermarket"
      },
      "geometry": {
        "type": "Point",
        "coordinates": [
          -81.6332625,
          41.1366512
        ]
      },
      "id": "node/3147805908"
    },
    {
      "type": "Feature",
      "properties": {
        "@id": "node/3160671416",
        "amenity": "marketplace",
        "name": "Montgomery Farmers’ Market",
        "opening_hours": "May-Oct: Sa 09:00-12:30",
        "source": "USDA",
        "website": "https://www.montgomeryfarmersmarket.org/"
      },
      "geometry": {
        "type": "Point",
        "coordinates": [
          -84.3533931,
          39.2306299
        ]
      },
      "id": "node/3160671416"
    },
    {
      "type": "Feature",
      "properties": {
        "@id": "node/3175584785",
        "addr:city": "North Randall",
        "addr:housenumber": "21900",
        "addr:postcode": "44128",
        "addr:state": "OH",
        "addr:street": "Emery Road",
        "brand": "Save-A-Lot",
        "brand:wikidata": "Q7427972",
        "brand:wikipedia": "en:Save-A-Lot",
        "name": "Save-A-Lot",
        "shop": "supermarket"
      },
      "geometry": {
        "type": "Point",
        "coordinates": [
          -81.5248492,
          41.4344047
        ]
      },
      "id": "node/3175584785"
    },
    {
      "type": "Feature",
      "properties": {
        "@id": "node/3177441778",
        "name": "Main Street Market",
        "shop": "convenience"
      },
      "geometry": {
        "type": "Point",
        "coordinates": [
          -81.5206778,
          41.0783505
        ]
      },
      "id": "node/3177441778"
    },
    {
      "type": "Feature",
      "properties": {
        "@id": "node/3206378053",
        "name": "Giant Eagle",
        "shop": "supermarket",
        "source": "survey"
      },
      "geometry": {
        "type": "Point",
        "coordinates": [
          -81.4352567,
          40.8748875
        ]
      },
      "id": "node/3206378053"
    },
    {
      "type": "Feature",
      "properties": {
        "@id": "node/3250858001",
        "addr:city": "North Olmsted",
        "addr:housenumber": "26516",
        "addr:postcode": "44070",
        "addr:state": "OH",
        "addr:street": "Lorain Road",
        "brand": "Speedway",
        "brand:wikidata": "Q7575683",
        "brand:wikipedia": "en:Speedway (store)",
        "name": "Speedway",
        "ref": "3309",
        "shop": "convenience"
      },
      "geometry": {
        "type": "Point",
        "coordinates": [
          -81.9157162,
          41.4193315
        ]
      },
      "id": "node/3250858001"
    },
    {
      "type": "Feature",
      "properties": {
        "@id": "node/3250858002",
        "addr:city": "North Olmsted",
        "addr:housenumber": "25295",
        "addr:postcode": "44070",
        "addr:state": "OH",
        "addr:street": "Lorain Road",
        "brand": "BP Shop",
        "brand:wikidata": "Q152057",
        "brand:wikipedia": "en:BP",
        "name": "BP Shop",
        "shop": "convenience"
      },
      "geometry": {
        "type": "Point",
        "coordinates": [
          -81.9020025,
          41.4231292
        ]
      },
      "id": "node/3250858002"
    },
    {
      "type": "Feature",
      "properties": {
        "@id": "node/3280660633",
        "addr:city": "North Olmsted",
        "addr:housenumber": "4692",
        "addr:postcode": "44070",
        "addr:state": "OH",
        "addr:street": "Great Northern Boulevard",
        "brand": "ALDI",
        "brand:wikidata": "Q41171672",
        "brand:wikipedia": "en:Aldi",
        "name": "ALDI",
        "shop": "supermarket"
      },
      "geometry": {
        "type": "Point",
        "coordinates": [
          -81.9029742,
          41.4207507
        ]
      },
      "id": "node/3280660633"
    },
    {
      "type": "Feature",
      "properties": {
        "@id": "node/3298677564",
        "brand": "Save-A-Lot",
        "brand:wikidata": "Q7427972",
        "name": "Save-A-Lot",
        "shop": "supermarket"
      },
      "geometry": {
        "type": "Point",
        "coordinates": [
          -81.6041796,
          41.0159062
        ]
      },
      "id": "node/3298677564"
    },
    {
      "type": "Feature",
      "properties": {
        "@id": "node/3309809350",
        "name": "True North",
        "shop": "convenience"
      },
      "geometry": {
        "type": "Point",
        "coordinates": [
          -81.4427246,
          41.2403021
        ]
      },
      "id": "node/3309809350"
    },
    {
      "type": "Feature",
      "properties": {
        "@id": "node/3309887653",
        "name": "Heather's Heat & Flavor",
        "shop": "supermarket"
      },