{
  "type": "FeatureCollection",
  "generator": "overpass-ide",
  "copyright": "The data included in this document is from www.openstreetmap.org. The data is made available under ODbL.",
  "timestamp": "2023-03-05T23:49:24Z",
  "features": [
    {
      "type": "Feature",
      "properties": {
        "@id": "node/191068447",
        "name": "Karsch's",
        "shop": "supermarket"
      },
      "geometry": {
        "type": "Point",
        "coordinates": [
          -90.4046584,
          38.3508031
        ]
      },
      "id": "node/191068447"
    },
    {
      "type": "Feature",
      "properties": {
        "@id": "node/193887065",
        "name": "Cob's Grocery and Gas",
        "shop": "convenience",
        "wheelchair": "no"
      },
      "geometry": {
        "type": "Point",
        "coordinates": [
          -90.8341096,
          38.157383
        ]
      },
      "id": "node/193887065"
    },
    {
      "type": "Feature",
      "properties": {
        "@id": "node/266310881",
        "amenity": "drinking_water"
      },
      "geometry": {
        "type": "Point",
        "coordinates": [
          12.4934985,
          41.8923773
        ]
      },
      "id": "node/266310881"
    },
    {
      "type": "Feature",
      "properties": {
        "@id": "node/388984003",
        "amenity": "drinking_water",
        "fountain": "nasone"
      },
      "geometry": {
        "type": "Point",
        "coordinates": [
          12.494519,
          41.8877413
        ]
      },
      "id": "node/388984003"
    },
    {
      "type": "Feature",
      "properties": {
        "@id": "node/448756450",
        "shop": "supermarket"
      },
      "geometry": {
        "type": "Point",
        "coordinates": [
          -90.583065,
          38.6059419
        ]
      },
      "id": "node/448756450"
    },
    {
      "type": "Feature",
      "properties": {
        "@id": "node/465137037",
        "brand": "ALDI",
        "brand:wikidata": "Q41171672",
        "brand:wikipedia": "en:Aldi",
        "name": "ALDI",
        "shop": "supermarket",
        "source": "local_knowledge",
        "website": "http://www.aldifoods.com/"
      },
      "geometry": {
        "type": "Point",
        "coordinates": [
          -90.4428322,
          38.5112157
        ]
      },
      "id": "node/465137037"
    },
    {
      "type": "Feature",
      "properties": {
        "@id": "node/466499534",
        "name": "Dierbergs",
        "shop": "supermarket"
      },
      "geometry": {
        "type": "Point",
        "coordinates": [
          -90.5212439,
          38.5958652
        ]
      },
      "id": "node/466499534"
    },
    {
      "type": "Feature",
      "properties": {
        "@id": "node/469819774",
        "addr:city": "Fenton",
        "addr:country": "US",
        "addr:housenumber": "698",
        "addr:postcode": "63026",
        "addr:state": "MO",
        "addr:street": "Gravois Bluffs Boulevard",
        "brand": "Petro-Mart",
        "contact:phone": "+16363264270",
        "name": "Petro-Mart",
        "ref:petro_mart": "33",
        "shop": "convenience",
        "website": "https://www.petromartonline.com/"
      },
      "geometry": {
        "type": "Point",
        "coordinates": [
          -90.4426002,
          38.5070676
        ]
      },
      "id": "node/469819774"
    },
    {
      "type": "Feature",
      "properties": {
        "@id": "node/495113034",
        "amenity": "drinking_water",
        "check_date": "2022-06-22"
      },
      "geometry": {
        "type": "Point",
        "coordinates": [
          12.4934283,
          41.8913309
        ]
      },
      "id": "node/495113034"
    },
    {
      "type": "Feature",
      "properties": {
        "@id": "node/537481527",
        "shop": "convenience"
      },
      "geometry": {
        "type": "Point",
        "coordinates": [
          -94.4041437,
          38.8541728
        ]
      },
      "id": "node/537481527"
    },
    {
      "type": "Feature",
      "properties": {
        "@id": "node/626295611",
        "name": "Faststop",
        "shop": "convenience",
        "source": "local"
      },
      "geometry": {
        "type": "Point",
        "coordinates": [
          -94.5841479,
          39.0562992
        ]
      },
      "id": "node/626295611"
    },
    {
      "type": "Feature",
      "properties": {
        "@id": "node/685457655",
        "amenity": "drinking_water",
        "check_date": "2021-11-01"
      },
      "geometry": {
        "type": "Point",
        "coordinates": [
          12.4867108,
          41.8902623
        ]
      },
      "id": "node/685457655"
    },
    {
      "type": "Feature",
      "properties": {
        "@id": "node/685461877",
        "amenity": "drinking_water",
        "check_date": "2021-11-01"
      },
      "geometry": {
        "type": "Point",
        "coordinates": [
          12.4875779,
          41.8891234
        ]
      },
      "id": "node/685461877"
    },
    {
      "type": "Feature",
      "properties": {
        "@id": "node/761865210",
        "brand": "Dierbergs",
        "brand:wikidata": "Q5274978",
        "brand:wikipedia": "en:Dierbergs Markets",
        "internet_access": "wlan",
        "internet_access:fee": "no",
        "internet_access:ssid": "DPublic",
        "name": "Dierbergs",
        "shop": "supermarket"
      },
      "geometry": {
        "type": "Point",
        "coordinates": [
          -90.3742048,
          38.5089919
        ]
      },
      "id": "node/761865210"
    },
    {
      "type": "Feature",
      "properties": {
        "@id": "node/767201727",
        "brand": "Schnucks",
        "brand:wikidata": "Q7431920",
        "name": "Schnucks",
        "shop": "supermarket"
      },
      "geometry": {
        "type": "Point",
        "coordinates": [
          -90.5217323,
          38.4780941
        ]
      },
      "id": "node/767201727"
    },
    {
      "type": "Feature",
      "properties": {
        "@id": "node/767557551",
        "brand": "Schnucks",
        "brand:wikidata": "Q7431920",
        "brand:wikipedia": "en:Schnucks",
        "internet_access": "wlan",
        "internet_access:fee": "no",
        "internet_access:ssid": "SCHNUCKS_GUEST",
        "name": "Schnucks",
        "shop": "supermarket"
      },
      "geometry": {
        "type": "Point",
        "coordinates": [
          -90.3589992,
          38.5261127
        ]
      },
      "id": "node/767557551"
    },
    {
      "type": "Feature",
      "properties": {
        "@id": "node/769301560",
        "name": "Phillips 66",
        "operator": "Phillip's 66",
        "shop": "convenience"
      },
      "geometry": {
        "type": "Point",
        "coordinates": [
          -92.2464759,
          38.5813047
        ]
      },
      "id": "node/769301560"
    },
    {
      "type": "Feature",
      "properties": {
        "@id": "node/769310285",
        "name": "Mosers",
        "shop": "supermarket"
      },
      "geometry": {
        "type": "Point",
        "coordinates": [
          -92.2150619,
          38.5803318
        ]
      },
      "id": "node/769310285"
    },
    {
      "type": "Feature",
      "properties": {
        "@id": "node/769310286",
        "shop": "supermarket"
      },
      "geometry": {
        "type": "Point",
        "coordinates": [
          -92.2114141,
          38.5828982
        ]
      },
      "id": "node/769310286"
    },
    {
      "type": "Feature",
      "properties": {
        "@id": "node/812746104",
        "brand": "Kum & Go",
        "brand:wikidata": "Q6443340",
        "brand:wikipedia": "en:Kum & Go",
        "name": "Kum & Go",
        "shop": "convenience",
        "source": "Bing"
      },
      "geometry": {
        "type": "Point",
        "coordinates": [
          -93.2650193,
          37.240583
        ]
      },
      "id": "node/812746104"
    },
    {
      "type": "Feature",
      "properties": {
        "@id": "node/812746109",
        "name": "Kum & Go",
        "shop": "convenience",
        "source": "Bing",
        "toilets:wheelchair": "no",
        "wheelchair": "yes"
      },
      "geometry": {
        "type": "Point",
        "coordinates": [
          -93.2761896,
          37.2265313
        ]
      },
      "id": "node/812746109"
    },
    {
      "type": "Feature",
      "properties": {
        "@id": "node/814564405",
        "amenity": "fuel",
        "name": "Kum & Go",
        "operator": "Kum & Go",
        "shop": "convenience"
      },
      "geometry": {
        "type": "Point",
        "coordinates": [
          -93.2745105,
          37.251248
        ]
      },
      "id": "node/814564405"
    },
    {
      "type": "Feature",
      "properties": {
        "@id": "node/814577215",
        "name": "Price Cutter Plus",
        "shop": "supermarket"
      },
      "geometry": {
        "type": "Point",
        "coordinates": [
          -93.274143,
          37.2089672
        ]
      },
      "id": "node/814577215"
    },
    {
      "type": "Feature",
      "properties": {
        "@id": "node/814588117",
        "amenity": "fuel",
        "name": "Casey's General Store",
        "shop": "convenience"
      },
      "geometry": {
        "type": "Point",
        "coordinates": [
          -93.2995415,
          37.1971574
        ]
      },
      "id": "node/814588117"
    },
    {
      "type": "Feature",
      "properties": {
        "@id": "node/814617586",
        "name": "Price Cutter",
        "shop": "supermarket",
        "wheelchair": "yes"
      },
      "geometry": {
        "type": "Point",
        "coordinates": [
          -93.2766172,
          37.1360961
        ]
      },
      "id": "node/814617586"
    },
    {
      "type": "Feature",
      "properties": {
        "@id": "node/814617591",
        "amenity": "fuel",
        "shop": "convenience",
        "source": "Bing"
      },
      "geometry": {
        "type": "Point",
        "coordinates": [
          -93.2719268,
          37.1371561
        ]
      },
      "id": "node/814617591"
    },
    {
      "type": "Feature",
      "properties": {
        "@id": "node/814617602",
        "addr:city": "Springfield",
        "addr:housenumber": "1500",
        "addr:postcode": "65804",
        "addr:state": "MO",
        "addr:street": "East Republic Rd",
        "name": "Harter House",
        "shop": "supermarket"
      },
      "geometry": {
        "type": "Point",
        "coordinates": [
          -93.2699384,
          37.1368094
        ]
      },
      "id": "node/814617602"
    },
    {
      "type": "Feature",
      "properties": {
        "@id": "node/886860486",
        "addr:city": "Kansas City",
        "addr:housenumber": "7033",
        "addr:state": "MO",
        "addr:street": "Prospect Avenue",
        "name": "Xpress Mart",
        "shop": "convenience"
      },
      "geometry": {
        "type": "Point",
        "coordinates": [
          -94.556458,
          38.9985655
        ]
      },
      "id": "node/886860486"
    },
    {
      "type": "Feature",
      "properties": {
        "@id": "node/917064047",
        "brand": "Aldi",
        "brand:wikidata": "Q125054",
        "name": "Aldi",
        "shop": "supermarket"
      },
      "geometry": {
        "type": "Point",
        "coordinates": [
          -91.8914858,
          39.1466137
        ]
      },
      "id": "node/917064047"
    },
    {
      "type": "Feature",
      "properties": {
        "@id": "node/953890053",
        "amenity": "drinking_water"
      },
      "geometry": {
        "type": "Point",
        "coordinates": [
          12.4879526,
          41.8887986
        ]
      },
      "id": "node/953890053"
    },
    {
      "type": "Feature",
      "properties": {
        "@id": "node/953890062",
        "amenity": "drinking_water",
        "check_date": "2021-11-01",
        "man_made": "water_tap"
      },
      "geometry": {
        "type": "Point",
        "coordinates": [
          12.4883755,
          41.890985
        ]
      },
      "id": "node/953890062"
    },
    {
      "type": "Feature",
      "properties": {
        "@id": "node/953909059",
        "amenity": "drinking_water",
        "fountain": "nasone",
        "wikimedia_commons": "File:Nasone via dei santi Quattro,roma,italy 62022.jpeg"
      },
      "geometry": {
        "type": "Point",
        "coordinates": [
          12.4968765,
          41.8889852
        ]
      },
      "id": "node/953909059"
    },
    {
      "type": "Feature",
      "properties": {
        "@id": "node/1103683465",
        "brand": "BP Shop",
        "brand:wikidata": "Q152057",
        "brand:wikipedia": "en:BP",
        "name": "BP Shop",
        "shop": "convenience"
      },
      "geometry": {
        "type": "Point",
        "coordinates": [
          -94.5581494,
          39.1068737
        ]
      },
      "id": "node/1103683465"
    },
    {
      "type": "Feature",
      "properties": {
        "@id": "node/1170494282",
        "amenity": "drinking_water",
        "fountain": "nasone"
      },
      "geometry": {
        "type": "Point",
        "coordinates": [
          12.4942213,
          41.8900377
        ]
      },
      "id": "node/1170494282"
    },
    {
      "type": "Feature",
      "properties": {
        "@id": "node/1220858483",
        "brand": "Schnucks",
        "brand:wikidata": "Q7431920",
        "brand:wikipedia": "en:Schnucks",
        "name": "Schnucks",
        "shop": "supermarket"
      },
      "geometry": {
        "type": "Point",
        "coordinates": [
          -90.5012406,
          38.7822487
        ]
      },
      "id": "node/1220858483"
    },
    {
      "type": "Feature",
      "properties": {
        "@id": "node/1236495012",
        "shop": "supermarket"
      },
      "geometry": {
        "type": "Point",
        "coordinates": [
          -92.7977612,
          39.4284363
        ]
      },
      "id": "node/1236495012"
    },
    {
      "type": "Feature",
      "properties": {
        "@id": "node/1241634937",
        "brand": "Schnucks",
        "brand:wikidata": "Q7431920",
        "name": "Schnucks",
        "shop": "supermarket"
      },
      "geometry": {
        "type": "Point",
        "coordinates": [
          -90.2841185,
          38.5341867
        ]
      },
      "id": "node/1241634937"
    },
    {
      "type": "Feature",
      "properties": {
        "@id": "node/1241649452",
        "addr:street": "3661 Reavis Barracks Road, Saint Louis, MO",
        "brand": "Save-A-Lot",
        "brand:wikidata": "Q7427972",
        "brand:wikipedia": "en:Save-A-Lot",
        "name": "Save-A-Lot",
        "shop": "supermarket"
      },
      "geometry": {
        "type": "Point",
        "coordinates": [
          -90.2992613,
          38.526228
        ]
      },
      "id": "node/1241649452"
    },
    {
      "type": "Feature",
      "properties": {
        "@id": "node/1242872381",
        "addr:city": "Arnold",
        "addr:country": "US",
        "addr:housenumber": "1253",
        "addr:postcode": "63010",
        "addr:state": "MO",
        "addr:street": "Water Tower Place",
        "contact:facebook": "https://www.facebook.com/SchnucksWaterTower/",
        "name": "Schnucks",
        "shop": "supermarket",
        "source:addr": "https://www.facebook.com/SchnucksWaterTower/",
        "website": "https://www.schnucks.com/"
      },
      "geometry": {
        "type": "Point",
        "coordinates": [
          -90.3754461,
          38.4393999
        ]
      },
      "id": "node/1242872381"
    },
    {
      "type": "Feature",
      "properties": {
        "@id": "node/1243995533",
        "addr:city": "Saint Louis",
        "addr:housenumber": "260",
        "addr:state": "MO",
        "addr:street": "East Hoffmeister Avenue",
        "brand": "7-Eleven",
        "brand:wikidata": "Q259340",
        "name": "7-Eleven",
        "phone": "(314) 631-2866",
        "shop": "convenience"
      },
      "geometry": {
        "type": "Point",
        "coordinates": [
          -90.275944,
          38.5335012
        ]
      },
      "id": "node/1243995533"
    },
    {
      "type": "Feature",
      "properties": {
        "@id": "node/1294141806",
        "name": "Bistro Market",
        "shop": "supermarket",
        "wheelchair": "limited"
      },
      "geometry": {
        "type": "Point",
        "coordinates": [
          -93.2926236,
          37.2069016
        ]
      },
      "id": "node/1294141806"
    },
    {
      "type": "Feature",
      "properties": {
        "@id": "node/1300020413",
        "addr:city": "Brookfield",
        "addr:country": "US",
        "addr:housenumber": "937",
        "addr:postcode": "64628",
        "addr:state": "MO",
        "addr:street": "Park Circle Drive",
        "brand": "Walmart",
        "brand:wikidata": "Q483551",
        "contact:phone": "+1-660-258-7416",
        "name": "Walmart Supercenter",
        "opening_hours": "24/7",
        "operator": "Walmart",
        "ref:walmart": "203",
        "shop": "supermarket",
        "website": "https://www.walmart.com/store/203/brookfield-mo/whats-new"
      },
      "geometry": {
        "type": "Point",
        "coordinates": [
          -93.0727658,
          39.7677932
        ]
      },
      "id": "node/1300020413"
    },
    {
      "type": "Feature",
      "properties": {
        "@id": "node/1464550400",
        "designation": "Russian food",
        "name": "Natasha's Euromarket",
        "shop": "supermarket"
      },
      "geometry": {
        "type": "Point",
        "coordinates": [
          -92.3282124,
          38.9718083
        ]
      },
      "id": "node/1464550400"
    },
    {
      "type": "Feature",
      "properties": {
        "@id": "node/1568729680",
        "name": "C&R Market",
        "shop": "supermarket"
      },
      "geometry": {
        "type": "Point",
        "coordinates": [
          -92.0392666,
          39.6941145
        ]
      },
      "id": "node/1568729680"
    },
    {
      "type": "Feature",
      "properties": {
        "@id": "node/1608400242",
        "name": "Phillip's 66 Gas station",
        "shop": "convenience"
      },
      "geometry": {
        "type": "Point",
        "coordinates": [
          -89.576572,
          37.3032292
        ]
      },
      "id": "node/1608400242"
    },
    {
      "type": "Feature",
      "properties": {
        "@id": "node/1609487819",
        "name": "Rhode's Gas Station",
        "shop": "convenience"
      },
      "geometry": {
        "type": "Point",
        "coordinates": [
          -89.548221,
          37.3027129
        ]
      },
      "id": "node/1609487819"
    },
    {
      "type": "Feature",
      "properties": {
        "@id": "node/1609488872",
        "name": "Rhodes gas station",
        "shop": "convenience"
      },
      "geometry": {
        "type": "Point",
        "coordinates": [
          -89.6665708,
          37.1830879
        ]
      },
      "id": "node/1609488872"
    },
    {
      "type": "Feature",
      "properties": {
        "@id": "node/1609489405",
        "name": "Foog giant",
        "shop": "supermarket"
      },
      "geometry": {
        "type": "Point",
        "coordinates": [
          -89.668502,
          37.1847035
        ]
      },
      "id": "node/1609489405"
    },
    {
      "type": "Feature",
      "properties": {
        "@id": "node/1612372080",
        "brand": "Schnucks",
        "brand:wikidata": "Q7431920",
        "brand:wikipedia": "en:Schnucks",
        "internet_access": "wlan",
        "internet_access:fee": "no",
        "internet_access:ssid": "SCHNUCKS_GUEST",
        "name": "Schnucks",
        "shop": "supermarket"
      },
      "geometry": {
        "type": "Point",
        "coordinates": [
          -90.3785448,
          38.557178
        ]
      },
      "id": "node/1612372080"
    },
    {
      "type": "Feature",
      "properties": {
        "@id": "node/1627366384",
        "amenity": "marketplace"
      },
      "geometry": {
        "type": "Point",
        "coordinates": [
          -93.2137262,
          36.6440847
        ]
      },
      "id": "node/1627366384"
    },
    {
      "type": "Feature",
      "properties": {
        "@id": "node/1656861982",
        "amenity": "drinking_water",
        "check_date": "2021-11-01",
        "man_made": "water_tap"
      },
      "geometry": {
        "type": "Point",
        "coordinates": [
          12.4883955,
          41.8907173
        ]
      },
      "id": "node/1656861982"
    },
    {
      "type": "Feature",
      "properties": {
        "@id": "node/1676887351",
        "name": "PLS",
        "shop": "convenience"
      },
      "geometry": {
        "type": "Point",
        "coordinates": [
          -90.6211707,
          37.7715012
        ]
      },
      "id": "node/1676887351"
    },
    {
      "type": "Feature",
      "properties": {
        "@id": "node/1676887353",
        "name": "Mike's Market",
        "shop": "supermarket"
      },
      "geometry": {
        "type": "Point",
        "coordinates": [
          -90.6167451,
          37.7752114
        ]
      },
      "id": "node/1676887353"
    },
    {
      "type": "Feature",
      "properties": {
        "@id": "node/1707858749",
        "amenity": "marketplace",
        "name": "It's a Beautiful Day"
      },
      "geometry": {
        "type": "Point",
        "coordinates": [
          -94.5910501,
          39.0561619
        ]
      },
      "id": "node/1707858749"
    },
    {
      "type": "Feature",
      "properties": {
        "@id": "node/1709280191",
        "amenity": "drinking_water",
        "check_date": "2021-11-02",
        "fountain": "bottle_refill",
        "name:ru": "вода с газом и без. бесплатная"
      },
      "geometry": {
        "type": "Point",
        "coordinates": [
          12.4911794,
          41.891319
        ]
      },
      "id": "node/1709280191"
    },
    {
      "type": "Feature",
      "properties": {
        "@id": "node/1809225574",
        "addr:city": "Lees Summit",
        "addr:country": "US",
        "addr:housenumber": "1000",
        "addr:postcode": "64086",
        "addr:state": "MO",
        "addr:street": "NE Sam Walton Lane",
        "brand": "Walmart",
        "brand:wikidata": "Q483551",
        "brand:wikipedia": "en:Walmart",
        "name": "Walmart Supercenter",
        "opening_hours": "24/7",
        "operator": "Walmart",
        "phone": "+1-816-246-4555",
        "ref:walmart": "573",
        "shop": "supermarket",
        "website": "https://www.walmart.com/store/573/lees-summit-mo/whats-new"
      },
      "geometry": {
        "type": "Point",
        "coordinates": [
          -94.3634662,
          38.9305426
        ]
      },
      "id": "node/1809225574"
    },
    {
      "type": "Feature",
      "properties": {
        "@id": "node/1809248634",
        "brand": "Save-A-Lot",
        "brand:wikidata": "Q7427972",
        "brand:wikipedia": "en:Save-A-Lot",
        "name": "Save-A-Lot",
        "shop": "supermarket"
      },
      "geometry": {
        "type": "Point",
        "coordinates": [
          -94.5003423,
          38.9643672
        ]
      },
      "id": "node/1809248634"
    },
    {
      "type": "Feature",
      "properties": {
        "@id": "node/1823301091",
        "name": "Millenium Fast Stop",
        "shop": "convenience"
      },
      "geometry": {
        "type": "Point",
        "coordinates": [
          -94.5374047,
          39.0936569
        ]
      },
      "id": "node/1823301091"
    },
    {
      "type": "Feature",
      "properties": {
        "@id": "node/1866573333",
        "name": "Heart of America Market",
        "shop": "supermarket"
      },
      "geometry": {
        "type": "Point",
        "coordinates": [
          -94.5551256,
          39.0988241
        ]
      },
      "id": "node/1866573333"
    },
    {
      "type": "Feature",
      "properties": {
        "@id": "node/1870796683",
        "name": "GasMart",
        "shop": "convenience"
      },
      "geometry": {
        "type": "Point",
        "coordinates": [
          -94.4749331,
          39.0479771
        ]
      },
      "id": "node/1870796683"
    },
    {
      "type": "Feature",
      "properties": {
        "@id": "node/1880098339",
        "brand": "Price Chopper",
        "brand:wikidata": "Q7242572",
        "brand:wikipedia": "en:Price Chopper (supermarket)",
        "name": "Price Chopper",
        "shop": "supermarket"
      },
      "geometry": {
        "type": "Point",
        "coordinates": [
          -94.4841088,
          39.0111026
        ]
      },
      "id": "node/1880098339"
    },
    {
      "type": "Feature",
      "properties": {
        "@id": "node/1887666803",
        "brand": "Target",
        "brand:wikidata": "Q1046951",
        "name": "Target",
        "shop": "supermarket",
        "wheelchair": "yes"
      },
      "geometry": {
        "type": "Point",
        "coordinates": [
          -94.4093352,
          38.9313117
        ]
      },
      "id": "node/1887666803"
    },
    {
      "type": "Feature",
      "properties": {
        "@id": "node/1914726381",
        "name": "Los Compadres Mini Market",
        "phone": "+18162312610",
        "shop": "convenience"
      },
      "geometry": {
        "type": "Point",
        "coordinates": [
          -94.4427332,
          39.0800582
        ]
      },
      "id": "node/1914726381"
    },
    {
      "type": "Feature",
      "properties": {
        "@id": "node/1978608484",
        "name": "Jay International Foods",
        "shop": "supermarket"
      },
      "geometry": {
        "type": "Point",
        "coordinates": [
          -90.2423192,
          38.6003261
        ]
      },
      "id": "node/1978608484"
    },
    {
      "type": "Feature",
      "properties": {
        "@id": "node/1978608513",
        "brand": "Kroger",
        "brand:wikidata": "Q153417",
        "brand:wikipedia": "en:Kroger",
        "name": "Ruler Foods",
        "shop": "supermarket"
      },
      "geometry": {
        "type": "Point",
        "coordinates": [
          -90.240669,
          38.6071504
        ]
      },
      "id": "node/1978608513"
    },
    {
      "type": "Feature",
      "properties": {
        "@id": "node/2056640788",
        "addr:city": "Kansas City",
        "addr:housenumber": "10225",
        "addr:postcode": "64155",
        "addr:state": "MO",
        "addr:street": "North Oak Trafficway",
        "name": "Sun Fresh Market",
        "shop": "supermarket"
      },
      "geometry": {
        "type": "Point",
        "coordinates": [
          -94.5734108,
          39.2787222
        ]
      },
      "id": "node/2056640788"
    },
    {
      "type": "Feature",
      "properties": {
        "@id": "node/2092158189",
        "name": "Straub's",
        "opening_hours": "Mo-Sa 07:00-21:00; Su 08:00-20:00",
        "shop": "supermarket",
        "website": "http://www.straubs.com"
      },
      "geometry": {
        "type": "Point",
        "coordinates": [
          -90.4811454,
          38.6268591
        ]
      },
      "id": "node/2092158189"
    },
    {
      "type": "Feature",
      "properties": {
        "@id": "node/2123330962",
        "addr:street": "East Blue Parkway",
        "name": "SunFresh",
        "opening_hours": "Mo-Su 06:00-22:00",
        "shop": "supermarket"
      },
      "geometry": {
        "type": "Point",
        "coordinates": [
          -94.5350842,
          39.0334838
        ]
      },
      "id": "node/2123330962"
    },
    {
      "type": "Feature",
      "properties": {
        "@id": "node/2151363866",
        "name": "Cooper's Landing General Store",
        "shop": "convenience"
      },
      "geometry": {
        "type": "Point",
        "coordinates": [
          -92.3832214,
          38.8160847
        ]
      },
      "id": "node/2151363866"
    },
    {
      "type": "Feature",
      "properties": {
        "@id": "node/2152772494",
        "name": "HY Klas Food",
        "shop": "supermarket"
      },
      "geometry": {
        "type": "Point",
        "coordinates": [
          -94.4459174,
          39.565202
        ]
      },
      "id": "node/2152772494"
    },
    {
      "type": "Feature",
      "properties": {
        "@id": "node/2155263347",
        "amenity": "fuel",
        "brand": "QuikTrip",
        "brand:wikidata": "Q7271953",
        "brand:wikipedia": "en:QuikTrip",
        "name": "QuikTrip",
        "shop": "convenience",
        "short_name": "QT"
      },
      "geometry": {
        "type": "Point",
        "coordinates": [
          -94.6074268,
          38.9829552
        ]
      },
      "id": "node/2155263347"
    },
    {
      "type": "Feature",
      "properties": {
        "@id": "node/2297755660",
        "addr:housenumber": "5802",
        "addr:street": "Swope Parkway",
        "name": "Country View Market",
        "shop": "convenience"
      },
      "geometry": {
        "type": "Point",
        "coordinates": [
          -94.542099,
          39.0209084
        ]
      },
      "id": "node/2297755660"
    },
    {
      "type": "Feature",
      "properties": {
        "@id": "node/2417808033",
        "name": "The Top Spot",
        "shop": "convenience"
      },
      "geometry": {
        "type": "Point",
        "coordinates": [
          -94.5574592,
          39.0775468
        ]
      },
      "id": "node/2417808033"
    },
    {
      "type": "Feature",
      "properties": {
        "@id": "node/2422272713",
        "name": "Three-Nine Mini Mart",
        "shop": "convenience"
      },
      "geometry": {
        "type": "Point",
        "coordinates": [
          -94.5447832,
          39.0545595
        ]
      },
      "id": "node/2422272713"
    },
    {
      "type": "Feature",
      "properties": {
        "@id": "node/2466943044",
        "amenity": "marketplace",
        "name": "Lincoln Antique Mall"
      },
      "geometry": {
        "type": "Point",
        "coordinates": [
          -93.3303632,
          38.3879432
        ]
      },
      "id": "node/2466943044"
    },
    {
      "type": "Feature",
      "properties": {
        "@id": "node/2477893658",
        "name": "Mi Casa",
        "shop": "convenience"
      },
      "geometry": {
        "type": "Point",
        "coordinates": [
          -94.3648052,
          38.6615654
        ]
      },
      "id": "node/2477893658"
    },
    {
      "type": "Feature",
      "properties": {
        "@id": "node/2488843602",
        "alt_name": "Schnucks",
        "name": "Culinaria",
        "shop": "supermarket",
        "toilets:wheelchair": "yes",
        "wheelchair": "yes"
      },
      "geometry": {
        "type": "Point",
        "coordinates": [
          -90.193733,
          38.6291698
        ]
      },
      "id": "node/2488843602"
    },
    {
      "type": "Feature",
      "properties": {
        "@id": "node/2525606458",
        "name": "S&R Deli & Grocery",
        "shop": "convenience"
      },
      "geometry": {
        "type": "Point",
        "coordinates": [
          -94.5544967,
          39.0339804
        ]
      },
      "id": "node/2525606458"
    },
    {
      "type": "Feature",
      "properties": {
        "@id": "node/2537299968",
        "amenity": "drinking_water",
        "fountain": "nasone",
        "indoor": "no",
        "wikimedia_commons": "File:Nasone via mecenate, Roma, Italia Jun 30, 2022 06-19-16 PM.jpeg"
      },
      "geometry": {
        "type": "Point",
        "coordinates": [
          12.4987211,
          41.8911676
        ]
      },
      "id": "node/2537299968"
    },
    {
      "type": "Feature",
      "properties": {
        "@id": "node/2554872577",
        "brand": "Target",
        "brand:wikidata": "Q1046951",
        "brand:wikipedia": "en:Target Corporation",
        "landuse": "retail",
        "name": "Target",
        "shop": "supermarket"
      },
      "geometry": {
        "type": "Point",
        "coordinates": [
          -94.6069609,
          38.8795354
        ]
      },
      "id": "node/2554872577"
    },
    {
      "type": "Feature",
      "properties": {
        "@id": "node/2575206231",
        "addr:city": "Maryville",
        "addr:country": "US",
        "addr:housenumber": "1605",
        "addr:postcode": "64468",
        "addr:state": "MO",
        "addr:street": "S Main",
        "brand": "Walmart",
        "brand:wikidata": "Q483551",
        "name": "Walmart Supercenter",
        "opening_hours": "24/7",
        "operator": "Walmart",
        "phone": "+1-660-562-2994",
        "ref:walmart": "801",
        "shop": "supermarket",
        "website": "https://www.walmart.com/store/801/maryville-mo/whats-new"
      },
      "geometry": {
        "type": "Point",
        "coordinates": [
          -94.870115,
          40.330026
        ]
      },
      "id": "node/2575206231"
    },
    {
      "type": "Feature",
      "properties": {
        "@id": "node/2578562455",
        "name": "Marsell's Market",
        "note": "Local Knowledge",
        "shop": "supermarket"
      },
      "geometry": {
        "type": "Point",
        "coordinates": [
          -90.4938073,
          38.8366991
        ]
      },
      "id": "node/2578562455"
    },
    {
      "type": "Feature",
      "properties": {
        "@id": "node/2578603381",
        "brand": "Dierbergs",
        "brand:wikidata": "Q5274978",
        "brand:wikipedia": "en:Dierbergs Markets",
        "name": "Dierbergs",
        "shop": "supermarket"
      },
      "geometry": {
        "type": "Point",
        "coordinates": [
          -90.5343636,
          38.7824218
        ]
      },
      "id": "node/2578603381"
    },
    {
      "type": "Feature",
      "properties": {
        "@id": "node/2578603386",
        "brand": "Schnucks",
        "brand:wikidata": "Q7431920",
        "brand:wikipedia": "en:Schnucks",
        "name": "Schnucks",
        "shop": "supermarket"
      },
      "geometry": {
        "type": "Point",
        "coordinates": [
          -90.5303321,
          38.7808653
        ]
      },
      "id": "node/2578603386"
    },
    {
      "type": "Feature",
      "properties": {
        "@id": "node/2619997821",
        "addr:city": "Versailles",
        "addr:housenumber": "819",
        "addr:postcode": "65084",
        "addr:street": "West Newton Street",
        "name": "West Vue Market",
        "operator": "Mark Gibson",
        "shop": "supermarket"
      },
      "geometry": {
        "type": "Point",
        "coordinates": [
          -92.8531472,
          38.4323122
        ]
      },
      "id": "node/2619997821"
    },
    {
      "type": "Feature",
      "properties": {
        "@id": "node/2621726262",
        "addr:city": "Branson",
        "addr:housenumber": "220",
        "addr:postcode": "65616",
        "addr:state": "MO",
        "addr:street": "Branson Hills Parkway",
        "name": "Branson First Stop",
        "phone": "417-335-4566",
        "shop": "convenience",
        "source": "Bing"
      },
      "geometry": {
        "type": "Point",
        "coordinates": [
          -93.2250199,
          36.6700374
        ]
      },
      "id": "node/2621726262"
    },
    {
      "type": "Feature",
      "properties": {
        "@id": "node/2621753324",
        "addr:postcode": "65616",
        "addr:street": "Shepherd of the Hills Expwy",
        "shop": "convenience",
        "source": "Bing"
      },
      "geometry": {
        "type": "Point",
        "coordinates": [
          -93.2514903,
          36.6677913
        ]
      },
      "id": "node/2621753324"
    },
    {
      "type": "Feature",
      "properties": {
        "@id": "node/2621753381",
        "shop": "convenience",
        "source": "Bing"
      },
      "geometry": {
        "type": "Point",
        "coordinates": [
          -93.2503369,
          36.6687508
        ]
      },
      "id": "node/2621753381"
    },
    {
      "type": "Feature",
      "properties": {
        "@id": "node/2621859111",
        "addr:housenumber": "1901",
        "addr:postcode": "65616",
        "addr:street": "W 76 Country Blvd",
        "name": "EZ Center",
        "phone": "417-334-8210",
        "shop": "convenience",
        "source": "Bing"
      },
      "geometry": {
        "type": "Point",
        "coordinates": [
          -93.2539366,
          36.6430588
        ]
      },
      "id": "node/2621859111"
    },
    {
      "type": "Feature",
      "properties": {
        "@id": "node/2621898855",
        "shop": "convenience",
        "source": "Bing"
      },
      "geometry": {
        "type": "Point",
        "coordinates": [
          -93.3902463,
          36.6780529
        ]
      },
      "id": "node/2621898855"
    },
    {
      "type": "Feature",
      "properties": {
        "@id": "node/2622966261",
        "addr:housenumber": "1029",
        "addr:postcode": "65616",
        "addr:street": "West Main Street",
        "name": "76 Pure Country",
        "phone": "417-336-6678",
        "shop": "convenience",
        "source": "Bing",
        "website": "http://www.conocophillips.com/Pages/default.aspx"
      },
      "geometry": {
        "type": "Point",
        "coordinates": [
          -93.2339915,
          36.6448489
        ]
      },
      "id": "node/2622966261"
    },
    {
      "type": "Feature",
      "properties": {
        "@id": "node/2623074817",
        "addr:housenumber": "1130",
        "addr:postcode": "65616",
        "addr:street": "W 76 Country Blvd",
        "name": "Dalton's Express",
        "phone": "417-334-8041",
        "shop": "convenience",
        "source": "Bing"
      },
      "geometry": {
        "type": "Point",
        "coordinates": [
          -93.2365412,
          36.6414742
        ]
      },
      "id": "node/2623074817"
    },
    {
      "type": "Feature",
      "properties": {
        "@id": "node/2623074857",
        "addr:housenumber": "1140",
        "addr:postcode": "65616",
        "addr:street": "W 76 Country Blvd",
        "name": "Pit Stop & Smoke Shop",
        "phone": "417-449-7827",
        "shop": "convenience",
        "source": "Bing"
      },
      "geometry": {
        "type": "Point",
        "coordinates": [
          -93.2374316,
          36.6408157
        ]
      },
      "id": "node/2623074857"
    },
    {
      "type": "Feature",
      "properties": {
        "@id": "node/2623074884",
        "addr:postcode": "65616",
        "addr:street": "W 76 Country Blvd",
        "name": "2-For-1 Show Tickets & Attractions",
        "shop": "convenience",
        "source": "Bing"
      },
      "geometry": {
        "type": "Point",
        "coordinates": [
          -93.2364714,
          36.6429399
        ]
      },
      "id": "node/2623074884"
    },
    {
      "type": "Feature",
      "properties": {
        "@id": "node/2623113482",
        "addr:housenumber": "2652",
        "addr:postcode": "65616",
        "addr:street": "Shepherd of the Hills Expwy",
        "name": "AJ's One Stop",
        "phone": "417-332-1839",
        "shop": "convenience",
        "source": "Bing",
        "website": "https://www.ajsonestop.com/"
      },
      "geometry": {
        "type": "Point",
        "coordinates": [
          -93.2720207,
          36.6529708
        ]
      },
      "id": "node/2623113482"
    },
    {
      "type": "Feature",
      "properties": {
        "@id": "node/2623113596",
        "addr:housenumber": "4017",
        "addr:postcode": "65616",
        "addr:street": "W 76 Country Blvd",
        "name": "White Oak Station",
        "phone": "417-339-3911",
        "shop": "convenience",
        "source": "Bing"
      },
      "geometry": {
        "type": "Point",
        "coordinates": [
          -93.2922419,
          36.6520735
        ]
      },
      "id": "node/2623113596"
    },
    {
      "type": "Feature",
      "properties": {
        "@id": "node/2623113645",
        "addr:housenumber": "3579",
        "addr:postcode": "65616",
        "addr:street": "Shepherd of the Hills Expwy",
        "name": "Branson Star Stop",
        "phone": "417-336-8590",
        "shop": "convenience",
        "source": "Bing"
      },
      "geometry": {
        "type": "Point",
        "coordinates": [
          -93.2891976,
          36.6520089
        ]
      },
      "id": "node/2623113645"
    },
    {
      "type": "Feature",
      "properties": {
        "@id": "node/2629436468",
        "shop": "convenience",
        "source": "Bing"
      },
      "geometry": {
        "type": "Point",
        "coordinates": [
          -93.3654887,
          36.6965719
        ]
      },
      "id": "node/2629436468"
    },
    {
      "type": "Feature",
      "properties": {
        "@id": "node/2629436500",
        "shop": "convenience",
        "source": "Bing"
      },
      "geometry": {
        "type": "Point",
        "coordinates": [
          -93.3702443,
          36.6933416
        ]
      },
      "id": "node/2629436500"
    },
    {
      "type": "Feature",
      "properties": {
        "@id": "node/2629436508",
        "shop": "convenience",
        "source": "Bing"
      },
      "geometry": {
        "type": "Point",
        "coordinates": [
          -93.3690239,
          36.6973031
        ]
      },
      "id": "node/2629436508"
    },
    {
      "type": "Feature",
      "properties": {
        "@id": "node/2636310997",
        "addr:city": "Springfield",
        "addr:housenumber": "607",
        "addr:postcode": "65802",
        "addr:street": "South Pickwick Avenue",
        "name": "Homegrown Food",
        "opening_hours": "Tu-Su 10:00-19:00",
        "phone": "(417) 868-7004",
        "shop": "convenience",
        "website": "http://homegrownfoodstore.com"
      },
      "geometry": {
        "type": "Point",
        "coordinates": [
          -93.2699458,
          37.2034475
        ]
      },
      "id": "node/2636310997"
    },
    {
      "type": "Feature",
      "properties": {
        "@id": "node/2670074347",
        "addr:city": "Kansas City",
        "addr:housenumber": "8600",
        "addr:postcode": "64114",
        "addr:state": "MO",
        "addr:street": "Ward Parkway",
        "brand": "Trader Joe's",
        "brand:wikidata": "Q688825",
        "brand:wikipedia": "en:Trader Joe's",
        "name": "Trader Joe's",
        "phone": "+1-816-333-5322",
        "shop": "supermarket",
        "source": "survey;website",
        "website": "https://locations.traderjoes.com/mo/kansas-city/720/"
      },
      "geometry": {
        "type": "Point",
        "coordinates": [
          -94.6062882,
          38.9712607
        ]
      },
      "id": "node/2670074347"
    },
    {
      "type": "Feature",
      "properties": {
        "@id": "node/2672305240",
        "shop": "convenience",
        "source": "Bing"
      },
      "geometry": {
        "type": "Point",
        "coordinates": [
          -93.2344766,
          36.6101889
        ]
      },
      "id": "node/2672305240"
    },
    {
      "type": "Feature",
      "properties": {
        "@id": "node/2672305255",
        "shop": "convenience",
        "source": "Bing"
      },
      "geometry": {
        "type": "Point",
        "coordinates": [
          -93.2276101,
          36.6182882
        ]
      },
      "id": "node/2672305255"
    },
    {
      "type": "Feature",
      "properties": {
        "@id": "node/2672305260",
        "shop": "convenience",
        "source": "Bing"
      },
      "geometry": {
        "type": "Point",
        "coordinates": [
          -93.2170208,
          36.6250262
        ]
      },
      "id": "node/2672305260"
    },
    {
      "type": "Feature",
      "properties": {
        "@id": "node/2672374716",
        "addr:postcode": "65616",
        "addr:street": "W 76 Country Blvd",
        "amenity": "marketplace",
        "name": "Grandma Ruth's Farmers Market",
        "phone": "417-239-5100",
        "source": "Bing",
        "website": "gruths.com"
      },
      "geometry": {
        "type": "Point",
        "coordinates": [
          -93.235748,
          36.6430566
        ]
      },
      "id": "node/2672374716"
    },
    {
      "type": "Feature",
      "properties": {
        "@id": "node/2672417340",
        "addr:city": "Branson",
        "addr:housenumber": "2210",
        "addr:postcode": "65616",
        "addr:state": "MO",
        "addr:street": "West 76 Country Boulevard",
        "name": "Rhodes Family Price Chopper",
        "phone": "417-334-6438",
        "shop": "supermarket"
      },
      "geometry": {
        "type": "Point",
        "coordinates": [
          -93.2613711,
          36.6397638
        ]
      },
      "id": "node/2672417340"
    },
    {
      "type": "Feature",
      "properties": {
        "@id": "node/2672425962",
        "shop": "convenience",
        "source": "Bing"
      },
      "geometry": {
        "type": "Point",
        "coordinates": [
          -93.2795762,
          36.6320662
        ]
      },
      "id": "node/2672425962"
    },
    {
      "type": "Feature",
      "properties": {
        "@id": "node/2678431880",
        "shop": "convenience",
        "source": "Bing"
      },
      "geometry": {
        "type": "Point",
        "coordinates": [
          -94.3764334,
          37.838014
        ]
      },
      "id": "node/2678431880"
    },
    {
      "type": "Feature",
      "properties": {
        "@id": "node/2678431908",
        "shop": "convenience"
      },
      "geometry": {
        "type": "Point",
        "coordinates": [
          -94.3489086,
          37.8413185
        ]
      },
      "id": "node/2678431908"
    },
    {
      "type": "Feature",
      "properties": {
        "@id": "node/2678431916",
        "shop": "convenience",
        "source": "Bing"
      },
      "geometry": {
        "type": "Point",
        "coordinates": [
          -94.3247848,
          37.8358703
        ]
      },
      "id": "node/2678431916"
    },
    {
      "type": "Feature",
      "properties": {
        "@id": "node/2678431918",
        "shop": "convenience",
        "source": "Bing"
      },
      "geometry": {
        "type": "Point",
        "coordinates": [
          -94.3363397,
          37.836277
        ]
      },
      "id": "node/2678431918"
    },
    {
      "type": "Feature",
      "properties": {
        "@id": "node/2678431920",
        "shop": "supermarket",
        "source": "Bing"
      },
      "geometry": {
        "type": "Point",
        "coordinates": [
          -94.3511616,
          37.8375734
        ]
      },
      "id": "node/2678431920"
    },
    {
      "type": "Feature",
      "properties": {
        "@id": "node/2678431931",
        "shop": "convenience",
        "source": "Bing"
      },
      "geometry": {
        "type": "Point",
        "coordinates": [
          -94.3609785,
          37.8376751
        ]
      },
      "id": "node/2678431931"
    },
    {
      "type": "Feature",
      "properties": {
        "@id": "node/2678431932",
        "shop": "convenience",
        "source": "Bing"
      },
      "geometry": {
        "type": "Point",
        "coordinates": [
          -94.3429648,
          37.8362813
        ]
      },
      "id": "node/2678431932"
    },
    {
      "type": "Feature",
      "properties": {
        "@id": "node/2678431946",
        "shop": "convenience"
      },
      "geometry": {
        "type": "Point",
        "coordinates": [
          -94.3502336,
          37.8419497
        ]
      },
      "id": "node/2678431946"
    },
    {
      "type": "Feature",
      "properties": {
        "@id": "node/2686123600",
        "shop": "convenience",
        "source": "Bing"
      },
      "geometry": {
        "type": "Point",
        "coordinates": [
          -93.5657017,
          36.5082794
        ]
      },
      "id": "node/2686123600"
    },
    {
      "type": "Feature",
      "properties": {
        "@id": "node/2688002497",
        "shop": "convenience",
        "source": "Bing"
      },
      "geometry": {
        "type": "Point",
        "coordinates": [
          -93.4229325,
          36.6309728
        ]
      },
      "id": "node/2688002497"
    },
    {
      "type": "Feature",
      "properties": {
        "@id": "node/2692115375",
        "addr:housenumber": "5439",
        "addr:postcode": "65616",
        "addr:street": "State Highway 165",
        "name": "Hitch-N-Post",
        "phone": "417-334-3395",
        "shop": "convenience",
        "source": "Bing"
      },
      "geometry": {
        "type": "Point",
        "coordinates": [
          -93.3062567,
          36.5832196
        ]
      },
      "id": "node/2692115375"
    },
    {
      "type": "Feature",
      "properties": {
        "@id": "node/2693776831",
        "addr:housenumber": "164",
        "addr:postcode": "65616",
        "addr:street": "Fall Creek Drive",
        "name": "The Pantry",
        "shop": "convenience",
        "website": "thepantry.com"
      },
      "geometry": {
        "type": "Point",
        "coordinates": [
          -93.2863954,
          36.6045449
        ]
      },
      "id": "node/2693776831"
    },
    {
      "type": "Feature",
      "properties": {
        "@id": "node/2703656056",
        "shop": "convenience",
        "source": "Bing"
      },
      "geometry": {
        "type": "Point",
        "coordinates": [
          -93.271605,
          37.1371581
        ]
      },
      "id": "node/2703656056"
    },
    {
      "type": "Feature",
      "properties": {
        "@id": "node/2703674989",
        "shop": "convenience",
        "source": "Bing"
      },
      "geometry": {
        "type": "Point",
        "coordinates": [
          -93.2537012,
          37.1412634
        ]
      },
      "id": "node/2703674989"
    },
    {
      "type": "Feature",
      "properties": {
        "@id": "node/2703734816",
        "name": "JDG Fuel Mart",
        "shop": "convenience",
        "source": "Bing"
      },
      "geometry": {
        "type": "Point",
        "coordinates": [
          -93.2795363,
          37.1599932
        ]
      },
      "id": "node/2703734816"
    },
    {
      "type": "Feature",
      "properties": {
        "@id": "node/2703734819",
        "brand": "Kum & Go",
        "brand:wikidata": "Q6443340",
        "brand:wikipedia": "en:Kum & Go",
        "name": "Kum & Go",
        "shop": "convenience",
        "source": "Bing"
      },
      "geometry": {
        "type": "Point",
        "coordinates": [
          -93.2766904,
          37.1611667
        ]
      },
      "id": "node/2703734819"
    },
    {
      "type": "Feature",
      "properties": {
        "@id": "node/2703734825",
        "name": "Eagle Stop",
        "shop": "convenience",
        "source": "Bing"
      },
      "geometry": {
        "type": "Point",
        "coordinates": [
          -93.2849382,
          37.1591766
        ]
      },
      "id": "node/2703734825"
    },
    {
      "type": "Feature",
      "properties": {
        "@id": "node/2703734855",
        "shop": "convenience",
        "source": "Bing"
      },
      "geometry": {
        "type": "Point",
        "coordinates": [
          -93.2396867,
          37.1581121
        ]
      },
      "id": "node/2703734855"
    },
    {
      "type": "Feature",
      "properties": {
        "@id": "node/2703800250",
        "shop": "convenience",
        "source": "Bing"
      },
      "geometry": {
        "type": "Point",
        "coordinates": [
          -93.2775085,
          37.1400661
        ]
      },
      "id": "node/2703800250"
    },
    {
      "type": "Feature",
      "properties": {
        "@id": "node/2703800253",
        "brand": "Kum & Go",
        "brand:wikidata": "Q6443340",
        "brand:wikipedia": "en:Kum & Go",
        "name": "Kum & Go",
        "shop": "convenience",
        "source": "Bing"
      },
      "geometry": {
        "type": "Point",
        "coordinates": [
          -93.2771169,
          37.1524364
        ]
      },
      "id": "node/2703800253"
    },
    {
      "type": "Feature",
      "properties": {
        "@id": "node/2706812810",
        "brand": "Kum & Go",
        "brand:wikidata": "Q6443340",
        "name": "Kum & Go",
        "shop": "convenience",
        "source": "Bing"
      },
      "geometry": {
        "type": "Point",
        "coordinates": [
          -93.2204418,
          37.1806524
        ]
      },
      "id": "node/2706812810"
    },
    {
      "type": "Feature",
      "properties": {
        "@id": "node/2706812840",
        "name": "Rapid Robert's",
        "shop": "convenience",
        "source": "Bing"
      },
      "geometry": {
        "type": "Point",
        "coordinates": [
          -93.2262755,
          37.1809276
        ]
      },
      "id": "node/2706812840"
    },
    {
      "type": "Feature",
      "properties": {
        "@id": "node/2706812850",
        "brand": "Kum & Go",
        "brand:wikidata": "Q6443340",
        "name": "Kum & Go",
        "shop": "convenience",
        "source": "Bing"
      },
      "geometry": {
        "type": "Point",
        "coordinates": [
          -93.2261764,
          37.1799429
        ]
      },
      "id": "node/2706812850"
    },
    {
      "type": "Feature",
      "properties": {
        "@id": "node/2706812858",
        "shop": "convenience",
        "source": "Bing"
      },
      "geometry": {
        "type": "Point",
        "coordinates": [
          -93.2188808,
          37.1792633
        ]
      },
      "id": "node/2706812858"
    },
    {
      "type": "Feature",
      "properties": {
        "@id": "node/2708313018",
        "brand": "Casey's General Store",
        "brand:wikidata": "Q2940968",
        "brand:wikipedia": "en:Casey's General Stores",
        "name": "Casey's General Store",
        "shop": "convenience",
        "source": "Bing"
      },
      "geometry": {
        "type": "Point",
        "coordinates": [
          -93.3426939,
          37.1378014
        ]
      },
      "id": "node/2708313018"
    },
    {
      "type": "Feature",
      "properties": {
        "@id": "node/2708313022",
        "brand": "Kum & Go",
        "brand:wikidata": "Q6443340",
        "brand:wikipedia": "en:Kum & Go",
        "name": "Kum & Go",
        "shop": "convenience",
        "source": "Bing"
      },
      "geometry": {
        "type": "Point",
        "coordinates": [
          -93.3393251,
          37.1391656
        ]
      },
      "id": "node/2708313022"
    },
    {
      "type": "Feature",
      "properties": {
        "@id": "node/2708313027",
        "brand": "Kum & Go",
        "brand:wikidata": "Q6443340",
        "brand:wikipedia": "en:Kum & Go",
        "name": "Kum & Go",
        "shop": "convenience",
        "source": "Bing"
      },
      "geometry": {
        "type": "Point",
        "coordinates": [
          -93.3358972,
          37.1379083
        ]
      },
      "id": "node/2708313027"
    },
    {
      "type": "Feature",
      "properties": {
        "@id": "node/2710405505",
        "name": "Rapid Roberts",
        "shop": "convenience",
        "source": "Bing"
      },
      "geometry": {
        "type": "Point",
        "coordinates": [
          -93.3703947,
          37.1243374
        ]
      },
      "id": "node/2710405505"
    },
    {
      "type": "Feature",
      "properties": {
        "@id": "node/2711741447",
        "addr:housenumber": "1278",
        "addr:postcode": "65738",
        "addr:street": "US Hwy 60 East",
        "name": "Rapid Robert's",
        "shop": "convenience",
        "source": "Bing",
        "website": "https://www.rapidrobertsinc.com/"
      },
      "geometry": {
        "type": "Point",
        "coordinates": [
          -93.458309,
          37.130728
        ]
      },
      "id": "node/2711741447"
    },
    {
      "type": "Feature",
      "properties": {
        "@id": "node/2711769424",
        "addr:housenumber": "638",
        "addr:postcode": "65738",
        "addr:street": "US Hwy 60 East",
        "automated": "yes",
        "brand": "Kum & Go",
        "brand:wikidata": "Q6443340",
        "brand:wikipedia": "en:Kum & Go",
        "name": "Kum & Go",
        "phone": "417-732-6440",
        "self_service": "no",
        "shop": "convenience",
        "source": "bing;Bing",
        "website": "https://kumandgo.com/"
      },
      "geometry": {
        "type": "Point",
        "coordinates": [
          -93.4693382,
          37.1190692
        ]
      },
      "id": "node/2711769424"
    },
    {
      "type": "Feature",
      "properties": {
        "@id": "node/2711801829",
        "addr:housenumber": "168",
        "addr:postcode": "65738",
        "addr:street": "US Hwy 60 East",
        "name": "Next Stop",
        "shop": "convenience",
        "source": "Bing"
      },
      "geometry": {
        "type": "Point",
        "coordinates": [
          -93.4789244,
          37.1135374
        ]
      },
      "id": "node/2711801829"
    },
    {
      "type": "Feature",
      "properties": {
        "@id": "node/2712066679",
        "addr:housenumber": "6935",
        "addr:postcode": "65738",
        "addr:street": "US Hwy 60",
        "brand": "Kum & Go",
        "brand:wikidata": "Q6443340",
        "brand:wikipedia": "en:Kum & Go",
        "name": "Kum & Go",
        "phone": "417-831-3011",
        "shop": "convenience",
        "source": "Bing",
        "website": "https://kumandgo.com/"
      },
      "geometry": {
        "type": "Point",
        "coordinates": [
          -93.4302199,
          37.1458275
        ]
      },
      "id": "node/2712066679"
    },
    {
      "type": "Feature",
      "properties": {
        "@id": "node/2712113157",
        "addr:housenumber": "3106",
        "addr:postcode": "65807",
        "addr:street": "West Battlefield Road",
        "name": "Rapid Robert's",
        "phone": "417-887-5405",
        "shop": "convenience",
        "source": "Bing",
        "website": "https://www.rapidrobertsinc.com/"
      },
      "geometry": {
        "type": "Point",
        "coordinates": [
          -93.3417499,
          37.159845
        ]
      },
      "id": "node/2712113157"
    },
    {
      "type": "Feature",
      "properties": {
        "@id": "node/2722784080",
        "addr:housenumber": "604",
        "addr:postcode": "65738",
        "addr:street": "North Main Avenue",
        "name": "Casey's General Store",
        "phone": "417-732-6517",
        "shop": "convenience",
        "source": "Bing",
        "website": "https://caseys.com/"
      },
      "geometry": {
        "type": "Point",
        "coordinates": [
          -93.4797793,
          37.1259573
        ]
      },
      "id": "node/2722784080"
    },
    {
      "type": "Feature",
      "properties": {
        "@id": "node/2726501815",
        "shop": "convenience",
        "source": "Bing"
      },
      "geometry": {
        "type": "Point",
        "coordinates": [
          -93.3627138,
          37.1381859
        ]
      },
      "id": "node/2726501815"
    },
    {
      "type": "Feature",
      "properties": {
        "@id": "node/2726621290",
        "addr:housenumber": "4020",
        "addr:postcode": "65807",
        "addr:street": "West Battlefield Road",
        "name": "Kum & Go",
        "phone": "417-887-8754",
        "shop": "convenience",
        "source": "Bing",
        "website": "https://kumandgo.com/"
      },
      "geometry": {
        "type": "Point",
        "coordinates": [
          -93.3623893,
          37.1601378
        ]
      },
      "id": "node/2726621290"
    },
    {
      "type": "Feature",
      "properties": {
        "@id": "node/2726621881",
        "addr:housenumber": "3535",
        "addr:postcode": "65807",
        "addr:street": "West Sunshine Street",
        "name": "Fast 'N Friendly",
        "phone": "417-831-3908",
        "shop": "convenience",
        "source": "Bing",
        "website": "https://www.sinclairoil.com/"
      },
      "geometry": {
        "type": "Point",
        "coordinates": [
          -93.3516283,
          37.1835557
        ]
      },
      "id": "node/2726621881"
    },
    {
      "type": "Feature",
      "properties": {
        "@id": "node/2727937865",
        "name": "Fast 'N Friendly",
        "shop": "convenience",
        "source": "Bing"
      },
      "geometry": {
        "type": "Point",
        "coordinates": [
          -93.3326512,
          37.1597737
        ]
      },
      "id": "node/2727937865"
    },
    {
      "type": "Feature",
      "properties": {
        "@id": "node/2728019044",
        "addr:housenumber": "3449",
        "addr:postcode": "65803",
        "addr:street": "West Kearney Street",
        "name": "Kum & Go",
        "phone": "417-865-6903",
        "shop": "convenience",
        "source": "Bing",
        "website": "https://kumandgo.com/"
      },
      "geometry": {
        "type": "Point",
        "coordinates": [
          -93.345794,
          37.2424001
        ]
      },
      "id": "node/2728019044"
    },
    {
      "type": "Feature",
      "properties": {
        "@id": "node/2728201973",
        "shop": "convenience",
        "source": "Bing"
      },
      "geometry": {
        "type": "Point",
        "coordinates": [
          -93.3849205,
          37.1681254
        ]
      },
      "id": "node/2728201973"
    },
    {
      "type": "Feature",
      "properties": {
        "@id": "node/2728286793",
        "addr:housenumber": "3109",
        "addr:postcode": "65807",
        "addr:street": "West Sunshine Street",
        "name": "Fastrip",
        "phone": "417-865-3276",
        "shop": "convenience",
        "source": "Bing"
      },
      "geometry": {
        "type": "Point",
        "coordinates": [
          -93.3410852,
          37.1834829
        ]
      },
      "id": "node/2728286793"
    },
    {
      "type": "Feature",
      "properties": {
        "@id": "node/2730569264",
        "name": "Kum & Go",
        "shop": "convenience",
        "source": "Bing",
        "wheelchair": "yes"
      },
      "geometry": {
        "type": "Point",
        "coordinates": [
          -93.3081967,
          37.1829945
        ]
      },
      "id": "node/2730569264"
    },
    {
      "type": "Feature",
      "properties": {
        "@id": "node/2730569266",
        "shop": "convenience",
        "source": "Bing",
        "wheelchair": "yes"
      },
      "geometry": {
        "type": "Point",
        "coordinates": [
          -93.318433,
          37.1848661
        ]
      },
      "id": "node/2730569266"
    },
    {
      "type": "Feature",
      "properties": {
        "@id": "node/2730633407",
        "name": "Fast & Friendly",
        "shop": "convenience",
        "source": "Bing"
      },
      "geometry": {
        "type": "Point",
        "coordinates": [
          -93.3169531,
          37.1664097
        ]
      },
      "id": "node/2730633407"
    },
    {
      "type": "Feature",
      "properties": {
        "@id": "node/2730663561",
        "name": "Hy-Vee Convenience",
        "shop": "convenience",
        "source": "Bing"
      },
      "geometry": {
        "type": "Point",
        "coordinates": [
          -93.314348,
          37.159559
        ]
      },
      "id": "node/2730663561"
    },
    {
      "type": "Feature",
      "properties": {
        "@id": "node/2730663627",
        "name": "Kum & Go",
        "shop": "convenience",
        "source": "Bing"
      },
      "geometry": {
        "type": "Point",
        "coordinates": [
          -93.309451,
          37.1607432
        ]
      },
      "id": "node/2730663627"
    },
    {
      "type": "Feature",
      "properties": {
        "@id": "node/2732870537",
        "shop": "convenience",
        "source": "Bing"
      },
      "geometry": {
        "type": "Point",
        "coordinates": [
          -93.2975679,
          37.1375542
        ]
      },
      "id": "node/2732870537"
    },
    {
      "type": "Feature",
      "properties": {
        "@id": "node/2735544235",
        "shop": "convenience",
        "source": "Bing"
      },
      "geometry": {
        "type": "Point",
        "coordinates": [
          -93.2958141,
          37.1707706
        ]
      },
      "id": "node/2735544235"
    },
    {
      "type": "Feature",
      "properties": {
        "@id": "node/2738443450",
        "shop": "convenience",
        "source": "Bing"
      },
      "geometry": {
        "type": "Point",
        "coordinates": [
          -93.262036,
          37.1766172
        ]
      },
      "id": "node/2738443450"
    },
    {
      "type": "Feature",
      "properties": {
        "@id": "node/2738443468",
        "name": "Circle K",
        "shop": "convenience",
        "source": "Bing"
      },
      "geometry": {
        "type": "Point",
        "coordinates": [
          -93.2629697,
          37.1761978
        ]
      },
      "id": "node/2738443468"
    },
    {
      "type": "Feature",
      "properties": {
        "@id": "node/2738575177",
        "name": "Kum & Go",
        "shop": "convenience",
        "source": "Bing"
      },
      "geometry": {
        "type": "Point",
        "coordinates": [
          -93.2492553,
          37.1805878
        ]
      },
      "id": "node/2738575177"
    },
    {
      "type": "Feature",
      "properties": {
        "@id": "node/2738833230",
        "shop": "convenience",
        "source": "Bing"
      },
      "geometry": {
        "type": "Point",
        "coordinates": [
          -93.2626999,
          37.1893737
        ]
      },
      "id": "node/2738833230"
    },
    {
      "type": "Feature",
      "properties": {
        "@id": "node/2738833242",
        "shop": "convenience",
        "source": "Bing"
      },
      "geometry": {
        "type": "Point",
        "coordinates": [
          -93.2658729,
          37.1813433
        ]
      },
      "id": "node/2738833242"
    },
    {
      "type": "Feature",
      "properties": {
        "@id": "node/2738833252",
        "name": "Kum & Go",
        "shop": "convenience",
        "source": "Bing"
      },
      "geometry": {
        "type": "Point",
        "coordinates": [
          -93.2369158,
          37.1800996
        ]
      },
      "id": "node/2738833252"
    },
    {
      "type": "Feature",
      "properties": {
        "@id": "node/2738875539",
        "shop": "convenience",
        "source": "Bing"
      },
      "geometry": {
        "type": "Point",
        "coordinates": [
          -93.262724,
          37.1966661
        ]
      },
      "id": "node/2738875539"
    },
    {
      "type": "Feature",
      "properties": {
        "@id": "node/2738875546",
        "shop": "convenience",
        "source": "Bing"
      },
      "geometry": {
        "type": "Point",
        "coordinates": [
          -93.2616752,
          37.1965977
        ]
      },
      "id": "node/2738875546"
    },
    {
      "type": "Feature",
      "properties": {
        "@id": "node/2738893453",
        "shop": "convenience",
        "source": "Bing"
      },
      "geometry": {
        "type": "Point",
        "coordinates": [
          -93.262386,
          37.2051606
        ]
      },
      "id": "node/2738893453"
    },
    {
      "type": "Feature",
      "properties": {
        "@id": "node/2738893457",
        "shop": "convenience",
        "source": "Bing"
      },
      "geometry": {
        "type": "Point",
        "coordinates": [
          -93.2622439,
          37.2067179
        ]
      },
      "id": "node/2738893457"
    },
    {
      "type": "Feature",
      "properties": {
        "@id": "node/2738912294",
        "shop": "convenience",
        "source": "Bing"
      },
      "geometry": {
        "type": "Point",
        "coordinates": [
          -93.275089,
          37.2142094
        ]
      },
      "id": "node/2738912294"
    },
    {
      "type": "Feature",
      "properties": {
        "@id": "node/2738959498",
        "brand": "Casey's General Store",
        "brand:wikidata": "Q2940968",
        "brand:wikipedia": "en:Casey's General Stores",
        "name": "Casey's General Store",
        "shop": "convenience",
        "source": "Bing"
      },
      "geometry": {
        "type": "Point",
        "coordinates": [
          -93.2604226,
          37.225786
        ]
      },
      "id": "node/2738959498"
    },
    {
      "type": "Feature",
      "properties": {
        "@id": "node/2738959504",
        "shop": "convenience",
        "source": "Bing"
      },
      "geometry": {
        "type": "Point",
        "coordinates": [
          -93.2602403,
          37.2428165
        ]
      },
      "id": "node/2738959504"
    },
    {
      "type": "Feature",
      "properties": {
        "@id": "node/2738959563",
        "shop": "convenience"
      },
      "geometry": {
        "type": "Point",
        "coordinates": [
          -93.2608196,
          37.2270098
        ]
      },
      "id": "node/2738959563"
    },
    {
      "type": "Feature",
      "properties": {
        "@id": "node/2738959636",
        "name": "White Oak",
        "shop": "convenience",
        "source": "Bing"
      },
      "geometry": {
        "type": "Point",
        "coordinates": [
          -93.2676432,
          37.2397417
        ]
      },
      "id": "node/2738959636"
    },
    {
      "type": "Feature",
      "properties": {
        "@id": "node/2738959662",
        "shop": "convenience",
        "source": "Bing"
      },
      "geometry": {
        "type": "Point",
        "coordinates": [
          -93.2613132,
          37.2447724
        ]
      },
      "id": "node/2738959662"
    },
    {
      "type": "Feature",
      "properties": {
        "@id": "node/2739004946",
        "shop": "convenience",
        "source": "Bing"
      },
      "geometry": {
        "type": "Point",
        "coordinates": [
          -93.2874271,
          37.2157175
        ]
      },
      "id": "node/2739004946"
    },
    {
      "type": "Feature",
      "properties": {
        "@id": "node/2739031199",
        "shop": "convenience",
        "source": "Bing"
      },
      "geometry": {
        "type": "Point",
        "coordinates": [
          -93.2955971,
          37.2159225
        ]
      },
      "id": "node/2739031199"
    },
    {
      "type": "Feature",
      "properties": {
        "@id": "node/2739066120",
        "shop": "convenience",
        "source": "Bing"
      },
      "geometry": {
        "type": "Point",
        "coordinates": [
          -93.3121786,
          37.2254656
        ]
      },
      "id": "node/2739066120"
    },
    {
      "type": "Feature",
      "properties": {
        "@id": "node/2739089017",
        "shop": "convenience",
        "source": "Bing"
      },
      "geometry": {
        "type": "Point",
        "coordinates": [
          -93.3102876,
          37.2480733
        ]
      },
      "id": "node/2739089017"
    },
    {
      "type": "Feature",
      "properties": {
        "@id": "node/2739089052",
        "shop": "convenience",
        "source": "Bing"
      },
      "geometry": {
        "type": "Point",
        "coordinates": [
          -93.3056125,
          37.2412065
        ]
      },
      "id": "node/2739089052"
    },
    {
      "type": "Feature",
      "properties": {
        "@id": "node/2739089060",
        "brand": "Casey's General Store",
        "brand:wikidata": "Q2940968",
        "brand:wikipedia": "en:Casey's General Stores",
        "name": "Casey's General Store",
        "shop": "convenience",
        "source": "Bing"
      },
      "geometry": {
        "type": "Point",
        "coordinates": [
          -93.3115936,
          37.2470403
        ]
      },
      "id": "node/2739089060"
    },
    {
      "type": "Feature",
      "properties": {
        "@id": "node/2739089073",
        "name": "Gas Trip",
        "shop": "convenience"
      },
      "geometry": {
        "type": "Point",
        "coordinates": [
          -93.2971978,
          37.2403089
        ]
      },
      "id": "node/2739089073"
    },
    {
      "type": "Feature",
      "properties": {
        "@id": "node/2740746310",
        "name": "Kum & Go",
        "shop": "convenience",
        "source": "Bing"
      },
      "geometry": {
        "type": "Point",
        "coordinates": [
          -93.2402289,
          37.2095524
        ]
      },
      "id": "node/2740746310"
    },
    {
      "type": "Feature",
      "properties": {
        "@id": "node/2741464662",
        "name": "Gas Plus",
        "shop": "convenience",
        "source": "Bing"
      },
      "geometry": {
        "type": "Point",
        "coordinates": [
          -93.3322496,
          37.2124358
        ]
      },
      "id": "node/2741464662"
    },
    {
      "type": "Feature",
      "properties": {
        "@id": "node/2741464668",
        "name": "Casey's General Store",
        "shop": "convenience",
        "source": "Bing"
      },
      "geometry": {
        "type": "Point",
        "coordinates": [
          -93.3304847,
          37.212769
        ]
      },
      "id": "node/2741464668"
    },
    {
      "type": "Feature",
      "properties": {
        "@id": "node/2741464672",
        "shop": "convenience",
        "source": "Bing"
      },
      "geometry": {
        "type": "Point",
        "coordinates": [
          -93.3264668,
          37.2084881
        ]
      },
      "id": "node/2741464672"
    },
    {
      "type": "Feature",
      "properties": {
        "@id": "node/2741482386",
        "shop": "convenience",
        "source": "Bing"
      },
      "geometry": {
        "type": "Point",
        "coordinates": [
          -93.3300851,
          37.2081121
        ]
      },
      "id": "node/2741482386"
    },
    {
      "type": "Feature",
      "properties": {
        "@id": "node/2741485284",
        "name": "Casey's General Store",
        "shop": "convenience",
        "source": "Bing"
      },
      "geometry": {
        "type": "Point",
        "coordinates": [
          -93.3314879,
          37.2020706
        ]
      },
      "id": "node/2741485284"
    },
    {
      "type": "Feature",
      "properties": {
        "@id": "node/2741523004",
        "brand": "Star Mart",
        "brand:wikidata": "Q61994857",
        "name": "Star Mart",
        "shop": "convenience",
        "source": "Bing"
      },
      "geometry": {
        "type": "Point",
        "coordinates": [
          -93.3581061,
          37.2127925
        ]
      },
      "id": "node/2741523004"
    },
    {
      "type": "Feature",
      "properties": {
        "@id": "node/2741523064",
        "name": "Casey's General Store",
        "shop": "convenience",
        "source": "Bing"
      },
      "geometry": {
        "type": "Point",
        "coordinates": [
          -93.3631326,
          37.2118526
        ]
      },
      "id": "node/2741523064"
    },
    {
      "type": "Feature",
      "properties": {
        "@id": "node/2750988087",
        "name": "Kum & Go",
        "shop": "convenience",
        "website": "https://kumandgo.com/"
      },
      "geometry": {
        "type": "Point",
        "coordinates": [
          -93.2748217,
          37.2513433
        ]
      },
      "id": "node/2750988087"
    },
    {
      "type": "Feature",
      "properties": {
        "@id": "node/2751213409",
        "addr:housenumber": "3165",
        "addr:postcode": "65803",
        "addr:street": "North Glenstone Avenue",
        "name": "Rapid Robert's",
        "phone": "417-833-8595",
        "shop": "convenience",
        "source": "Bing",
        "website": "https://www.rapidrobertsinc.com/"
      },
      "geometry": {
        "type": "Point",
        "coordinates": [
          -93.2655754,
          37.2547842
        ]
      },
      "id": "node/2751213409"
    },
    {
      "type": "Feature",
      "properties": {
        "@id": "node/2767129189",
        "name": "Shetler's Discount Grocery",
        "shop": "supermarket",
        "source": "local_knowledge"
      },
      "geometry": {
        "type": "Point",
        "coordinates": [
          -92.0981891,
          37.1121102
        ]
      },
      "id": "node/2767129189"
    },
    {
      "type": "Feature",
      "properties": {
        "@id": "node/2767129244",
        "name": "Town & Country Supermarket",
        "shop": "supermarket",
        "source": "local_knowledge",
        "toilets:wheelchair": "no",
        "wheelchair": "yes"
      },
      "geometry": {
        "type": "Point",
        "coordinates": [
          -92.1035375,
          37.1231143
        ]
      },
      "id": "node/2767129244"
    },
    {
      "type": "Feature",
      "properties": {
        "@id": "node/2780705818",
        "shop": "convenience",
        "source": "Bing"
      },
      "geometry": {
        "type": "Point",
        "coordinates": [
          -94.5015089,
          39.1294653
        ]
      },
      "id": "node/2780705818"
    },
    {
      "type": "Feature",
      "properties": {
        "@id": "node/2780724190",
        "shop": "convenience",
        "source": "Bing"
      },
      "geometry": {
        "type": "Point",
        "coordinates": [
          -94.5342667,
          39.1481387
        ]
      },
      "id": "node/2780724190"
    },
    {
      "type": "Feature",
      "properties": {
        "@id": "node/2780757983",
        "shop": "convenience",
        "source": "Bing"
      },
      "geometry": {
        "type": "Point",
        "coordinates": [
          -90.4425085,
          37.7733312
        ]
      },
      "id": "node/2780757983"
    },
    {
      "type": "Feature",
      "properties": {
        "@id": "node/2780808587",
        "shop": "convenience",
        "source": "Bing"
      },
      "geometry": {
        "type": "Point",
        "coordinates": [
          -94.5235375,
          38.8590548
        ]
      },
      "id": "node/2780808587"
    },
    {
      "type": "Feature",
      "properties": {
        "@id": "node/2780808655",
        "shop": "convenience",
        "source": "Bing"
      },
      "geometry": {
        "type": "Point",
        "coordinates": [
          -94.5247392,
          38.8571875
        ]
      },
      "id": "node/2780808655"
    },
    {
      "type": "Feature",
      "properties": {
        "@id": "node/2797891669",
        "name": "Express Stop",
        "shop": "convenience"
      },
      "geometry": {
        "type": "Point",
        "coordinates": [
          -94.5768804,
          39.1025473
        ]
      },
      "id": "node/2797891669"
    },
    {
      "type": "Feature",
      "properties": {
        "@id": "node/2862747130",
        "addr:city": "St. Louis",
        "addr:housenumber": "4200",
        "addr:postcode": "63110",
        "addr:street": "Shaw Boulevard",
        "name": "Shaw Market",
        "opening_hours": "Mo-Su 07:00-20:00",
        "phone": "(314) 771-3544",
        "shop": "convenience",
        "website": "https://www.facebook.com/ShawMarket"
      },
      "geometry": {
        "type": "Point",
        "coordinates": [
          -90.2537239,
          38.6162999
        ]
      },
      "id": "node/2862747130"
    },
    {
      "type": "Feature",
      "properties": {
        "@id": "node/2879970816",
        "shop": "convenience"
      },
      "geometry": {
        "type": "Point",
        "coordinates": [
          -89.5319199,
          37.086162
        ]
      },
      "id": "node/2879970816"
    },
    {
      "type": "Feature",
      "properties": {
        "@id": "node/2884316618",
        "brand": "Aldi",
        "brand:wikidata": "Q125054",
        "brand:wikipedia": "en:Aldi",
        "name": "Aldi",
        "shop": "supermarket"
      },
      "geometry": {
        "type": "Point",
        "coordinates": [
          -90.4115683,
          36.7626018
        ]
      },
      "id": "node/2884316618"
    },
    {
      "type": "Feature",
      "properties": {
        "@id": "node/2884368057",
        "brand": "Kroger",
        "brand:wikidata": "Q153417",
        "brand:wikipedia": "en:Kroger",
        "name": "Kroger",
        "shop": "supermarket"
      },
      "geometry": {
        "type": "Point",
        "coordinates": [
          -90.4289034,
          36.7862562
        ]
      },
      "id": "node/2884368057"
    },
    {
      "type": "Feature",
      "properties": {
        "@id": "node/2884434809",
        "addr:city": "St. Louis",
        "addr:housenumber": "3101",
        "addr:postcode": "63118",
        "addr:street": "Arsenal Street",
        "name": "Grove East Provisions",
        "opening_hours": "11:00-20:00",
        "shop": "convenience",
        "website": "https://www.facebook.com/pages/Grove-East-Provisions/670238153049198?ref"
      },
      "geometry": {
        "type": "Point",
        "coordinates": [
          -90.2332697,
          38.6014883
        ]
      },
      "id": "node/2884434809"
    },
    {
      "type": "Feature",
      "properties": {
        "@id": "node/2884659773",
        "addr:city": "Ladue",
        "addr:housenumber": "9155",
        "addr:postcode": "63124",
        "addr:street": "Clayton Road",
        "name": "Ladue Market",
        "opening_hours": "Mo-Sa 08:00-18:00; Su closed",
        "shop": "convenience"
      },
      "geometry": {
        "type": "Point",
        "coordinates": [
          -90.3660663,
          38.6415557
        ]
      },
      "id": "node/2884659773"
    },
    {
      "type": "Feature",
      "properties": {
        "@id": "node/2893531134",
        "addr:city": "North Kansas City",
        "addr:housenumber": "1910",
        "addr:postcode": "64116",
        "addr:state": "MO",
        "addr:street": "Armour Road",
        "name": "Burritos \"To Go\"",
        "shop": "convenience"
      },
      "geometry": {
        "type": "Point",
        "coordinates": [
          -94.5579698,
          39.1457781
        ]
      },
      "id": "node/2893531134"
    },
    {
      "type": "Feature",
      "properties": {
        "@id": "node/2910015124",
        "addr:city": "Buffalo",
        "addr:housenumber": "409",
        "addr:postcode": "65622",
        "addr:state": "MO",
        "addr:street": "S Ash St",
        "name": "Woods",
        "shop": "supermarket"
      },
      "geometry": {
        "type": "Point",
        "coordinates": [
          -93.105366,
          37.6419677
        ]
      },
      "id": "node/2910015124"
    },
    {
      "type": "Feature",
      "properties": {
        "@id": "node/2915807116",
        "addr:city": "Kansas City",
        "addr:housenumber": "10",
        "addr:postcode": "64106-2924",
        "addr:street": "East 13th Street",
        "name": "Cosentino's Downtown Market",
        "opening_hours": "Mo-Su 06:00-22:00",
        "phone": "+1 816 595-0050",
        "shop": "supermarket",
        "website": "http://www.cosentinos.com/downtown/location/"
      },
      "geometry": {
        "type": "Point",
        "coordinates": [
          -94.5830685,
          39.0987093
        ]
      },
      "id": "node/2915807116"
    },
    {
      "type": "Feature",
      "properties": {
        "@id": "node/2924791854",
        "brand": "Schnucks",
        "brand:wikidata": "Q7431920",
        "brand:wikipedia": "en:Schnucks",
        "name": "Schnucks",
        "shop": "supermarket"
      },
      "geometry": {
        "type": "Point",
        "coordinates": [
          -90.3444762,
          38.7898429
        ]
      },
      "id": "node/2924791854"
    },
    {
      "type": "Feature",
      "properties": {
        "@id": "node/2962675062",
        "name": "Mosers Grocery",
        "shop": "supermarket"
      },
      "geometry": {
        "type": "Point",
        "coordinates": [
          -92.3219141,
          39.0028265
        ]
      },
      "id": "node/2962675062"
    },
    {
      "type": "Feature",
      "properties": {
        "@id": "node/2969317511",
        "addr:street": "South Main Street",
        "brand": "Save-A-Lot",
        "brand:wikidata": "Q7427972",
        "brand:wikipedia": "en:Save-A-Lot",
        "name": "Save-A-Lot",
        "shop": "supermarket"
      },
      "geometry": {
        "type": "Point",
        "coordinates": [
          -89.5790616,
          36.8744311
        ]
      },
      "id": "node/2969317511"
    },
    {
      "type": "Feature",
      "properties": {
        "@id": "node/2969331869",
        "name": "Food Giant",
        "shop": "supermarket"
      },
      "geometry": {
        "type": "Point",
        "coordinates": [
          -89.5806173,
          36.8861583
        ]
      },
      "id": "node/2969331869"
    },
    {
      "type": "Feature",
      "properties": {
        "@id": "node/2972355842",
        "name": "Food Giant",
        "shop": "supermarket"
      },
      "geometry": {
        "type": "Point",
        "coordinates": [
          -89.5746211,
          36.8797626
        ]
      },
      "id": "node/2972355842"
    },
    {
      "type": "Feature",
      "properties": {
        "@id": "node/2973594614",
        "name": "McDonald's",
        "not:brand:wikidata": "Q38076",
        "note": "this is NOT a McDonald's fast food restaurant",
        "shop": "supermarket"
      },
      "geometry": {
        "type": "Point",
        "coordinates": [
          -89.3924146,
          36.7833543
        ]
      },
      "id": "node/2973594614"
    },
    {
      "type": "Feature",
      "properties": {
        "@id": "node/2973596403",
        "name": "Fred's",
        "shop": "convenience"
      },
      "geometry": {
        "type": "Point",
        "coordinates": [
          -89.3866801,
          36.7853048
        ]
      },
      "id": "node/2973596403"
    },
    {
      "type": "Feature",
      "properties": {
        "@id": "node/2973599904",
        "amenity": "marketplace",
        "name": "Vine's Meat Market"
      },
      "geometry": {
        "type": "Point",
        "coordinates": [
          -89.3568539,
          36.8023076
        ]
      },
      "id": "node/2973599904"
    },
    {
      "type": "Feature",
      "properties": {
        "@id": "node/2973608387",
        "name": "Dave's Bestway",
        "shop": "supermarket"
      },
      "geometry": {
        "type": "Point",
        "coordinates": [
          -89.6101269,
          36.5855518
        ]
      },
      "id": "node/2973608387"
    },
    {
      "type": "Feature",
      "properties": {
        "@id": "node/2989468472",
        "shop": "convenience"
      },
      "geometry": {
        "type": "Point",
        "coordinates": [
          -94.4860749,
          39.0821137
        ]
      },
      "id": "node/2989468472"
    },
    {
      "type": "Feature",
      "properties": {
        "@id": "node/2989685041",
        "brand": "7-Eleven",
        "brand:wikidata": "Q259340",
        "brand:wikipedia": "en:7-Eleven",
        "name": "7-Eleven",
        "shop": "convenience"
      },
      "geometry": {
        "type": "Point",
        "coordinates": [
          -94.584135,
          39.0133852
        ]
      },
      "id": "node/2989685041"
    },
    {
      "type": "Feature",
      "properties": {
        "@id": "node/3121154780",
        "name": "Price Cutter",
        "shop": "supermarket"
      },
      "geometry": {
        "type": "Point",
        "coordinates": [
          -93.1552437,
          37.3850892
        ]
      },
      "id": "node/3121154780"
    },
    {
      "type": "Feature",
      "properties": {
        "@id": "node/3126215207",
        "name": "Benton Market & Gas",
        "shop": "convenience"
      },
      "geometry": {
        "type": "Point",
        "coordinates": [
          -94.5504498,
          39.0902242
        ]
      },
      "id": "node/3126215207"
    },
    {
      "type": "Feature",
      "properties": {
        "@id": "node/3188970961",
        "addr:city": "St. Louis",
        "addr:street": "Delmar Blvd",
        "name": "United Provisions",
        "operator": "Jay International Foods",
        "shop": "supermarket",
        "source": "Local Knowledge",
        "website": "https://unitedprovisions.com/"
      },
      "geometry": {
        "type": "Point",
        "coordinates": [
          -90.3011819,
          38.6557544
        ]
      },
      "id": "node/3188970961"
    },
    {
      "type": "Feature",
      "properties": {
        "@id": "node/3189065501",
        "addr:city": "Saint Louis",
        "addr:housename": "Vanguard",
        "addr:postcode": "63103",
        "addr:state": "MO",
        "addr:street": "Washington Avenue",
        "designation": "Convenience",
        "name": "Copia Wine Mart and Bodega",
        "shop": "supermarket"
      },
      "geometry": {
        "type": "Point",
        "coordinates": [
          -90.1955199,
          38.6313544
        ]
      },
      "id": "node/3189065501"
    },
    {
      "type": "Feature",
      "properties": {
        "@id": "node/3189088861",
        "name": "Wizard's Wagon",
        "shop": "supermarket"
      },
      "geometry": {
        "type": "Point",
        "coordinates": [
          -90.3042304,
          38.6557785
        ]
      },
      "id": "node/3189088861"
    },
    {
      "type": "Feature",
      "properties": {
        "@id": "node/3202330109",
        "shop": "convenience"
      },
      "geometry": {
        "type": "Point",
        "coordinates": [
          -94.5536275,
          39.0624379
        ]
      },
      "id": "node/3202330109"
    },
    {
      "type": "Feature",
      "properties": {
        "@id": "node/3229892863",
        "name": "35th Street Market",
        "shop": "convenience"
      },
      "geometry": {
        "type": "Point",
        "coordinates": [
          -94.534529,
          39.0621993
        ]
      },
      "id": "node/3229892863"
    },
    {
      "type": "Feature",
      "properties": {
        "@id": "node/3234391186",
        "addr:city": "Chesterfield",
        "addr:housenumber": "300",
        "addr:postcode": "63005",
        "addr:street": "THF Boulevard",
        "brand": "ALDI",
        "brand:wikidata": "Q41171672",
        "brand:wikipedia": "en:Aldi",
        "name": "ALDI",
        "shop": "supermarket"
      },
      "geometry": {
        "type": "Point",
        "coordinates": [
          -90.6038879,
          38.6659419
        ]
      },
      "id": "node/3234391186"
    },
    {
      "type": "Feature",
      "properties": {
        "@id": "node/3234535672",
        "addr:city": "Bass Pro Drive",
        "addr:housenumber": "1335",
        "addr:postcode": "63301",
        "addr:state": "MO",
        "addr:street": "Bass Pro Drive",
        "brand": "Aldi",
        "brand:wikidata": "Q125054",
        "name": "Aldi",
        "opening_hours": "Mo-Sa 09:00-21:00; Su 09:00-20:00",
        "shop": "supermarket"
      },
      "geometry": {
        "type": "Point",
        "coordinates": [
          -90.4953841,
          38.7719881
        ]
      },
      "id": "node/3234535672"
    },
    {
      "type": "Feature",
      "properties": {
        "@id": "node/3234654790",
        "name": "X-Press Mart",
        "shop": "convenience"
      },
      "geometry": {
        "type": "Point",
        "coordinates": [
          -94.5539853,
          39.0383084
        ]
      },
      "id": "node/3234654790"
    },
    {
      "type": "Feature",
      "properties": {
        "@id": "node/3234732907",
        "addr:city": "Chesterfield",
        "addr:housenumber": "100",
        "addr:postcode": "63005",
        "addr:street": "THF Boulevard",
        "brand": "Walmart",
        "brand:wikidata": "Q483551",
        "brand:wikipedia": "en:Walmart",
        "name": "Walmart Supercenter",
        "opening_hours": "Mo-Su 07:00-23:00",
        "operator": "Walmart",
        "phone": "+1-636-536-4601",
        "ref:walmart": "2600",
        "shop": "supermarket",
        "website": "https://www.walmart.com/store/2600/chesterfield-mo/whats-new"
      },
      "geometry": {
        "type": "Point",
        "coordinates": [
          -90.591551,
          38.665861
        ]
      },
      "id": "node/3234732907"
    },
    {
      "type": "Feature",
      "properties": {
        "@id": "node/3260877183",
        "addr:city": "Saint Louis",
        "addr:housenumber": "434",
        "addr:postcode": "63101",
        "addr:state": "MO",
        "addr:street": "North 4th Street",
        "name": "James Henry Provisions",
        "opening_hours": "07:00-22:00",
        "phone": "+1 (314) 421-1177",
        "shop": "supermarket",
        "website": "https://www.yelp.com/biz/james-henry-provisions-co-saint-louis-2"
      },
      "geometry": {
        "type": "Point",
        "coordinates": [
          -90.1869749,
          38.6293054
        ]
      },
      "id": "node/3260877183"
    },
    {
      "type": "Feature",
      "properties": {
        "@id": "node/3496235567",
        "addr:city": "Warson Woods",
        "addr:housenumber": "9901",
        "addr:postcode": "63122",
        "addr:street": "Manchester Road",
        "name": "Dierbergs Warson Woods Market",
        "shop": "supermarket"
      },
      "geometry": {
        "type": "Point",
        "coordinates": [
          -90.3807969,
          38.6052848
        ]
      },
      "id": "node/3496235567"
    },
    {
      "type": "Feature",
      "properties": {
        "@id": "node/3513849013",
        "addr:city": "Spanish Lake",
        "addr:housenumber": "1589",
        "addr:postcode": "63138",
        "addr:street": "Sierra Vista Plaza",
        "brand": "Schnucks",
        "brand:wikidata": "Q7431920",
        "brand:wikipedia": "en:Schnucks",
        "name": "Schnucks",
        "note:city": "unincorporated",
        "note:post_town": "Saint Louis",
        "opening_hours": "Mo-Su 06:00-24:00",
        "phone": "314-355-8314",
        "shop": "supermarket"
      },
      "geometry": {
        "type": "Point",
        "coordinates": [
          -90.2193162,
          38.7723962
        ]
      },
      "id": "node/3513849013"
    },
    {
      "type": "Feature",
      "properties": {
        "@id": "node/3542238999",
        "addr:city": "Union",
        "addr:housenumber": "2397",
        "addr:postcode": "63084",
        "addr:state": "MO",
        "addr:street": "HWY 50",
        "name": "Jeffriesburg Store",
        "opening_hours": "10:00-19:00",
        "operator": "Shawnee Bend Farms",
        "shop": "supermarket"
      },
      "geometry": {
        "type": "Point",
        "coordinates": [
          -91.0883228,
          38.4404684
        ]
      },
      "id": "node/3542238999"
    },
    {
      "type": "Feature",
      "properties": {
        "@id": "node/3555372954",
        "brand": "Price Chopper",
        "brand:wikidata": "Q7242572",
        "brand:wikipedia": "en:Price Chopper (supermarket)",
        "name": "Price Chopper",
        "shop": "supermarket"
      },
      "geometry": {
        "type": "Point",
        "coordinates": [
          -94.3826925,
          39.0768323
        ]
      },
      "id": "node/3555372954"
    },
    {
      "type": "Feature",
      "properties": {
        "@id": "node/3603055517",
        "addr:city": "Raytown",
        "addr:housenumber": "9400",
        "addr:postcode": "64133",
        "addr:street": "E. 350 Highway",
        "brand": "Hy-Vee",
        "brand:wikidata": "Q1639719",
        "brand:wikipedia": "en:Hy-Vee",
        "name": "Hy-Vee",
        "shop": "supermarket"
      },
      "geometry": {
        "type": "Point",
        "coordinates": [
          -94.4696294,
          38.9937098
        ]
      },
      "id": "node/3603055517"
    },
    {
      "type": "Feature",
      "properties": {
        "@id": "node/3683181138",
        "shop": "convenience"
      },
      "geometry": {
        "type": "Point",
        "coordinates": [
          -94.4771183,
          37.0777751
        ]
      },
      "id": "node/3683181138"
    },
    {
      "type": "Feature",
      "properties": {
        "@id": "node/3683181139",
        "shop": "convenience"
      },
      "geometry": {
        "type": "Point",
        "coordinates": [
          -94.477036,
          37.0699969
        ]
      },
      "id": "node/3683181139"
    },
    {
      "type": "Feature",
      "properties": {
        "@id": "node/3688698536",
        "brand": "Kum & Go",
        "brand:wikidata": "Q6443340",
        "brand:wikipedia": "en:Kum & Go",
        "name": "Kum & Go",
        "shop": "convenience"
      },
      "geometry": {
        "type": "Point",
        "coordinates": [
          -94.474186,
          37.141606
        ]
      },
      "id": "node/3688698536"
    },
    {
      "type": "Feature",
      "properties": {
        "@id": "node/3755061633",
        "name": "Everyday Convenience/Liquor",
        "shop": "convenience"
      },
      "geometry": {
        "type": "Point",
        "coordinates": [
          -94.2716987,
          39.0461249
        ]
      },
      "id": "node/3755061633"
    },
    {
      "type": "Feature",
      "properties": {
        "@id": "node/3755070747",
        "name": "QuikTrip",
        "shop": "convenience"
      },
      "geometry": {
        "type": "Point",
        "coordinates": [
          -94.3521291,
          39.1314753
        ]
      },
      "id": "node/3755070747"
    },
    {
      "type": "Feature",
      "properties": {
        "@id": "node/3755119579",
        "name": "Temp Stop",
        "shop": "convenience"
      },
      "geometry": {
        "type": "Point",
        "coordinates": [
          -94.2738052,
          38.9445433
        ]
      },
      "id": "node/3755119579"
    },
    {
      "type": "Feature",
      "properties": {
        "@id": "node/3755119582",
        "name": "Hwy 7 General Store",
        "shop": "convenience"
      },
      "geometry": {
        "type": "Point",
        "coordinates": [
          -94.2658633,
          38.8906883
        ]
      },
      "id": "node/3755119582"
    },
    {
      "type": "Feature",
      "properties": {
        "@id": "node/3755162059",
        "name": "The Little General Store",
        "shop": "convenience"
      },
      "geometry": {
        "type": "Point",
        "coordinates": [
          -94.3048563,
          39.0290582
        ]
      },
      "id": "node/3755162059"
    },
    {
      "type": "Feature",
      "properties": {
        "@id": "node/3785014818",
        "amenity": "drinking_water"
      },
      "geometry": {
        "type": "Point",
        "coordinates": [
          12.4934389,
          41.8873381
        ]
      },
      "id": "node/3785014818"
    },
    {
      "type": "Feature",
      "properties": {
        "@id": "node/3798280827",
        "name": "99+",
        "shop": "supermarket"
      },
      "geometry": {
        "type": "Point",
        "coordinates": [
          -90.2134457,
          38.6662398
        ]
      },
      "id": "node/3798280827"
    },
    {
      "type": "Feature",
      "properties": {
        "@id": "node/3874022402",
        "name": "Patricia's Foods",
        "shop": "supermarket"
      },
      "geometry": {
        "type": "Point",
        "coordinates": [
          -94.2012423,
          39.0094647
        ]
      },
      "id": "node/3874022402"
    },