{
  "type": "FeatureCollection",
  "generator": "overpass-ide",
  "copyright": "The data included in this document is from www.openstreetmap.org. The data is made available under ODbL.",
  "timestamp": "2023-03-06T00:04:36Z",
  "features": [
    {
      "type": "Feature",
      "properties": {
        "@id": "node/25603734",
        "amenity": "fuel",
        "brand": "Valero",
        "brand:wikidata": "Q1283291",
        "name": "Valero",
        "shop": "convenience"
      },
      "geometry": {
        "type": "Point",
        "coordinates": [
          -75.2640255,
          40.7564615
        ]
      },
      "id": "node/25603734"
    },
    {
      "type": "Feature",
      "properties": {
        "@id": "node/35320669",
        "brand": "Giant",
        "brand:wikidata": "Q5558332",
        "brand:wikipedia": "en:The Giant Company",
        "name": "Giant",
        "opening_hours": "00:00-24:00; Dec 25 off",
        "shop": "supermarket"
      },
      "geometry": {
        "type": "Point",
        "coordinates": [
          -76.9358717,
          40.2364709
        ]
      },
      "id": "node/35320669"
    },
    {
      "type": "Feature",
      "properties": {
        "@id": "node/35677169",
        "created_by": "Potlatch 0.4a",
        "name": "Weis Market",
        "shop": "supermarket"
      },
      "geometry": {
        "type": "Point",
        "coordinates": [
          -76.9742223,
          40.2180088
        ]
      },
      "id": "node/35677169"
    },
    {
      "type": "Feature",
      "properties": {
        "@id": "node/35677170",
        "amenity": "fuel",
        "name": "Turkey Hill",
        "shop": "convenience"
      },
      "geometry": {
        "type": "Point",
        "coordinates": [
          -76.9771807,
          40.2183633
        ]
      },
      "id": "node/35677170"
    },
    {
      "type": "Feature",
      "properties": {
        "@id": "node/35677186",
        "created_by": "JOSM",
        "name": "Giant",
        "shop": "supermarket"
      },
      "geometry": {
        "type": "Point",
        "coordinates": [
          -76.9943473,
          40.2161286
        ]
      },
      "id": "node/35677186"
    },
    {
      "type": "Feature",
      "properties": {
        "@id": "node/201315049",
        "addr:city": "New Cumberland",
        "addr:housenumber": "130",
        "addr:postcode": "17070",
        "addr:state": "PA",
        "addr:street": "Old York Road",
        "brand": "Giant",
        "brand:wikidata": "Q5558332",
        "brand:wikipedia": "en:The Giant Company",
        "name": "Giant",
        "shop": "supermarket"
      },
      "geometry": {
        "type": "Point",
        "coordinates": [
          -76.8579238,
          40.2217147
        ]
      },
      "id": "node/201315049"
    },
    {
      "type": "Feature",
      "properties": {
        "@id": "node/245483416",
        "addr:city": "Mechanicsburg",
        "addr:housenumber": "6560",
        "addr:postcode": "17050",
        "addr:street": "Carlisle Pike",
        "brand": "Giant",
        "brand:wikidata": "Q5558332",
        "brand:wikipedia": "en:The Giant Company",
        "name": "Giant",
        "shop": "supermarket"
      },
      "geometry": {
        "type": "Point",
        "coordinates": [
          -77.0311854,
          40.2473683
        ]
      },
      "id": "node/245483416"
    },
    {
      "type": "Feature",
      "properties": {
        "@id": "node/257492818",
        "addr:city": "Duncannon",
        "addr:housenumber": "1550",
        "addr:postcode": "17020",
        "addr:state": "PA",
        "addr:street": "State Road",
        "alt_name": "Sheetz #288",
        "amenity": "fuel",
        "name": "Sheetz",
        "opening_hours": "24/7",
        "operator": "Sheetz #288",
        "phone": "+1 717 957 0188",
        "shop": "convenience",
        "source": "website",
        "website": "https://www.sheetz.com/locations/locations.jsp?txtlocatefromhome=17020"
      },
      "geometry": {
        "type": "Point",
        "coordinates": [
          -76.9870605,
          40.355677
        ]
      },
      "id": "node/257492818"
    },
    {
      "type": "Feature",
      "properties": {
        "@id": "node/259500777",
        "addr:city": "Coplay",
        "addr:housenumber": "202",
        "addr:postcode": "18037",
        "addr:state": "PA",
        "addr:street": "Chestnut Street",
        "name": "Giant",
        "shop": "supermarket"
      },
      "geometry": {
        "type": "Point",
        "coordinates": [
          -75.4941485,
          40.6745587
        ]
      },
      "id": "node/259500777"
    },
    {
      "type": "Feature",
      "properties": {
        "@id": "node/259618603",
        "name": "Giant",
        "shop": "supermarket",
        "wheelchair": "yes"
      },
      "geometry": {
        "type": "Point",
        "coordinates": [
          -75.3412052,
          40.5628642
        ]
      },
      "id": "node/259618603"
    },
    {
      "type": "Feature",
      "properties": {
        "@id": "node/265610646",
        "created_by": "Potlatch 0.9b",
        "name": "Asian Indian Grocery & Spice",
        "shop": "supermarket"
      },
      "geometry": {
        "type": "Point",
        "coordinates": [
          -76.9583132,
          40.2375043
        ]
      },
      "id": "node/265610646"
    },
    {
      "type": "Feature",
      "properties": {
        "@id": "node/266310881",
        "amenity": "drinking_water"
      },
      "geometry": {
        "type": "Point",
        "coordinates": [
          12.4934985,
          41.8923773
        ]
      },
      "id": "node/266310881"
    },
    {
      "type": "Feature",
      "properties": {
        "@id": "node/274216093",
        "amenity": "atm",
        "brand": "Citibank",
        "brand:wikidata": "Q857063",
        "brand:wikipedia": "en:Citibank",
        "name": "Citibank",
        "operator": "Citibank",
        "operator:wikidata": "Q857063",
        "operator:wikipedia": "en:Citibank",
        "shop": "convenience",
        "short_name": "Citi"
      },
      "geometry": {
        "type": "Point",
        "coordinates": [
          -75.1912584,
          39.9576548
        ]
      },
      "id": "node/274216093"
    },
    {
      "type": "Feature",
      "properties": {
        "@id": "node/288049644",
        "amenity": "fuel",
        "name": "Turkey Hill Convenience Store",
        "shop": "convenience"
      },
      "geometry": {
        "type": "Point",
        "coordinates": [
          -75.5480748,
          40.1810974
        ]
      },
      "id": "node/288049644"
    },
    {
      "type": "Feature",
      "properties": {
        "@id": "node/302420632",
        "name": "Cedar Run General Store",
        "shop": "convenience",
        "source": "local_knowledge"
      },
      "geometry": {
        "type": "Point",
        "coordinates": [
          -77.4469521,
          41.522359
        ]
      },
      "id": "node/302420632"
    },
    {
      "type": "Feature",
      "properties": {
        "@id": "node/333786275",
        "addr:housename": "929",
        "addr:housenumber": "929",
        "addr:street": "South Street",
        "name": "Whole Foods Philadelphia 2",
        "shop": "supermarket",
        "source": "knowledge",
        "wheelchair": "yes"
      },
      "geometry": {
        "type": "Point",
        "coordinates": [
          -75.1581249,
          39.9428324
        ]
      },
      "id": "node/333786275"
    },
    {
      "type": "Feature",
      "properties": {
        "@id": "node/356889610",
        "addr:city": "Pittsburgh",
        "addr:country": "US",
        "addr:housenumber": "5550",
        "addr:postcode": "15232",
        "addr:state": "PA",
        "addr:street": "Centre Avenue",
        "branch": "Market District",
        "brand": "Giant Eagle",
        "brand:wikidata": "Q1522721",
        "brand:wikipedia": "en:Giant Eagle",
        "name": "Giant Eagle",
        "opening_hours": "06:00-24:00",
        "operator": "Giant Eagle",
        "shop": "supermarket"
      },
      "geometry": {
        "type": "Point",
        "coordinates": [
          -79.9345217,
          40.4567199
        ]
      },
      "id": "node/356889610"
    },
    {
      "type": "Feature",
      "properties": {
        "@id": "node/361009251",
        "brand": "Wawa",
        "brand:wikidata": "Q5936320",
        "brand:wikipedia": "en:Wawa (company)",
        "name": "Wawa",
        "opening_hours": "24/7",
        "shop": "convenience"
      },
      "geometry": {
        "type": "Point",
        "coordinates": [
          -75.1683345,
          39.955196
        ]
      },
      "id": "node/361009251"
    },
    {
      "type": "Feature",
      "properties": {
        "@id": "node/362463525",
        "addr:city": "Milton",
        "addr:housenumber": "555",
        "addr:postcode": "17847",
        "addr:street": "Mahoning Street",
        "name": "Weis Market",
        "shop": "supermarket"
      },
      "geometry": {
        "type": "Point",
        "coordinates": [
          -76.844324,
          41.0120538
        ]
      },
      "id": "node/362463525"
    },
    {
      "type": "Feature",
      "properties": {
        "@id": "node/362464137",
        "amenity": "fuel",
        "created_by": "Potlatch 0.10f",
        "name": "Turkey Hill",
        "shop": "convenience"
      },
      "geometry": {
        "type": "Point",
        "coordinates": [
          -76.839188,
          41.0099164
        ]
      },
      "id": "node/362464137"
    },
    {
      "type": "Feature",
      "properties": {
        "@id": "node/366697023",
        "created_by": "Potlatch 0.10f",
        "operator": "John Herr's Village Market",
        "shop": "supermarket"
      },
      "geometry": {
        "type": "Point",
        "coordinates": [
          -76.3586529,
          40.0099301
        ]
      },
      "id": "node/366697023"
    },
    {
      "type": "Feature",
      "properties": {
        "@id": "node/367865319",
        "amenity": "fuel",
        "created_by": "Potlatch 0.10f",
        "name": "Sheetz",
        "shop": "convenience"
      },
      "geometry": {
        "type": "Point",
        "coordinates": [
          -77.0314521,
          40.9238318
        ]
      },
      "id": "node/367865319"
    },
    {
      "type": "Feature",
      "properties": {
        "@id": "node/367865352",
        "created_by": "Potlatch 0.10f",
        "name": "Weis Market",
        "shop": "supermarket"
      },
      "geometry": {
        "type": "Point",
        "coordinates": [
          -77.0327481,
          40.9238966
        ]
      },
      "id": "node/367865352"
    },
    {
      "type": "Feature",
      "properties": {
        "@id": "node/369470469",
        "amenity": "fuel",
        "created_by": "Potlatch 0.10f",
        "name": "Sunoco",
        "shop": "convenience"
      },
      "geometry": {
        "type": "Point",
        "coordinates": [
          -76.9083331,
          40.9575696
        ]
      },
      "id": "node/369470469"
    },
    {
      "type": "Feature",
      "properties": {
        "@id": "node/388984003",
        "amenity": "drinking_water",
        "fountain": "nasone"
      },
      "geometry": {
        "type": "Point",
        "coordinates": [
          12.494519,
          41.8877413
        ]
      },
      "id": "node/388984003"
    },
    {
      "type": "Feature",
      "properties": {
        "@id": "node/408616826",
        "name": "Unit-Mart",
        "shop": "convenience"
      },
      "geometry": {
        "type": "Point",
        "coordinates": [
          -76.9445553,
          40.2883902
        ]
      },
      "id": "node/408616826"
    },
    {
      "type": "Feature",
      "properties": {
        "@id": "node/412045685",
        "name": "Bloomfield Groceria",
        "shop": "grocery"
      },
      "geometry": {
        "type": "Point",
        "coordinates": [
          -79.9485201,
          40.4618691
        ]
      },
      "id": "node/412045685"
    },
    {
      "type": "Feature",
      "properties": {
        "@id": "node/412045700",
        "addr:city": "Pittsburgh",
        "addr:housenumber": "4779",
        "addr:postcode": "15224",
        "addr:state": "PA",
        "addr:street": "Liberty Avenue",
        "atm": "yes",
        "atm:operator": "Citizens Bank",
        "brand": "Sunoco",
        "brand:wikidata": "Q1423218",
        "brand:wikipedia": "en:Sunoco",
        "name": "Sunoco",
        "opening_hours:atm": "24/7",
        "shop": "convenience"
      },
      "geometry": {
        "type": "Point",
        "coordinates": [
          -79.9472756,
          40.4611507
        ]
      },
      "id": "node/412045700"
    },
    {
      "type": "Feature",
      "properties": {
        "@id": "node/412338071",
        "addr:city": "Philadelphia",
        "addr:housenumber": "6901",
        "addr:postcode": "19128",
        "addr:street": "Ridge Avenue",
        "brand": "ShopRite",
        "brand:wikidata": "Q7501097",
        "name": "ShopRite",
        "opening_hours": "Mo-Su 06:00-23:00",
        "shop": "supermarket",
        "website": "www.shoprite.com",
        "wheelchair": "yes"
      },
      "geometry": {
        "type": "Point",
        "coordinates": [
          -75.2274388,
          40.0439981
        ]
      },
      "id": "node/412338071"
    },
    {
      "type": "Feature",
      "properties": {
        "@id": "node/422162258",
        "brand": "Weis",
        "brand:wikidata": "Q7980370",
        "brand:wikipedia": "en:Weis Markets",
        "name": "Weis",
        "shop": "supermarket"
      },
      "geometry": {
        "type": "Point",
        "coordinates": [
          -76.8240117,
          40.2765611
        ]
      },
      "id": "node/422162258"
    },
    {
      "type": "Feature",
      "properties": {
        "@id": "node/443469134",
        "name": "Giant Foods",
        "shop": "supermarket"
      },
      "geometry": {
        "type": "Point",
        "coordinates": [
          -76.700117,
          40.3115299
        ]
      },
      "id": "node/443469134"
    },
    {
      "type": "Feature",
      "properties": {
        "@id": "node/445484928",
        "name": "Forest Hill General Store",
        "shop": "convenience"
      },
      "geometry": {
        "type": "Point",
        "coordinates": [
          -77.0488008,
          40.9747526
        ]
      },
      "id": "node/445484928"
    },
    {
      "type": "Feature",
      "properties": {
        "@id": "node/446107282",
        "brand": "Acme",
        "brand:wikidata": "Q341975",
        "brand:wikipedia": "en:Acme Markets",
        "name": "Acme",
        "shop": "supermarket"
      },
      "geometry": {
        "type": "Point",
        "coordinates": [
          -75.2581299,
          40.0109644
        ]
      },
      "id": "node/446107282"
    },
    {
      "type": "Feature",
      "properties": {
        "@id": "node/457281302",
        "brand": "7-Eleven",
        "brand:wikidata": "Q259340",
        "brand:wikipedia": "en:7-Eleven",
        "name": "7-Eleven",
        "operator": "7-11",
        "shop": "convenience"
      },
      "geometry": {
        "type": "Point",
        "coordinates": [
          -76.8031073,
          40.2581486
        ]
      },
      "id": "node/457281302"
    },
    {
      "type": "Feature",
      "properties": {
        "@id": "node/470342170",
        "name": "Freshlife",
        "shop": "supermarket",
        "url": "http://www.freshlife.com"
      },
      "geometry": {
        "type": "Point",
        "coordinates": [
          -76.9570492,
          41.2470902
        ]
      },
      "id": "node/470342170"
    },
    {
      "type": "Feature",
      "properties": {
        "@id": "node/479979485",
        "addr:city": "Perkasie",
        "addr:housenumber": "543",
        "addr:postcode": "18944",
        "addr:street": "Constitution Avenue",
        "name": "Landis Supermarket",
        "opening_hours": "Mo-Sa 07:00-22:00; Su 08:00-21:00",
        "phone": "+1 215 453 8448",
        "shop": "supermarket",
        "website": "https://www.landismarket.com/"
      },
      "geometry": {
        "type": "Point",
        "coordinates": [
          -75.2971147,
          40.3629949
        ]
      },
      "id": "node/479979485"
    },
    {
      "type": "Feature",
      "properties": {
        "@id": "node/495113034",
        "amenity": "drinking_water",
        "check_date": "2022-06-22"
      },
      "geometry": {
        "type": "Point",
        "coordinates": [
          12.4934283,
          41.8913309
        ]
      },
      "id": "node/495113034"
    },
    {
      "type": "Feature",
      "properties": {
        "@id": "node/503738251",
        "name": "Mifflin Market",
        "shop": "convenience"
      },
      "geometry": {
        "type": "Point",
        "coordinates": [
          -76.3110911,
          41.0311482
        ]
      },
      "id": "node/503738251"
    },
    {
      "type": "Feature",
      "properties": {
        "@id": "node/529747300",
        "addr:city": "Campbelltown",
        "addr:housenumber": "2949",
        "addr:postcode": "17078",
        "addr:state": "PA",
        "addr:street": "Horseshoe Pike",
        "brand": "Speedway",
        "brand:wikidata": "Q7575683",
        "brand:wikipedia": "en:Speedway (store)",
        "name": "Speedway",
        "opening_hours": "Mo-Su 06:00-24:00",
        "payment:cash": "yes",
        "payment:credit_cards": "yes",
        "ref": "6766",
        "shop": "convenience"
      },
      "geometry": {
        "type": "Point",
        "coordinates": [
          -76.5903321,
          40.2775172
        ]
      },
      "id": "node/529747300"
    },
    {
      "type": "Feature",
      "properties": {
        "@id": "node/529747312",
        "brand": "Turkey Hill",
        "brand:wikidata": "Q42376970",
        "brand:wikipedia": "en:Turkey Hill Minit Markets",
        "name": "Turkey Hill",
        "shop": "convenience"
      },
      "geometry": {
        "type": "Point",
        "coordinates": [
          -76.5851375,
          40.2769981
        ]
      },
      "id": "node/529747312"
    },
    {
      "type": "Feature",
      "properties": {
        "@id": "node/536209356",
        "addr:city": "Elysburg",
        "addr:housenumber": "122",
        "addr:postcode": "17824",
        "addr:state": "PA",
        "addr:street": "East Valley Avenue",
        "amenity": "fuel",
        "compressed_air": "yes",
        "name": "Turkey Hill",
        "shop": "convenience"
      },
      "geometry": {
        "type": "Point",
        "coordinates": [
          -76.5484554,
          40.8616005
        ]
      },
      "id": "node/536209356"
    },
    {
      "type": "Feature",
      "properties": {
        "@id": "node/538417280",
        "name": "Landis Market",
        "shop": "supermarket"
      },
      "geometry": {
        "type": "Point",
        "coordinates": [
          -75.3344943,
          40.3306423
        ]
      },
      "id": "node/538417280"
    },
    {
      "type": "Feature",
      "properties": {
        "@id": "node/551879508",
        "amenity": "fuel",
        "name": "B & C Mini Mart",
        "shop": "convenience"
      },
      "geometry": {
        "type": "Point",
        "coordinates": [
          -75.2710333,
          40.7550258
        ]
      },
      "id": "node/551879508"
    },
    {
      "type": "Feature",
      "properties": {
        "@id": "node/552403432",
        "shop": "supermarket"
      },
      "geometry": {
        "type": "Point",
        "coordinates": [
          -74.8334913,
          40.1898695
        ]
      },
      "id": "node/552403432"
    },
    {
      "type": "Feature",
      "properties": {
        "@id": "node/595484364",
        "name": "Shure Save",
        "shop": "supermarket"
      },
      "geometry": {
        "type": "Point",
        "coordinates": [
          -78.6364997,
          41.7258822
        ]
      },
      "id": "node/595484364"
    },
    {
      "type": "Feature",
      "properties": {
        "@id": "node/595484366",
        "shop": "convenience"
      },
      "geometry": {
        "type": "Point",
        "coordinates": [
          -78.694768,
          41.7078952
        ]
      },
      "id": "node/595484366"
    },
    {
      "type": "Feature",
      "properties": {
        "@id": "node/595484685",
        "shop": "convenience"
      },
      "geometry": {
        "type": "Point",
        "coordinates": [
          -78.6798056,
          41.4930467
        ]
      },
      "id": "node/595484685"
    },
    {
      "type": "Feature",
      "properties": {
        "@id": "node/595485030",
        "shop": "convenience"
      },
      "geometry": {
        "type": "Point",
        "coordinates": [
          -77.5238066,
          41.0245303
        ]
      },
      "id": "node/595485030"
    },
    {
      "type": "Feature",
      "properties": {
        "@id": "node/595485032",
        "shop": "convenience"
      },
      "geometry": {
        "type": "Point",
        "coordinates": [
          -77.5229161,
          41.0285368
        ]
      },
      "id": "node/595485032"
    },
    {
      "type": "Feature",
      "properties": {
        "@id": "node/595485033",
        "shop": "convenience"
      },
      "geometry": {
        "type": "Point",
        "coordinates": [
          -77.5204485,
          41.0280674
        ]
      },
      "id": "node/595485033"
    },
    {
      "type": "Feature",
      "properties": {
        "@id": "node/595485058",
        "name": "Ingram's Market",
        "shop": "convenience"
      },
      "geometry": {
        "type": "Point",
        "coordinates": [
          -77.6769071,
          40.9181847
        ]
      },
      "id": "node/595485058"
    },
    {
      "type": "Feature",
      "properties": {
        "@id": "node/595759308",
        "addr:housenumber": "7010",
        "addr:postcode": "19119",
        "addr:street": "Germantown Ave",
        "brand": "Acme",
        "brand:wikidata": "Q341975",
        "brand:wikipedia": "en:Acme Markets",
        "name": "Acme",
        "phone": "(215) 247-1160",
        "shop": "supermarket",
        "website": "https://www.acmemarkets.com/"
      },
      "geometry": {
        "type": "Point",
        "coordinates": [
          -75.1892173,
          40.0567894
        ]
      },
      "id": "node/595759308"
    },
    {
      "type": "Feature",
      "properties": {
        "@id": "node/610825890",
        "name": "Back Achers Farmstore",
        "shop": "convenience"
      },
      "geometry": {
        "type": "Point",
        "coordinates": [
          -76.3943826,
          41.867557
        ]
      },
      "id": "node/610825890"
    },
    {
      "type": "Feature",
      "properties": {
        "@id": "node/615069015",
        "branch": "Savon",
        "brand": "Acme",
        "brand:wikidata": "Q341975",
        "name": "Acme",
        "shop": "supermarket"
      },
      "geometry": {
        "type": "Point",
        "coordinates": [
          -75.3786135,
          39.915986
        ]
      },
      "id": "node/615069015"
    },
    {
      "type": "Feature",
      "properties": {
        "@id": "node/616069539",
        "addr:city": "Newtown",
        "addr:housenumber": "48",
        "addr:postcode": "18940",
        "addr:state": "PA",
        "addr:street": "West Road",
        "brand": "Acme",
        "brand:wikidata": "Q341975",
        "brand:wikipedia": "en:Acme Markets",
        "name": "Acme",
        "phone": "+1-215-504-9585",
        "shop": "supermarket"
      },
      "geometry": {
        "type": "Point",
        "coordinates": [
          -74.9451833,
          40.2346371
        ]
      },
      "id": "node/616069539"
    },
    {
      "type": "Feature",
      "properties": {
        "@id": "node/616557004",
        "name": "McCaffrey's",
        "shop": "supermarket"
      },
      "geometry": {
        "type": "Point",
        "coordinates": [
          -74.8719504,
          40.2206561
        ]
      },
      "id": "node/616557004"
    },
    {
      "type": "Feature",
      "properties": {
        "@id": "node/616557008",
        "brand": "Giant",
        "brand:wikidata": "Q5558332",
        "name": "Giant",
        "shop": "supermarket"
      },
      "geometry": {
        "type": "Point",
        "coordinates": [
          -74.8738962,
          40.222051
        ]
      },
      "id": "node/616557008"
    },
    {
      "type": "Feature",
      "properties": {
        "@id": "node/634366911",
        "brand": "ShopRite",
        "brand:wikidata": "Q7501097",
        "brand:wikipedia": "en:ShopRite (United States)",
        "name": "ShopRite",
        "shop": "supermarket"
      },
      "geometry": {
        "type": "Point",
        "coordinates": [
          -75.2237487,
          39.9782004
        ]
      },
      "id": "node/634366911"
    },
    {
      "type": "Feature",
      "properties": {
        "@id": "node/666303125",
        "addr:city": "Philadelphia",
        "addr:housename": "Northside Dining Terrace",
        "addr:housenumber": "3351",
        "addr:postcode": "19104",
        "addr:state": "PA",
        "addr:street": "Race Street",
        "name": "Northside Market",
        "opening_hours": "Mo-Fr 10:00-01:00;Sa,Su 08:00-01:00",
        "shop": "convenience"
      },
      "geometry": {
        "type": "Point",
        "coordinates": [
          -75.1903089,
          39.9588966
        ]
      },
      "id": "node/666303125"
    },
    {
      "type": "Feature",
      "properties": {
        "@id": "node/671029136",
        "name": "WaWa",
        "shop": "convenience"
      },
      "geometry": {
        "type": "Point",
        "coordinates": [
          -75.4014006,
          40.6000133
        ]
      },
      "id": "node/671029136"
    },
    {
      "type": "Feature",
      "properties": {
        "@id": "node/679225775",
        "amenity": "fuel",
        "name": "Rossi's",
        "shop": "convenience"
      },
      "geometry": {
        "type": "Point",
        "coordinates": [
          -78.2902064,
          40.6319015
        ]
      },
      "id": "node/679225775"
    },
    {
      "type": "Feature",
      "properties": {
        "@id": "node/685457655",
        "amenity": "drinking_water",
        "check_date": "2021-11-01"
      },
      "geometry": {
        "type": "Point",
        "coordinates": [
          12.4867108,
          41.8902623
        ]
      },
      "id": "node/685457655"
    },
    {
      "type": "Feature",
      "properties": {
        "@id": "node/685461877",
        "amenity": "drinking_water",
        "check_date": "2021-11-01"
      },
      "geometry": {
        "type": "Point",
        "coordinates": [
          12.4875779,
          41.8891234
        ]
      },
      "id": "node/685461877"
    },
    {
      "type": "Feature",
      "properties": {
        "@id": "node/693321396",
        "addr:city": "Annville",
        "addr:state": "PA",
        "addr:street": "Fisher Avenue",
        "amenity": "fuel",
        "created_by": "iLOE 1.9",
        "name": "Funck's Mini Mart",
        "shop": "convenience"
      },
      "geometry": {
        "type": "Point",
        "coordinates": [
          -76.5763882,
          40.4215709
        ]
      },
      "id": "node/693321396"
    },
    {
      "type": "Feature",
      "properties": {
        "@id": "node/693938111",
        "name": "L. H. Gross Manorette",
        "shop": "supermarket"
      },
      "geometry": {
        "type": "Point",
        "coordinates": [
          -76.8646026,
          40.1356148
        ]
      },
      "id": "node/693938111"
    },
    {
      "type": "Feature",
      "properties": {
        "@id": "node/708272893",
        "brand": "7-Eleven",
        "brand:wikidata": "Q259340",
        "brand:wikipedia": "en:7-Eleven",
        "name": "7-Eleven",
        "shop": "convenience"
      },
      "geometry": {
        "type": "Point",
        "coordinates": [
          -75.4759344,
          40.0418225
        ]
      },
      "id": "node/708272893"
    },
    {
      "type": "Feature",
      "properties": {
        "@id": "node/708275411",
        "brand": "Wawa",
        "brand:wikidata": "Q5936320",
        "brand:wikipedia": "en:Wawa (company)",
        "name": "Wawa",
        "shop": "convenience"
      },
      "geometry": {
        "type": "Point",
        "coordinates": [
          -75.4050969,
          40.0447332
        ]
      },
      "id": "node/708275411"
    },
    {
      "type": "Feature",
      "properties": {
        "@id": "node/708275944",
        "brand": "Wawa",
        "brand:wikidata": "Q5936320",
        "brand:wikipedia": "en:Wawa (company)",
        "name": "Wawa",
        "shop": "convenience"
      },
      "geometry": {
        "type": "Point",
        "coordinates": [
          -75.3928055,
          40.0445084
        ]
      },
      "id": "node/708275944"
    },
    {
      "type": "Feature",
      "properties": {
        "@id": "node/708868630",
        "name": "Pantry 1",
        "shop": "convenience"
      },
      "geometry": {
        "type": "Point",
        "coordinates": [
          -75.3775068,
          40.6102908
        ]
      },
      "id": "node/708868630"
    },
    {
      "type": "Feature",
      "properties": {
        "@id": "node/715152978",
        "brand": "Giant Eagle",
        "brand:wikidata": "Q1522721",
        "brand:wikipedia": "en:Giant Eagle",
        "name": "Giant Eagle",
        "shop": "supermarket"
      },
      "geometry": {
        "type": "Point",
        "coordinates": [
          -80.2289463,
          40.1864251
        ]
      },
      "id": "node/715152978"
    },
    {
      "type": "Feature",
      "properties": {
        "@id": "node/728079044",
        "addr:city": "Plymouth Meeting",
        "addr:housenumber": "500",
        "addr:postcode": "19462",
        "addr:state": "PA",
        "addr:street": "West Germantown Pike",
        "brand": "Whole Foods Market",
        "brand:wikidata": "Q1809448",
        "brand:wikipedia": "en:Whole Foods Market",
        "name": "Whole Foods Market",
        "opening_hours": "Mo-Su 08:00-21:00",
        "shop": "supermarket"
      },
      "geometry": {
        "type": "Point",
        "coordinates": [
          -75.2812047,
          40.114361
        ]
      },
      "id": "node/728079044"
    },
    {
      "type": "Feature",
      "properties": {
        "@id": "node/735962536",
        "brand": "Giant",
        "brand:wikidata": "Q5558332",
        "brand:wikipedia": "en:The Giant Company",
        "name": "Giant",
        "shop": "supermarket",
        "wheelchair": "yes"
      },
      "geometry": {
        "type": "Point",
        "coordinates": [
          -75.3158124,
          40.7304937
        ]
      },
      "id": "node/735962536"
    },
    {
      "type": "Feature",
      "properties": {
        "@id": "node/761253193",
        "brand": "Wawa",
        "brand:wikidata": "Q5936320",
        "brand:wikipedia": "en:Wawa (company)",
        "name": "Wawa",
        "shop": "convenience"
      },
      "geometry": {
        "type": "Point",
        "coordinates": [
          -75.3036593,
          39.9761795
        ]
      },
      "id": "node/761253193"
    },
    {
      "type": "Feature",
      "properties": {
        "@id": "node/761910773",
        "shop": "convenience"
      },
      "geometry": {
        "type": "Point",
        "coordinates": [
          -76.206119,
          40.1555266
        ]
      },
      "id": "node/761910773"
    },
    {
      "type": "Feature",
      "properties": {
        "@id": "node/767607223",
        "shop": "convenience"
      },
      "geometry": {
        "type": "Point",
        "coordinates": [
          -79.925813,
          40.4852545
        ]
      },
      "id": "node/767607223"
    },
    {
      "type": "Feature",
      "properties": {
        "@id": "node/770354183",
        "amenity": "fuel",
        "name": "Souder's",
        "shop": "convenience"
      },
      "geometry": {
        "type": "Point",
        "coordinates": [
          -76.7590176,
          40.2283537
        ]
      },
      "id": "node/770354183"
    },
    {
      "type": "Feature",
      "properties": {
        "@id": "node/785971050",
        "addr:city": "Swarthmore",
        "addr:housenumber": "341",
        "addr:postcode": "19081",
        "addr:state": "PA",
        "addr:street": "Dartmouth Avenue",
        "fax": "610-543-6028",
        "name": "Swarthmore Co-op",
        "phone": "610-543-9805",
        "shop": "supermarket",
        "website": "https://www.swarthmore.coop/"
      },
      "geometry": {
        "type": "Point",
        "coordinates": [
          -75.3488713,
          39.9022337
        ]
      },
      "id": "node/785971050"
    },
    {
      "type": "Feature",
      "properties": {
        "@id": "node/792990731",
        "name": "Giant",
        "shop": "supermarket"
      },
      "geometry": {
        "type": "Point",
        "coordinates": [
          -76.8169253,
          40.2775494
        ]
      },
      "id": "node/792990731"
    },
    {
      "type": "Feature",
      "properties": {
        "@id": "node/793772805",
        "name": "Giant",
        "shop": "supermarket",
        "wheelchair": "yes"
      },
      "geometry": {
        "type": "Point",
        "coordinates": [
          -76.7222391,
          40.1993693
        ]
      },
      "id": "node/793772805"
    },
    {
      "type": "Feature",
      "properties": {
        "@id": "node/798809432",
        "brand": "Wawa",
        "brand:wikidata": "Q5936320",
        "brand:wikipedia": "en:Wawa (company)",
        "name": "Wawa",
        "opening_hours": "24/7",
        "shop": "convenience"
      },
      "geometry": {
        "type": "Point",
        "coordinates": [
          -75.2953854,
          40.0107575
        ]
      },
      "id": "node/798809432"
    },
    {
      "type": "Feature",
      "properties": {
        "@id": "node/798823931",
        "brand": "7-Eleven",
        "brand:wikidata": "Q259340",
        "brand:wikipedia": "en:7-Eleven",
        "name": "7-Eleven",
        "shop": "convenience"
      },
      "geometry": {
        "type": "Point",
        "coordinates": [
          -75.3024774,
          39.9959595
        ]
      },
      "id": "node/798823931"
    },
    {
      "type": "Feature",
      "properties": {
        "@id": "node/804625147",
        "name": "Oreland Market",
        "shop": "convenience"
      },
      "geometry": {
        "type": "Point",
        "coordinates": [
          -75.1832311,
          40.1173319
        ]
      },
      "id": "node/804625147"
    },
    {
      "type": "Feature",
      "properties": {
        "@id": "node/809486368",
        "addr:city": "Pittsburgh",
        "addr:housenumber": "925",
        "addr:postcode": "15223",
        "addr:state": "PA",
        "addr:street": "Butler Street",
        "name": "Shop'n Save",
        "shop": "supermarket"
      },
      "geometry": {
        "type": "Point",
        "coordinates": [
          -79.9500336,
          40.5119951
        ]
      },
      "id": "node/809486368"
    },
    {
      "type": "Feature",
      "properties": {
        "@id": "node/825349328",
        "brand": "Shell",
        "brand:wikidata": "Q154950",
        "brand:wikipedia": "en:Royal Dutch Shell",
        "name": "Shell",
        "shop": "convenience"
      },
      "geometry": {
        "type": "Point",
        "coordinates": [
          -77.1681574,
          40.3219566
        ]
      },
      "id": "node/825349328"
    },
    {
      "type": "Feature",
      "properties": {
        "@id": "node/830592920",
        "brand": "7-Eleven",
        "brand:wikidata": "Q259340",
        "brand:wikipedia": "en:7-Eleven",
        "name": "7-Eleven",
        "shop": "convenience"
      },
      "geometry": {
        "type": "Point",
        "coordinates": [
          -75.092747,
          40.0531426
        ]
      },
      "id": "node/830592920"
    },
    {
      "type": "Feature",
      "properties": {
        "@id": "node/833181045",
        "name": "Metro Mart",
        "shop": "convenience"
      },
      "geometry": {
        "type": "Point",
        "coordinates": [
          -75.3807238,
          40.6231891
        ]
      },
      "id": "node/833181045"
    },
    {
      "type": "Feature",
      "properties": {
        "@id": "node/833181059",
        "addr:city": "Bethlehem",
        "addr:housenumber": "3",
        "addr:postcode": "18018",
        "addr:state": "PA",
        "addr:street": "West Broad Street",
        "name": "Plaza Cards and Snacks",
        "shop": "convenience"
      },
      "geometry": {
        "type": "Point",
        "coordinates": [
          -75.3795052,
          40.6221632
        ]
      },
      "id": "node/833181059"
    },
    {
      "type": "Feature",
      "properties": {
        "@id": "node/833393969",
        "brand": "ALDI",
        "brand:wikidata": "Q41171672",
        "brand:wikipedia": "en:Aldi",
        "name": "ALDI",
        "shop": "supermarket"
      },
      "geometry": {
        "type": "Point",
        "coordinates": [
          -75.0976085,
          40.006758
        ]
      },
      "id": "node/833393969"
    },
    {
      "type": "Feature",
      "properties": {
        "@id": "node/847678240",
        "brand": "Wawa",
        "brand:wikidata": "Q5936320",
        "brand:wikipedia": "en:Wawa (company)",
        "name": "Wawa",
        "shop": "convenience"
      },
      "geometry": {
        "type": "Point",
        "coordinates": [
          -75.3090704,
          39.988544
        ]
      },
      "id": "node/847678240"
    },
    {
      "type": "Feature",
      "properties": {
        "@id": "node/860463553",
        "amenity": "fuel",
        "fuel:octane_87": "yes",
        "fuel:octane_89": "no",
        "fuel:octane_93": "no",
        "name": "Xtra 1835",
        "note": "06-Jul-2010",
        "shop": "convenience"
      },
      "geometry": {
        "type": "Point",
        "coordinates": [
          -76.54683,
          41.98804
        ]
      },
      "id": "node/860463553"
    },
    {
      "type": "Feature",
      "properties": {
        "@id": "node/882794218",
        "amenity": "marketplace",
        "name": "Perry County Farmers Market"
      },
      "geometry": {
        "type": "Point",
        "coordinates": [
          -77.0605295,
          40.4366429
        ]
      },
      "id": "node/882794218"
    },
    {
      "type": "Feature",
      "properties": {
        "@id": "node/888988506",
        "name": "Giant",
        "shop": "supermarket"
      },
      "geometry": {
        "type": "Point",
        "coordinates": [
          -75.299847,
          40.8386607
        ]
      },
      "id": "node/888988506"
    },
    {
      "type": "Feature",
      "properties": {
        "@id": "node/891141968",
        "addr:housenumber": "600",
        "addr:postcode": "19010",
        "addr:street": "Lancaster Ave",
        "atm": "yes",
        "brand": "Acme",
        "brand:wikidata": "Q341975",
        "brand:wikipedia": "en:Acme Markets",
        "name": "Acme",
        "opening_hours": "Mo-Sa 06:00-23:00; Su 07:00-23:00",
        "phone": "+16105200280",
        "shop": "supermarket"
      },
      "geometry": {
        "type": "Point",
        "coordinates": [
          -75.3115191,
          40.0185279
        ]
      },
      "id": "node/891141968"
    },
    {
      "type": "Feature",
      "properties": {
        "@id": "node/893681729",
        "name": "Wawa",
        "shop": "convenience"
      },
      "geometry": {
        "type": "Point",
        "coordinates": [
          -75.4806532,
          40.2774778
        ]
      },
      "id": "node/893681729"
    },
    {
      "type": "Feature",
      "properties": {
        "@id": "node/893759795",
        "name": "Wagner's General Store",
        "shop": "convenience"
      },
      "geometry": {
        "type": "Point",
        "coordinates": [
          -76.1809747,
          41.9375752
        ]
      },
      "id": "node/893759795"
    },
    {
      "type": "Feature",
      "properties": {
        "@id": "node/893766439",
        "name": "Dandy Mini Mart",
        "shop": "convenience"
      },
      "geometry": {
        "type": "Point",
        "coordinates": [
          -76.1367929,
          41.9975918
        ]
      },
      "id": "node/893766439"
    },
    {
      "type": "Feature",
      "properties": {
        "@id": "node/898617065",
        "brand": "Wawa",
        "brand:wikidata": "Q5936320",
        "brand:wikipedia": "en:Wawa (company)",
        "name": "Wawa",
        "shop": "convenience"
      },
      "geometry": {
        "type": "Point",
        "coordinates": [
          -75.2760029,
          40.2162013
        ]
      },
      "id": "node/898617065"
    },
    {
      "type": "Feature",
      "properties": {
        "@id": "node/912112532",
        "name": "Kreiders Market",
        "shop": "convenience"
      },
      "geometry": {
        "type": "Point",
        "coordinates": [
          -76.0417346,
          39.816992
        ]
      },
      "id": "node/912112532"
    },
    {
      "type": "Feature",
      "properties": {
        "@id": "node/912314844",
        "brand": "Giant",
        "brand:wikidata": "Q5558332",
        "brand:wikipedia": "en:Giant Food Stores",
        "name": "Giant",
        "shop": "supermarket"
      },
      "geometry": {
        "type": "Point",
        "coordinates": [
          -76.3076981,
          40.1312293
        ]
      },
      "id": "node/912314844"
    },
    {
      "type": "Feature",
      "properties": {
        "@id": "node/916278315",
        "name": "Stauffers of Kissel Hill",
        "shop": "supermarket",
        "toilets:wheelchair": "no",
        "wheelchair": "yes"
      },
      "geometry": {
        "type": "Point",
        "coordinates": [
          -76.2962518,
          40.0777045
        ]
      },
      "id": "node/916278315"
    },
    {
      "type": "Feature",
      "properties": {
        "@id": "node/916286732",
        "name": "Oregon Dairy",
        "shop": "supermarket"
      },
      "geometry": {
        "type": "Point",
        "coordinates": [
          -76.2536656,
          40.1072064
        ]
      },
      "id": "node/916286732"
    },
    {
      "type": "Feature",
      "properties": {
        "@id": "node/918509267",
        "addr:city": "Upper Darby",
        "addr:housenumber": "815",
        "addr:postcode": "19082",
        "addr:state": "PA",
        "addr:street": "North Lansdowne Avenue",
        "branch": "Markets",
        "brand": "Acme",
        "brand:wikidata": "Q341975",
        "brand:wikipedia": "en:Acme Markets",
        "name": "Acme",
        "shop": "supermarket"
      },
      "geometry": {
        "type": "Point",
        "coordinates": [
          -75.2871913,
          39.9610182
        ]
      },
      "id": "node/918509267"
    },
    {
      "type": "Feature",
      "properties": {
        "@id": "node/935455694",
        "brand": "Weis",
        "brand:wikidata": "Q7980370",
        "brand:wikipedia": "en:Weis Markets",
        "name": "Weis",
        "shop": "supermarket"
      },
      "geometry": {
        "type": "Point",
        "coordinates": [
          -76.7958899,
          40.3098724
        ]
      },
      "id": "node/935455694"
    },
    {
      "type": "Feature",
      "properties": {
        "@id": "node/947058374",
        "brand": "Trader Joe's",
        "brand:wikidata": "Q688825",
        "brand:wikipedia": "en:Trader Joe's",
        "name": "Trader Joe's",
        "shop": "supermarket"
      },
      "geometry": {
        "type": "Point",
        "coordinates": [
          -75.4334677,
          40.0733808
        ]
      },
      "id": "node/947058374"
    },
    {
      "type": "Feature",
      "properties": {
        "@id": "node/952341610",
        "brand": "Whole Foods Market",
        "brand:wikidata": "Q1809448",
        "brand:wikipedia": "en:Whole Foods Market",
        "name": "Whole Foods Market",
        "shop": "supermarket"
      },
      "geometry": {
        "type": "Point",
        "coordinates": [
          -75.4113468,
          40.0488322
        ]
      },
      "id": "node/952341610"
    },
    {
      "type": "Feature",
      "properties": {
        "@id": "node/953890053",
        "amenity": "drinking_water"
      },
      "geometry": {
        "type": "Point",
        "coordinates": [
          12.4879526,
          41.8887986
        ]
      },
      "id": "node/953890053"
    },
    {
      "type": "Feature",
      "properties": {
        "@id": "node/953890062",
        "amenity": "drinking_water",
        "check_date": "2021-11-01",
        "man_made": "water_tap"
      },
      "geometry": {
        "type": "Point",
        "coordinates": [
          12.4883755,
          41.890985
        ]
      },
      "id": "node/953890062"
    },
    {
      "type": "Feature",
      "properties": {
        "@id": "node/953909059",
        "amenity": "drinking_water",
        "fountain": "nasone",
        "wikimedia_commons": "File:Nasone via dei santi Quattro,roma,italy 62022.jpeg"
      },
      "geometry": {
        "type": "Point",
        "coordinates": [
          12.4968765,
          41.8889852
        ]
      },
      "id": "node/953909059"
    },
    {
      "type": "Feature",
      "properties": {
        "@id": "node/956629757",
        "addr:city": "Harrisburg",
        "addr:housenumber": "6301",
        "addr:postcode": "17111",
        "addr:state": "PA",
        "addr:street": "Grayson Road",
        "brand": "Giant",
        "brand:wikidata": "Q5558332",
        "brand:wikipedia": "en:The Giant Company",
        "name": "Giant",
        "ref": "6564",
        "shop": "supermarket"
      },
      "geometry": {
        "type": "Point",
        "coordinates": [
          -76.7763541,
          40.2611314
        ]
      },
      "id": "node/956629757"
    },
    {
      "type": "Feature",
      "properties": {
        "@id": "node/956629760",
        "addr:city": "Harrisburg",
        "addr:country": "US",
        "addr:housenumber": "6535",
        "addr:postcode": "17111",
        "addr:state": "PA",
        "addr:street": "Grayson Road",
        "alt_name": "Walmart",
        "brand": "Walmart",
        "brand:wikidata": "Q483551",
        "brand:wikipedia": "en:Walmart",
        "name": "Walmart Supercenter",
        "opening_hours": "Mo-Su 06:00-24:00",
        "operator": "Walmart",
        "phone": "+1-717-561-8402",
        "ref:walmart": "1591",
        "shop": "supermarket",
        "website": "https://www.walmart.com/store/1591/harrisburg-pa/whats-new"
      },
      "geometry": {
        "type": "Point",
        "coordinates": [
          -76.772903,
          40.261651
        ]
      },
      "id": "node/956629760"
    },
    {
      "type": "Feature",
      "properties": {
        "@id": "node/956629766",
        "addr:city": "Harrisburg",
        "addr:housenumber": "6445",
        "addr:postcode": "17111",
        "addr:state": "PA",
        "addr:street": "Grayson Road",
        "brand": "ALDI",
        "brand:wikidata": "Q41171672",
        "brand:wikipedia": "en:Aldi",
        "name": "ALDI",
        "ref": "77",
        "shop": "supermarket"
      },
      "geometry": {
        "type": "Point",
        "coordinates": [
          -76.7748628,
          40.2602472
        ]
      },
      "id": "node/956629766"
    },
    {
      "type": "Feature",
      "properties": {
        "@id": "node/959452285",
        "addr:city": "Lancaster",
        "addr:housenumber": "2000",
        "addr:postcode": "17602",
        "addr:state": "PA",
        "addr:street": "Lincoln Highway East",
        "brand": "Turkey Hill",
        "brand:wikidata": "Q42376970",
        "brand:wikipedia": "en:Turkey Hill Minit Markets",
        "name": "Turkey Hill",
        "phone": "+1 717 295 5522",
        "shop": "convenience"
      },
      "geometry": {
        "type": "Point",
        "coordinates": [
          -76.2445124,
          40.0324775
        ]
      },
      "id": "node/959452285"
    },
    {
      "type": "Feature",
      "properties": {
        "@id": "node/959452300",
        "name": "Turkey Hill",
        "shop": "convenience"
      },
      "geometry": {
        "type": "Point",
        "coordinates": [
          -76.2660979,
          40.0234342
        ]
      },
      "id": "node/959452300"
    },
    {
      "type": "Feature",
      "properties": {
        "@id": "node/967237197",
        "addr:city": "Harrisburg",
        "addr:housenumber": "2015",
        "addr:state": "PA",
        "addr:street": "Dotson Ct",
        "name": "Turkey Hill",
        "shop": "convenience"
      },
      "geometry": {
        "type": "Point",
        "coordinates": [
          -76.8514785,
          40.3072509
        ]
      },
      "id": "node/967237197"
    },
    {
      "type": "Feature",
      "properties": {
        "@id": "node/970919312",
        "name": "Class A",
        "shop": "convenience"
      },
      "geometry": {
        "type": "Point",
        "coordinates": [
          -76.9179636,
          40.0645891
        ]
      },
      "id": "node/970919312"
    },
    {
      "type": "Feature",
      "properties": {
        "@id": "node/972542598",
        "brand": "Weis",
        "brand:wikidata": "Q7980370",
        "name": "Weis",
        "official_name": "Weis Markets",
        "shop": "supermarket"
      },
      "geometry": {
        "type": "Point",
        "coordinates": [
          -76.8244793,
          40.3376789
        ]
      },
      "id": "node/972542598"
    },
    {
      "type": "Feature",
      "properties": {
        "@id": "node/975303738",
        "name": "A-plus",
        "shop": "convenience"
      },
      "geometry": {
        "type": "Point",
        "coordinates": [
          -75.460171,
          40.0635625
        ]
      },
      "id": "node/975303738"
    },
    {
      "type": "Feature",
      "properties": {
        "@id": "node/977690451",
        "addr:city": "Philadelphia",
        "addr:housenumber": "180",
        "addr:postcode": "19123",
        "addr:state": "PA",
        "addr:street": "West Girard Avenue",
        "brand": "Acme",
        "brand:wikidata": "Q341975",
        "brand:wikipedia": "en:Acme Markets",
        "name": "Acme",
        "opening_hours": "Mo-Sa 07:00-24:00; Su 07:00-22:00",
        "phone": "215-574-2922",
        "shop": "supermarket"
      },
      "geometry": {
        "type": "Point",
        "coordinates": [
          -75.1391226,
          39.9688976
        ]
      },
      "id": "node/977690451"
    },
    {
      "type": "Feature",
      "properties": {
        "@id": "node/980994938",
        "addr:city": "harrisburg",
        "addr:housenumber": "3812",
        "addr:postcode": "17109",
        "addr:state": "PA",
        "addr:street": "Union Deposit Road",
        "amenity": "restaurant",
        "description": "Discount supermarket chain offering groceries & fresh foods, including own-brand products. Caters to Hispanic population.",
        "name": "Asian Bistro;Price Rite",
        "opening_hours": "08:00-21:00",
        "shop": "supermarket"
      },
      "geometry": {
        "type": "Point",
        "coordinates": [
          -76.8276221,
          40.2790774
        ]
      },
      "id": "node/980994938"
    },
    {
      "type": "Feature",
      "properties": {
        "@id": "node/983949644",
        "name": "PennMart",
        "shop": "convenience"
      },
      "geometry": {
        "type": "Point",
        "coordinates": [
          -75.7960296,
          41.327093
        ]
      },
      "id": "node/983949644"
    },
    {
      "type": "Feature",
      "properties": {
        "@id": "node/988992591",
        "brand": "Acme",
        "brand:wikidata": "Q341975",
        "brand:wikipedia": "en:Acme Markets",
        "name": "Acme",
        "shop": "supermarket"
      },
      "geometry": {
        "type": "Point",
        "coordinates": [
          -75.4076175,
          40.0455182
        ]
      },
      "id": "node/988992591"
    },
    {
      "type": "Feature",
      "properties": {
        "@id": "node/990261465",
        "name": "Wawa Food Market",
        "shop": "convenience"
      },
      "geometry": {
        "type": "Point",
        "coordinates": [
          -75.5163153,
          40.035705
        ]
      },
      "id": "node/990261465"
    },
    {
      "type": "Feature",
      "properties": {
        "@id": "node/990890745",
        "name": "Ollivette's Surefine",
        "shop": "supermarket"
      },
      "geometry": {
        "type": "Point",
        "coordinates": [
          -78.2274008,
          41.5096169
        ]
      },
      "id": "node/990890745"
    },
    {
      "type": "Feature",
      "properties": {
        "@id": "node/1016505946",
        "name": "Wawa",
        "shop": "convenience"
      },
      "geometry": {
        "type": "Point",
        "coordinates": [
          -75.3607679,
          40.6226981
        ]
      },
      "id": "node/1016505946"
    },
    {
      "type": "Feature",
      "properties": {
        "@id": "node/1018458359",
        "addr:city": "Bethlehem",
        "addr:housenumber": "1584",
        "addr:postcode": "18018",
        "addr:state": "PA",
        "addr:street": "8th Avenue",
        "brand": "Wawa",
        "brand:wikidata": "Q5936320",
        "brand:wikipedia": "en:Wawa (company)",
        "name": "Wawa",
        "shop": "convenience"
      },
      "geometry": {
        "type": "Point",
        "coordinates": [
          -75.3951814,
          40.6356075
        ]
      },
      "id": "node/1018458359"
    },
    {
      "type": "Feature",
      "properties": {
        "@id": "node/1030350213",
        "name": "Hall's Market",
        "operator": "Shur Fine",
        "shop": "supermarket"
      },
      "geometry": {
        "type": "Point",
        "coordinates": [
          -77.9372452,
          41.0258588
        ]
      },
      "id": "node/1030350213"
    },
    {
      "type": "Feature",
      "properties": {
        "@id": "node/1031255806",
        "brand": "Weis",
        "brand:wikidata": "Q7980370",
        "brand:wikipedia": "en:Weis Markets",
        "name": "Weis",
        "shop": "supermarket"
      },
      "geometry": {
        "type": "Point",
        "coordinates": [
          -75.6907319,
          41.4851273
        ]
      },
      "id": "node/1031255806"
    },
    {
      "type": "Feature",
      "properties": {
        "@id": "node/1032321422",
        "name": "Pac a Deli",
        "opening_hours": "07:00 - 24:00",
        "shop": "convenience"
      },
      "geometry": {
        "type": "Point",
        "coordinates": [
          -75.160688,
          39.948676
        ]
      },
      "id": "node/1032321422"
    },
    {
      "type": "Feature",
      "properties": {
        "@id": "node/1034900022",
        "brand": "Wegmans",
        "brand:wikidata": "Q11288478",
        "brand:wikipedia": "en:Wegmans",
        "name": "Wegmans",
        "shop": "supermarket"
      },
      "geometry": {
        "type": "Point",
        "coordinates": [
          -75.6780418,
          40.0169498
        ]
      },
      "id": "node/1034900022"
    },
    {
      "type": "Feature",
      "properties": {
        "@id": "node/1057922905",
        "brand": "Wawa",
        "brand:wikidata": "Q5936320",
        "brand:wikipedia": "en:Wawa (company)",
        "name": "Wawa",
        "shop": "convenience"
      },
      "geometry": {
        "type": "Point",
        "coordinates": [
          -75.3487683,
          40.1528685
        ]
      },
      "id": "node/1057922905"
    },
    {
      "type": "Feature",
      "properties": {
        "@id": "node/1060705027",
        "brand": "Rutter's",
        "brand:wikidata": "Q7383544",
        "brand:wikipedia": "en:Rutter's",
        "name": "Rutter's",
        "opening_hours": "24/7",
        "shop": "convenience"
      },
      "geometry": {
        "type": "Point",
        "coordinates": [
          -76.7338369,
          39.995945
        ]
      },
      "id": "node/1060705027"
    },
    {
      "type": "Feature",
      "properties": {
        "@id": "node/1097195449",
        "name": "Wawa",
        "shop": "convenience"
      },
      "geometry": {
        "type": "Point",
        "coordinates": [
          -75.685858,
          40.0747321
        ]
      },
      "id": "node/1097195449"
    },
    {
      "type": "Feature",
      "properties": {
        "@id": "node/1108105521",
        "name": "Market Place",
        "shop": "supermarket"
      },
      "geometry": {
        "type": "Point",
        "coordinates": [
          -77.1647067,
          40.3203882
        ]
      },
      "id": "node/1108105521"
    },
    {
      "type": "Feature",
      "properties": {
        "@id": "node/1130058083",
        "name": "Valley Forge Freedom Mini-Mart",
        "shop": "convenience"
      },
      "geometry": {
        "type": "Point",
        "coordinates": [
          -75.4685398,
          40.0988586
        ]
      },
      "id": "node/1130058083"
    },
    {
      "type": "Feature",
      "properties": {
        "@id": "node/1130132350",
        "amenity": "marketplace",
        "name": "Yeagers Market"
      },
      "geometry": {
        "type": "Point",
        "coordinates": [
          -75.585621,
          40.1188721
        ]
      },
      "id": "node/1130132350"
    },
    {
      "type": "Feature",
      "properties": {
        "@id": "node/1159709228",
        "addr:postcode": "17601",
        "addr:street": "oregon pike",
        "name": "Giant-To-Go",
        "shop": "convenience",
        "website": "https://giantfoodstores.com/"
      },
      "geometry": {
        "type": "Point",
        "coordinates": [
          -76.2809674,
          40.0892887
        ]
      },
      "id": "node/1159709228"
    },
    {
      "type": "Feature",
      "properties": {
        "@id": "node/1167106377",
        "brand": "7-Eleven",
        "brand:wikidata": "Q259340",
        "brand:wikipedia": "en:7-Eleven",
        "name": "7-Eleven",
        "shop": "convenience"
      },
      "geometry": {
        "type": "Point",
        "coordinates": [
          -75.1623576,
          39.9524778
        ]
      },
      "id": "node/1167106377"
    },
    {
      "type": "Feature",
      "properties": {
        "@id": "node/1170494282",
        "amenity": "drinking_water",
        "fountain": "nasone"
      },
      "geometry": {
        "type": "Point",
        "coordinates": [
          12.4942213,
          41.8900377
        ]
      },
      "id": "node/1170494282"
    },
    {
      "type": "Feature",
      "properties": {
        "@id": "node/1180997305",
        "amenity": "fuel",
        "brand": "GetGo",
        "brand:wikidata": "Q5553766",
        "brand:wikipedia": "en:GetGo",
        "name": "GetGo",
        "operator": "Giant Eagle",
        "shop": "convenience"
      },
      "geometry": {
        "type": "Point",
        "coordinates": [
          -79.9714564,
          40.5555643
        ]
      },
      "id": "node/1180997305"
    },
    {
      "type": "Feature",
      "properties": {
        "@id": "node/1200868441",
        "addr:housenumber": "201",
        "addr:postcode": "19010",
        "addr:street": "South Bryn Mawr Avenue",
        "brand": "Wawa",
        "brand:wikidata": "Q5936320",
        "brand:wikipedia": "en:Wawa (company)",
        "name": "Wawa",
        "opening_hours": "24/7",
        "payment:cash": "yes",
        "payment:credit_cards": "yes",
        "payment:debit_cards": "yes",
        "ref:wawa": "168",
        "shop": "convenience"
      },
      "geometry": {
        "type": "Point",
        "coordinates": [
          -75.3220726,
          40.0170528
        ]
      },
      "id": "node/1200868441"
    },
    {
      "type": "Feature",
      "properties": {
        "@id": "node/1203535651",
        "name": "Yang's Market",
        "shop": "supermarket"
      },
      "geometry": {
        "type": "Point",
        "coordinates": [
          -75.4393924,
          40.0484786
        ]
      },
      "id": "node/1203535651"
    },
    {
      "type": "Feature",
      "properties": {
        "@id": "node/1204727699",
        "name": "South Philadelphia Store",
        "shop": "convenience"
      },
      "geometry": {
        "type": "Point",
        "coordinates": [
          -75.1617092,
          39.9327374
        ]
      },
      "id": "node/1204727699"
    },
    {
      "type": "Feature",
      "properties": {
        "@id": "node/1207476096",
        "name": "Safran's",
        "shop": "supermarket"
      },
      "geometry": {
        "type": "Point",
        "coordinates": [
          -80.182147,
          40.5409044
        ]
      },
      "id": "node/1207476096"
    },
    {
      "type": "Feature",
      "properties": {
        "@id": "node/1207818688",
        "addr:city": "Leetsdale",
        "addr:housenumber": "8A",
        "addr:postcode": "15056",
        "addr:state": "PA",
        "addr:street": "Quaker Village Shopping Center",
        "name": "Giant Eagle",
        "shop": "supermarket"
      },
      "geometry": {
        "type": "Point",
        "coordinates": [
          -80.2035686,
          40.5594136
        ]
      },
      "id": "node/1207818688"
    },
    {
      "type": "Feature",
      "properties": {
        "@id": "node/1208056604",
        "brand": "7-Eleven",
        "brand:wikidata": "Q259340",
        "brand:wikipedia": "en:7-Eleven",
        "name": "7-Eleven",
        "shop": "convenience"
      },
      "geometry": {
        "type": "Point",
        "coordinates": [
          -75.325461,
          40.02186
        ]
      },
      "id": "node/1208056604"
    },
    {
      "type": "Feature",
      "properties": {
        "@id": "node/1210021811",
        "brand": "Giant Eagle",
        "brand:wikidata": "Q1522721",
        "brand:wikipedia": "en:Giant Eagle",
        "name": "Giant Eagle",
        "shop": "supermarket"
      },
      "geometry": {
        "type": "Point",
        "coordinates": [
          -80.2205115,
          40.5216966
        ]
      },
      "id": "node/1210021811"
    },
    {
      "type": "Feature",
      "properties": {
        "@id": "node/1231818440",
        "brand": "Wawa",
        "brand:wikidata": "Q5936320",
        "brand:wikipedia": "en:Wawa (company)",
        "name": "Wawa",
        "shop": "convenience",
        "source": "local knowledge"
      },
      "geometry": {
        "type": "Point",
        "coordinates": [
          -74.837247,
          40.2416839
        ]
      },
      "id": "node/1231818440"
    },
    {
      "type": "Feature",
      "properties": {
        "@id": "node/1251966619",
        "name": "Pantry 1",
        "shop": "convenience"
      },
      "geometry": {
        "type": "Point",
        "coordinates": [
          -75.3756311,
          39.904551
        ]
      },
      "id": "node/1251966619"
    },
    {
      "type": "Feature",
      "properties": {
        "@id": "node/1278909168",
        "addr:housenumber": "301",
        "addr:street": "Town Center Boulevard",
        "check_date": "2023-01-28",
        "name": "GIANT Food Store",
        "opening_hours": "06:00-23:00",
        "payment:mastercard": "yes",
        "payment:visa": "yes",
        "shop": "supermarket"
      },
      "geometry": {
        "type": "Point",
        "coordinates": [
          -75.2223402,
          40.7130005
        ]
      },
      "id": "node/1278909168"
    },
    {
      "type": "Feature",
      "properties": {
        "@id": "node/1282762373",
        "name": "Giant",
        "opening_hours": "Mo-Su 06:00-23:00",
        "shop": "supermarket"
      },
      "geometry": {
        "type": "Point",
        "coordinates": [
          -76.6494709,
          40.2692465
        ]
      },
      "id": "node/1282762373"
    },
    {
      "type": "Feature",
      "properties": {
        "@id": "node/1312443295",
        "addr:housenumber": "1020",
        "addr:postcode": "18055",
        "addr:street": "Main Street",
        "name": "Food Bag",
        "shop": "convenience"
      },
      "geometry": {
        "type": "Point",
        "coordinates": [
          -75.3413764,
          40.5834671
        ]
      },
      "id": "node/1312443295"
    },
    {
      "type": "Feature",
      "properties": {
        "@id": "node/1325781370",
        "name": "Giant",
        "shop": "supermarket"
      },
      "geometry": {
        "type": "Point",
        "coordinates": [
          -75.297124,
          39.921228
        ]
      },
      "id": "node/1325781370"
    },
    {
      "type": "Feature",
      "properties": {
        "@id": "node/1359559495",
        "name": "Giant",
        "shop": "supermarket"
      },
      "geometry": {
        "type": "Point",
        "coordinates": [
          -75.2495931,
          40.676452
        ]
      },
      "id": "node/1359559495"
    },
    {
      "type": "Feature",
      "properties": {
        "@id": "node/1361562645",
        "brand": "Price Chopper",
        "brand:wikidata": "Q7242574",
        "brand:wikipedia": "en:Price Chopper and Market 32 Supermarkets",
        "name": "Price Chopper",
        "shop": "supermarket"
      },
      "geometry": {
        "type": "Point",
        "coordinates": [
          -75.8519402,
          41.3001165
        ]
      },
      "id": "node/1361562645"
    },
    {
      "type": "Feature",
      "properties": {
        "@id": "node/1371543204",
        "name": "East End Food Co-op",
        "shop": "supermarket",
        "toilets:wheelchair": "yes",
        "website": "https://www.eastendfood.coop/",
        "wheelchair": "limited"
      },
      "geometry": {
        "type": "Point",
        "coordinates": [
          -79.8957893,
          40.4482486
        ]
      },
      "id": "node/1371543204"
    },
    {
      "type": "Feature",
      "properties": {
        "@id": "node/1371543219",
        "name": "Ruggeri's Food Shoppe",
        "shop": "convenience"
      },
      "geometry": {
        "type": "Point",
        "coordinates": [
          -79.9211352,
          40.4386205
        ]
      },
      "id": "node/1371543219"
    },
    {
      "type": "Feature",
      "properties": {
        "@id": "node/1371543228",
        "addr:city": "Pittsburgh",
        "addr:housenumber": "256",
        "addr:postcode": "15206",
        "addr:state": "PA",
        "addr:street": "South Highland Avenue",
        "air_conditioning": "yes",
        "name": "R Market",
        "shop": "convenience",
        "stroller": "limited",
        "wheelchair": "limited"
      },
      "geometry": {
        "type": "Point",
        "coordinates": [
          -79.9253272,
          40.457295
        ]
      },
      "id": "node/1371543228"
    },
    {
      "type": "Feature",
      "properties": {
        "@id": "node/1371572642",
        "name": "Smoke Wizard",
        "opening_hours:signed": "no",
        "shop": "convenience",
        "wheelchair": "yes"
      },
      "geometry": {
        "type": "Point",
        "coordinates": [
          -79.919758,
          40.4379161
        ]
      },
      "id": "node/1371572642"
    },
    {
      "type": "Feature",
      "properties": {
        "@id": "node/1371572671",
        "addr:city": "Pittsburgh",
        "addr:country": "US",
        "addr:housenumber": "319",
        "addr:postcode": "15213",
        "addr:state": "PA",
        "addr:street": "S Craig St",
        "name": "Kohli's",
        "origin": "indian",
        "shop": "convenience"
      },
      "geometry": {
        "type": "Point",
        "coordinates": [
          -79.9485465,
          40.4451
        ]
      },
      "id": "node/1371572671"
    },
    {
      "type": "Feature",
      "properties": {
        "@id": "node/1372555567",
        "addr:postcode": "15227",
        "brand": "Giant Eagle",
        "brand:wikidata": "Q1522721",
        "brand:wikipedia": "en:Giant Eagle",
        "name": "Giant Eagle",
        "shop": "supermarket"
      },
      "geometry": {
        "type": "Point",
        "coordinates": [
          -79.9833663,
          40.3656552
        ]
      },
      "id": "node/1372555567"
    },
    {
      "type": "Feature",
      "properties": {
        "@id": "node/1372566067",
        "addr:city": "Bethel Park",
        "addr:housenumber": "5055",
        "addr:postcode": "15102",
        "addr:state": "PA",
        "addr:street": "Library Road",
        "addr:unit": "Suite 5",
        "brand": "Giant Eagle",
        "brand:wikidata": "Q1522721",
        "brand:wikipedia": "en:Giant Eagle",
        "name": "Giant Eagle",
        "opening_hours": "Mo-Su 07:00-22:00",
        "phone": "+1 412 833 8575",
        "shop": "supermarket",
        "website": "https://www.gianteagle.com/stores/pa/bethel-park/bethel-park-giant-eagle/4"
      },
      "geometry": {
        "type": "Point",
        "coordinates": [
          -80.0235994,
          40.3384447
        ]
      },
      "id": "node/1372566067"
    },
    {
      "type": "Feature",
      "properties": {
        "@id": "node/1372568307",
        "addr:city": "Bethel Park",
        "addr:country": "US",
        "addr:housenumber": "5055",
        "addr:postcode": "15102",
        "addr:state": "PA",
        "addr:street": "Library Road",
        "brand": "Walmart",
        "brand:wikidata": "Q483551",
        "brand:wikipedia": "en:Walmart",
        "name": "Walmart",
        "opening_hours": "Mo-Su 07:00-24:00",
        "operator": "Walmart",
        "operator:wikidata": "Q483551",
        "operator:wikipedia": "en:Walmart",
        "phone": "+1-412-831-0459",
        "ref:walmart": "5381",
        "shop": "supermarket",
        "website": "https://www.walmart.com/store/5381/bethel-park-pa/whats-new"
      },
      "geometry": {
        "type": "Point",
        "coordinates": [
          -80.023429,
          40.33898
        ]
      },
      "id": "node/1372568307"
    },
    {
      "type": "Feature",
      "properties": {
        "@id": "node/1372687943",
        "addr:postcode": "15012",
        "brand": "Giant Eagle",
        "brand:wikidata": "Q1522721",
        "brand:wikipedia": "en:Giant Eagle",
        "name": "Giant Eagle",
        "shop": "supermarket"
      },
      "geometry": {
        "type": "Point",
        "coordinates": [
          -79.8402995,
          40.1374246
        ]
      },
      "id": "node/1372687943"
    },
    {
      "type": "Feature",
      "properties": {
        "@id": "node/1373302821",
        "addr:city": "Belle Vernon",
        "addr:housenumber": "772",
        "addr:postcode": "15012",
        "addr:state": "PA",
        "addr:street": "Rostraver Road",
        "brand": "ALDI",
        "brand:wikidata": "Q41171672",
        "brand:wikipedia": "en:Aldi",
        "name": "ALDI",
        "shop": "supermarket"
      },
      "geometry": {
        "type": "Point",
        "coordinates": [
          -79.8410904,
          40.1351734
        ]
      },
      "id": "node/1373302821"
    },
    {
      "type": "Feature",
      "properties": {
        "@id": "node/1376954150",
        "amenity": "marketplace",
        "name": "Shadyside Market and Deli"
      },
      "geometry": {
        "type": "Point",
        "coordinates": [
          -79.9349721,
          40.4506774
        ]
      },
      "id": "node/1376954150"
    },
    {
      "type": "Feature",
      "properties": {
        "@id": "node/1392578446",
        "name": "Country Fresh Market",
        "shop": "supermarket"
      },
      "geometry": {
        "type": "Point",
        "coordinates": [
          -79.9786593,
          40.0430692
        ]
      },
      "id": "node/1392578446"
    },
    {
      "type": "Feature",
      "properties": {
        "@id": "node/1392578484",
        "brand": "GetGo",
        "brand:wikidata": "Q5553766",
        "brand:wikipedia": "en:GetGo",
        "name": "GetGo",
        "shop": "convenience"
      },
      "geometry": {
        "type": "Point",
        "coordinates": [
          -80.0014605,
          40.0533335
        ]
      },
      "id": "node/1392578484"
    },
    {
      "type": "Feature",
      "properties": {
        "@id": "node/1393835910",
        "name": "Save a Lot",
        "shop": "supermarket"
      },
      "geometry": {
        "type": "Point",
        "coordinates": [
          -80.0080605,
          39.9848798
        ]
      },
      "id": "node/1393835910"
    },
    {
      "type": "Feature",
      "properties": {
        "@id": "node/1399406791",
        "brand": "Rutter's",
        "brand:wikidata": "Q7383544",
        "brand:wikipedia": "en:Rutter's",
        "name": "Rutter's",
        "shop": "convenience"
      },
      "geometry": {
        "type": "Point",
        "coordinates": [
          -76.5805101,
          39.9021735
        ]
      },
      "id": "node/1399406791"
    },
    {
      "type": "Feature",
      "properties": {
        "@id": "node/1399407018",
        "addr:street": "Delta Rd",
        "name": "Brogue General store",
        "opening_hours": "Mo-Su 06:00-20:00",
        "opening_hours:covid19": "same",
        "payment:cash": "yes",
        "payment:credit_cards": "yes",
        "payment:debit_cards": "yes",
        "shop": "convenience"
      },
      "geometry": {
        "type": "Point",
        "coordinates": [
          -76.4844192,
          39.8720407
        ]
      },
      "id": "node/1399407018"
    },
    {
      "type": "Feature",
      "properties": {
        "@id": "node/1399408093",
        "addr:street": "Delta Rd",
        "name": "Rutter's",
        "shop": "convenience"
      },
      "geometry": {
        "type": "Point",
        "coordinates": [
          -76.4637093,
          39.8628418
        ]
      },
      "id": "node/1399408093"
    },
    {
      "type": "Feature",
      "properties": {
        "@id": "node/1409101662",
        "name": "7-Eleven",
        "shop": "convenience"
      },
      "geometry": {
        "type": "Point",
        "coordinates": [
          -75.5912445,
          40.0091145
        ]
      },
      "id": "node/1409101662"
    },
    {
      "type": "Feature",
      "properties": {
        "@id": "node/1424320752",
        "addr:city": "North Towanda",
        "addr:housenumber": "387",
        "addr:postcode": "18848",
        "addr:street": "York Avenue",
        "name": "Hurley's Fresh Market",
        "opening_hours": "Mo-Sa 06:00-21:00; Su 06:00-19:00",
        "phone": "+1 570 265 2616",
        "shop": "supermarket",
        "website": "www.hurleysfreshmarket.com"
      },
      "geometry": {
        "type": "Point",
        "coordinates": [
          -76.4511589,
          41.7827434
        ]
      },
      "id": "node/1424320752"
    },
    {
      "type": "Feature",
      "properties": {
        "@id": "node/1427531927",
        "name": "Camptown Dandy MiniMart",
        "shop": "convenience"
      },
      "geometry": {
        "type": "Point",
        "coordinates": [
          -76.2346059,
          41.7302485
        ]
      },
      "id": "node/1427531927"
    },
    {
      "type": "Feature",
      "properties": {
        "@id": "node/1427595819",
        "addr:city": "Wyalusing",
        "addr:housenumber": "223",
        "addr:postcode": "18853",
        "addr:street": "State Street",
        "name": "Wyalusing Dandy MiniMart",
        "opening_hours": "24/7",
        "shop": "convenience"
      },
      "geometry": {
        "type": "Point",
        "coordinates": [
          -76.2654781,
          41.6668996
        ]
      },
      "id": "node/1427595819"
    },
    {
      "type": "Feature",
      "properties": {
        "@id": "node/1429480264",
        "name": "Dandy MiniMart",
        "shop": "convenience"
      },
      "geometry": {
        "type": "Point",
        "coordinates": [
          -76.3435283,
          41.8565168
        ]
      },
      "id": "node/1429480264"
    },
    {
      "type": "Feature",
      "properties": {
        "@id": "node/1429492497",
        "name": "Dandy MiniMart",
        "shop": "convenience"
      },
      "geometry": {
        "type": "Point",
        "coordinates": [
          -76.4418327,
          41.5995223
        ]
      },
      "id": "node/1429492497"
    },
    {
      "type": "Feature",
      "properties": {
        "@id": "node/1429543860",
        "shop": "convenience"
      },
      "geometry": {
        "type": "Point",
        "coordinates": [
          -76.6067437,
          41.7797765
        ]
      },
      "id": "node/1429543860"
    },
    {
      "type": "Feature",
      "properties": {
        "@id": "node/1432195077",
        "shop": "convenience"
      },
      "geometry": {
        "type": "Point",
        "coordinates": [
          -75.8460246,
          41.3200208
        ]
      },
      "id": "node/1432195077"
    },
    {
      "type": "Feature",
      "properties": {
        "@id": "node/1432366811",
        "shop": "convenience"
      },
      "geometry": {
        "type": "Point",
        "coordinates": [
          -76.4008206,
          41.5248272
        ]
      },
      "id": "node/1432366811"
    },
    {
      "type": "Feature",
      "properties": {
        "@id": "node/1432371954",
        "addr:postcode": "18850",
        "addr:street": "Rt. 6",
        "name": "Dandy MiniMart",
        "shop": "convenience"
      },
      "geometry": {
        "type": "Point",
        "coordinates": [
          -76.5008798,
          41.8485256
        ]
      },
      "id": "node/1432371954"
    },
    {
      "type": "Feature",
      "properties": {
        "@id": "node/1450229042",
        "name": "Dandy MIniMart",
        "shop": "convenience"
      },
      "geometry": {
        "type": "Point",
        "coordinates": [
          -76.5185121,
          41.9587786
        ]
      },
      "id": "node/1450229042"
    },
    {
      "type": "Feature",
      "properties": {
        "@id": "node/1455662249",
        "name": "Swiss Farms",
        "shop": "convenience"
      },
      "geometry": {
        "type": "Point",
        "coordinates": [
          -75.3143388,
          39.8932249
        ]
      },
      "id": "node/1455662249"
    },
    {
      "type": "Feature",
      "properties": {
        "@id": "node/1458404686",
        "name": "Jurnack's Health Food Store",
        "shop": "convenience"
      },
      "geometry": {
        "type": "Point",
        "coordinates": [
          -76.4332194,
          41.7631813
        ]
      },
      "id": "node/1458404686"
    },
    {
      "type": "Feature",
      "properties": {
        "@id": "node/1460658928",
        "name": "Pennmart",
        "shop": "convenience"
      },
      "geometry": {
        "type": "Point",
        "coordinates": [
          -76.2500624,
          41.6601051
        ]
      },
      "id": "node/1460658928"
    },
    {
      "type": "Feature",
      "properties": {
        "@id": "node/1477948522",
        "amenity": "fuel",
        "brand": "Sunoco",
        "brand:wikidata": "Q1423218",
        "brand:wikipedia": "en:Sunoco",
        "name": "Doc's Deli'licious & Sunoco",
        "shop": "convenience"
      },
      "geometry": {
        "type": "Point",
        "coordinates": [
          -75.6541639,
          41.5312031
        ]
      },
      "id": "node/1477948522"
    },
    {
      "type": "Feature",
      "properties": {
        "@id": "node/1479127343",
        "name": "Swiss Farms",
        "shop": "convenience"
      },
      "geometry": {
        "type": "Point",
        "coordinates": [
          -75.3177113,
          39.9830685
        ]
      },
      "id": "node/1479127343"
    },
    {
      "type": "Feature",
      "properties": {
        "@id": "node/1502528180",
        "addr:city": "Red Lion",
        "addr:housenumber": "693",
        "addr:postcode": "17356",
        "addr:street": "Lombard Road",
        "brand": "Weis",
        "brand:wikidata": "Q7980370",
        "brand:wikipedia": "en:Weis Markets",
        "name": "Weis",
        "official_name": "Weis Markets",
        "shop": "supermarket"
      },
      "geometry": {
        "type": "Point",
        "coordinates": [
          -76.6313299,
          39.9165446
        ]
      },
      "id": "node/1502528180"
    },
    {
      "type": "Feature",
      "properties": {
        "@id": "node/1502528181",
        "addr:city": "Red Lion",
        "addr:housenumber": "3175",
        "addr:postcode": "17356",
        "addr:street": "Cape Horn Road",
        "brand": "Giant",
        "brand:wikidata": "Q5558332",
        "brand:wikipedia": "en:The Giant Company",
        "name": "Giant",
        "shop": "supermarket"
      },
      "geometry": {
        "type": "Point",
        "coordinates": [
          -76.6279635,
          39.9184859
        ]
      },
      "id": "node/1502528181"
    },
    {
      "type": "Feature",
      "properties": {
        "@id": "node/1504706205",
        "amenity": "fuel",
        "brand": "GetGo",
        "brand:wikidata": "Q5553766",
        "brand:wikipedia": "en:GetGo",
        "name": "GetGo",
        "opening_hours": "24/7",
        "operator": "Giant Eagle",
        "shop": "convenience"
      },
      "geometry": {
        "type": "Point",
        "coordinates": [
          -80.0579739,
          40.6892125
        ]
      },
      "id": "node/1504706205"
    },
    {
      "type": "Feature",
      "properties": {
        "@id": "node/1504706206",
        "brand": "Giant Eagle",
        "brand:wikidata": "Q1522721",
        "brand:wikipedia": "en:Giant Eagle",
        "name": "Giant Eagle",
        "opening_hours": "24/7",
        "shop": "supermarket"
      },
      "geometry": {
        "type": "Point",
        "coordinates": [
          -80.0590852,
          40.6899487
        ]
      },
      "id": "node/1504706206"
    },
    {
      "type": "Feature",
      "properties": {
        "@id": "node/1514717035",
        "shop": "supermarket"
      },
      "geometry": {
        "type": "Point",
        "coordinates": [
          -75.1552245,
          40.0980876
        ]
      },
      "id": "node/1514717035"
    },
    {
      "type": "Feature",
      "properties": {
        "@id": "node/1515663620",
        "shop": "convenience"
      },
      "geometry": {
        "type": "Point",
        "coordinates": [
          -80.4122715,
          41.3318264
        ]
      },
      "id": "node/1515663620"
    },
    {
      "type": "Feature",
      "properties": {
        "@id": "node/1556186061",
        "addr:city": "Slippery Rock",
        "addr:housename": "Ste 4. Giant Eagle Plaza",
        "addr:housenumber": "223",
        "addr:postcode": "16057",
        "addr:state": "PA",
        "addr:street": "Grove City Road",
        "air_conditioning": "yes",
        "brand": "Giant Eagle",
        "brand:wikidata": "Q1522721",
        "name": "Giant Eagle",
        "opening_hours": "Mo-Su 07:00-21:00",
        "payment:cash": "yes",
        "payment:credit_cards": "yes",
        "payment:debit_cards": "yes",
        "phone": "+1 724 794 5040",
        "shop": "supermarket",
        "website": "https://www.gianteagle.com/stores/pa/slippery-rock/slippery-rock-giant-eagle/670"
      },
      "geometry": {
        "type": "Point",
        "coordinates": [
          -80.0542886,
          41.0711817
        ]
      },
      "id": "node/1556186061"
    },
    {
      "type": "Feature",
      "properties": {
        "@id": "node/1558298212",
        "addr:city": "West Chester",
        "addr:housenumber": "1115",
        "addr:postcode": "19382",
        "addr:state": "PA",
        "addr:street": "West Chester Pike",
        "brand": "ShopRite",
        "brand:wikidata": "Q7501097",
        "brand:wikipedia": "en:ShopRite (United States)",
        "name": "ShopRite",
        "phone": "(610) 696-4066",
        "shop": "supermarket",
        "website": "http://www.shoprite.com/"
      },
      "geometry": {
        "type": "Point",
        "coordinates": [
          -75.5730739,
          39.9703549
        ]
      },
      "id": "node/1558298212"
    },
    {
      "type": "Feature",
      "properties": {
        "@id": "node/1559444137",
        "brand": "Acme",
        "brand:wikidata": "Q341975",
        "name": "Acme",
        "shop": "supermarket"
      },
      "geometry": {
        "type": "Point",
        "coordinates": [
          -75.587243,
          39.9698624
        ]
      },
      "id": "node/1559444137"
    },
    {
      "type": "Feature",
      "properties": {
        "@id": "node/1572151119",
        "brand": "Whole Foods Market",
        "brand:wikidata": "Q1809448",
        "brand:wikipedia": "en:Whole Foods Market",
        "name": "Whole Foods Market",
        "shop": "supermarket"
      },
      "geometry": {
        "type": "Point",
        "coordinates": [
          -75.542787,
          39.8633807
        ]
      },
      "id": "node/1572151119"
    },
    {
      "type": "Feature",
      "properties": {
        "@id": "node/1585025800",
        "addr:housenumber": "2021",
        "brand": "Giant Eagle",
        "brand:wikidata": "Q1522721",
        "brand:wikipedia": "en:Giant Eagle",
        "name": "Giant Eagle",
        "shop": "supermarket",
        "website": "https://www.gianteagle.com/"
      },
      "geometry": {
        "type": "Point",
        "coordinates": [
          -79.9766634,
          40.4310201
        ]
      },
      "id": "node/1585025800"
    },
    {
      "type": "Feature",
      "properties": {
        "@id": "node/1586402238",
        "name": "Weis Market",
        "shop": "supermarket"
      },
      "geometry": {
        "type": "Point",
        "coordinates": [
          -75.3893396,
          40.6741135
        ]
      },
      "id": "node/1586402238"
    },
    {
      "type": "Feature",
      "properties": {
        "@id": "node/1589495965",
        "addr:city": "Erie",
        "addr:housenumber": "7650",
        "addr:postcode": "16509",
        "addr:state": "PA",
        "addr:street": "Old Perry Highway",
        "name": "Country Fair",
        "shop": "convenience"
      },
      "geometry": {
        "type": "Point",
        "coordinates": [
          -80.0425083,
          42.0709967
        ]
      },
      "id": "node/1589495965"
    },
    {
      "type": "Feature",
      "properties": {
        "@id": "node/1595219522",
        "name": "Acme Market",
        "shop": "supermarket"
      },
      "geometry": {
        "type": "Point",
        "coordinates": [
          -75.3979094,
          39.9856595
        ]
      },
      "id": "node/1595219522"
    },
    {
      "type": "Feature",
      "properties": {
        "@id": "node/1595848433",
        "name": "Acme Markets",
        "shop": "supermarket"
      },
      "geometry": {
        "type": "Point",
        "coordinates": [
          -75.2121408,
          40.1071027
        ]
      },
      "id": "node/1595848433"
    },
    {
      "type": "Feature",
      "properties": {
        "@id": "node/1606862517",
        "brand": "Wawa",
        "brand:wikidata": "Q5936320",
        "brand:wikipedia": "en:Wawa (company)",
        "name": "Wawa",
        "shop": "convenience"
      },
      "geometry": {
        "type": "Point",
        "coordinates": [
          -75.145776,
          39.94177
        ]
      },
      "id": "node/1606862517"
    },
    {
      "type": "Feature",
      "properties": {
        "@id": "node/1618915131",
        "name": "Oval Country Store",
        "shop": "convenience"
      },
      "geometry": {
        "type": "Point",
        "coordinates": [
          -77.1730118,
          41.1496613
        ]
      },
      "id": "node/1618915131"
    },
    {
      "type": "Feature",
      "properties": {
        "@id": "node/1646178485",
        "name": "Lingle's Neighborhood Market",
        "shop": "supermarket"
      },
      "geometry": {
        "type": "Point",
        "coordinates": [
          -77.2638806,
          41.2031553
        ]
      },
      "id": "node/1646178485"
    },
    {
      "type": "Feature",
      "properties": {
        "@id": "node/1654953324",
        "addr:housename": "Giant",
        "addr:housenumber": "698",
        "addr:postcode": "19380",
        "addr:street": "Downingtown Pike",
        "brand": "Giant",
        "brand:wikidata": "Q5558332",
        "name": "Giant",
        "shop": "supermarket",
        "website": "https://giantfoodstores.com/"
      },
      "geometry": {
        "type": "Point",
        "coordinates": [
          -75.6222189,
          39.9607496
        ]
      },
      "id": "node/1654953324"
    },
    {
      "type": "Feature",
      "properties": {
        "@id": "node/1656861982",
        "amenity": "drinking_water",
        "check_date": "2021-11-01",
        "man_made": "water_tap"
      },
      "geometry": {
        "type": "Point",
        "coordinates": [
          12.4883955,
          41.8907173
        ]
      },
      "id": "node/1656861982"
    },
    {
      "type": "Feature",
      "properties": {
        "@id": "node/1665436766",
        "brand": "7-Eleven",
        "brand:wikidata": "Q259340",
        "brand:wikipedia": "en:7-Eleven",
        "name": "7-Eleven",
        "shop": "convenience"
      },
      "geometry": {
        "type": "Point",
        "coordinates": [
          -75.1921187,
          39.9557291
        ]
      },
      "id": "node/1665436766"
    },
    {
      "type": "Feature",
      "properties": {
        "@id": "node/1666025965",
        "amenity": "marketplace",
        "name": "Interiors",
        "shop": "furniture"
      },
      "geometry": {
        "type": "Point",
        "coordinates": [
          -76.3919384,
          40.0400986
        ]
      },
      "id": "node/1666025965"
    },
    {
      "type": "Feature",
      "properties": {
        "@id": "node/1668102861",
        "addr:city": "York",
        "addr:housenumber": "275",
        "addr:postcode": "17402",
        "addr:street": "Pauline Drive",
        "brand": "Giant",
        "brand:wikidata": "Q5558332",
        "brand:wikipedia": "en:The Giant Company",
        "name": "Giant",
        "operator": "Giant Food Stores Inc.",
        "payment:cash": "yes",
        "payment:credit_cards": "yes",
        "shop": "supermarket",
        "source": "Personal Knowledge",
        "toilets": "yes",
        "toilets:wheelchair": "yes",
        "website": "https://giantfoodstores.com/index.html",
        "wheelchair": "yes"
      },
      "geometry": {
        "type": "Point",
        "coordinates": [
          -76.6820713,
          39.9342962
        ]
      },
      "id": "node/1668102861"
    },
    {
      "type": "Feature",
      "properties": {
        "@id": "node/1674046497",
        "amenity": "marketplace",
        "name": "Pac Mail"
      },
      "geometry": {
        "type": "Point",
        "coordinates": [
          -75.6833718,
          39.8629043
        ]
      },
      "id": "node/1674046497"
    },
    {
      "type": "Feature",
      "properties": {
        "@id": "node/1680927748",
        "name": "Harvest Moon Mart & Deli",
        "shop": "convenience"
      },
      "geometry": {
        "type": "Point",
        "coordinates": [
          -77.1740145,
          41.2179724
        ]
      },
      "id": "node/1680927748"
    },
    {
      "type": "Feature",
      "properties": {
        "@id": "node/1681559570",
        "addr:housenumber": "2016",
        "addr:postcode": "16101",
        "addr:street": "W State St",
        "name": "Sparkle Market",
        "shop": "supermarket",
        "website": "http://www.ncshopnsave.com/"
      },
      "geometry": {
        "type": "Point",
        "coordinates": [
          -80.3782304,
          41.008864
        ]
      },
      "id": "node/1681559570"
    },
    {
      "type": "Feature",
      "properties": {
        "@id": "node/1681589960",
        "addr:housenumber": "947",
        "addr:postcode": "18431",
        "addr:street": "Main St",
        "name": "Nature's Grace",
        "shop": "convenience"
      },
      "geometry": {
        "type": "Point",
        "coordinates": [
          -75.256434,
          41.574303
        ]
      },
      "id": "node/1681589960"
    },
    {
      "type": "Feature",
      "properties": {
        "@id": "node/1686621263",
        "addr:city": "Jacobus",
        "addr:housenumber": "35",
        "addr:postcode": "17407",
        "addr:state": "PA",
        "addr:street": "North Main Street",
        "atm": "yes",
        "brand": "Rutter's",
        "brand:wikidata": "Q7383544",
        "brand:wikipedia": "en:Rutter's",
        "diet:vegetarian": "yes",
        "ice_cream": "yes",
        "internet_access": "wlan",
        "internet_access:fee": "no",
        "name": "Rutter's",
        "opening_hours": "05:00-23:00",
        "payment:cash": "yes",
        "payment:credit_cards": "yes",
        "phone": "+1-717-428-1088",
        "shop": "convenience",
        "tobacco": "yes",
        "toilets": "yes",
        "toilets:wheelchair": "yes",
        "website": "http://www.rutters51.com",
        "wheelchair": "yes"
      },
      "geometry": {
        "type": "Point",
        "coordinates": [
          -76.7098778,
          39.882906
        ]
      },
      "id": "node/1686621263"
    },
    {
      "type": "Feature",
      "properties": {
        "@id": "node/1687095325",
        "amenity": "fuel",
        "brand": "Sunoco",
        "shop": "convenience"
      },
      "geometry": {
        "type": "Point",
        "coordinates": [
          -79.9767779,
          40.4957794
        ]
      },
      "id": "node/1687095325"
    },
    {
      "type": "Feature",
      "properties": {
        "@id": "node/1687413116",
        "name": "Natural",
        "shop": "supermarket"
      },
      "geometry": {
        "type": "Point",
        "coordinates": [
          -76.8479065,
          40.0083623
        ]
      },
      "id": "node/1687413116"
    },
    {
      "type": "Feature",
      "properties": {
        "@id": "node/1687418813",
        "addr:city": "Doylestown",
        "addr:housenumber": "480",
        "addr:postcode": "18901",
        "addr:street": "North Main Street",
        "brand": "Acme",
        "brand:wikidata": "Q341975",
        "brand:wikipedia": "en:Acme Markets",
        "designation": "480 N Main St",
        "name": "Acme",
        "shop": "supermarket"
      },
      "geometry": {
        "type": "Point",
        "coordinates": [
          -75.1323695,
          40.3224269
        ]
      },
      "id": "node/1687418813"
    },
    {
      "type": "Feature",
      "properties": {
        "@id": "node/1687449223",
        "brand": "Wawa",
        "brand:wikidata": "Q5936320",
        "brand:wikipedia": "en:Wawa (company)",
        "cuisine": "regional",
        "name": "Wawa",
        "shop": "convenience"
      },
      "geometry": {
        "type": "Point",
        "coordinates": [
          -75.3595301,
          39.9664405
        ]
      },
      "id": "node/1687449223"
    },
    {
      "type": "Feature",
      "properties": {
        "@id": "node/1687525859",
        "name": "A Plus",
        "shop": "convenience"
      },
      "geometry": {
        "type": "Point",
        "coordinates": [
          -75.0353242,
          40.0297416
        ]
      },
      "id": "node/1687525859"
    },
    {
      "type": "Feature",
      "properties": {
        "@id": "node/1691355316",
        "brand": "Giant Eagle",
        "brand:wikidata": "Q1522721",
        "brand:wikipedia": "en:Giant Eagle",
        "name": "Giant Eagle",
        "shop": "supermarket"
      },
      "geometry": {
        "type": "Point",
        "coordinates": [
          -79.4974628,
          40.3008958
        ]
      },
      "id": "node/1691355316"
    },
    {
      "type": "Feature",
      "properties": {
        "@id": "node/1695510539",
        "addr:city": "Nesquehoning",
        "addr:housenumber": "184",
        "addr:postcode": "18240",
        "addr:state": "PA",
        "addr:street": "Market Street",
        "brand": "Redner's",
        "brand:wikidata": "Q7306166",
        "brand:wikipedia": "en:Redner's Markets",
        "name": "Redner's",
        "opening_hours": "Mo-Su 06:00-22:00",
        "phone": "570 669 7030",
        "shop": "supermarket",
        "website": "https://www.rednersmarkets.com/"
      },
      "geometry": {
        "type": "Point",
        "coordinates": [
          -75.8184632,
          40.860183
        ]
      },
      "id": "node/1695510539"
    },
    {
      "type": "Feature",
      "properties": {
        "@id": "node/1696271262",
        "name": "Corner Store",
        "shop": "convenience"
      },
      "geometry": {
        "type": "Point",
        "coordinates": [
          -75.2276519,
          39.9220901
        ]
      },
      "id": "node/1696271262"
    },
    {
      "type": "Feature",
      "properties": {
        "@id": "node/1696444246",
        "addr:housename": "Cam's 11",
        "addr:housenumber": "112",
        "addr:street": "Chestnut Street",
        "designation": "It is like the average 711",
        "name": "Camille's Store",
        "shop": "convenience"
      },
      "geometry": {
        "type": "Point",
        "coordinates": [
          -75.8222149,
          39.984368
        ]
      },
      "id": "node/1696444246"
    },
    {
      "type": "Feature",
      "properties": {
        "@id": "node/1697111710",
        "addr:city": "Wyncote",
        "addr:housenumber": "8200",
        "addr:postcode": "19095",
        "addr:state": "PA",
        "addr:street": "Ogontz Avenue",
        "brand": "ALDI",
        "brand:wikidata": "Q41171672",
        "brand:wikipedia": "en:Aldi",
        "name": "ALDI",
        "shop": "supermarket"
      },
      "geometry": {
        "type": "Point",
        "coordinates": [
          -75.1599222,
          40.0770364
        ]
      },
      "id": "node/1697111710"
    },
    {
      "type": "Feature",
      "properties": {
        "@id": "node/1697133587",
        "addr:city": "Wyncote",
        "addr:housenumber": "1000",
        "addr:postcode": "19095",
        "addr:state": "PA",
        "addr:street": "Easton Road",
        "addr:unit": "Suite 100",
        "name": "The Fresh Grocer",
        "old_name": "Pathmark",
        "opening_hours": "07:000-23:00",
        "phone": "+1 215 376 0111",
        "shop": "supermarket",
        "website": "https://www.thefreshgrocer.com/pd/stores/PA/Wyncote/The-Fresh-Grocer-of-Wyncote/1E82123767"
      },
      "geometry": {
        "type": "Point",
        "coordinates": [
          -75.1661265,
          40.0818847
        ]
      },
      "id": "node/1697133587"
    },
    {
      "type": "Feature",
      "properties": {
        "@id": "node/1697153301",
        "shop": "supermarket"
      },
      "geometry": {
        "type": "Point",
        "coordinates": [
          -75.1886105,
          40.0823205
        ]
      },
      "id": "node/1697153301"
    },