{
  "type": "FeatureCollection",
  "generator": "overpass-ide",
  "copyright": "The data included in this document is from www.openstreetmap.org. The data is made available under ODbL.",
  "timestamp": "2023-03-05T23:32:16Z",
  "features": [
    {
      "type": "Feature",
      "properties": {
        "@id": "node/266310881",
        "amenity": "drinking_water"
      },
      "geometry": {
        "type": "Point",
        "coordinates": [
          12.4934985,
          41.8923773
        ]
      },
      "id": "node/266310881"
    },
    {
      "type": "Feature",
      "properties": {
        "@id": "node/282370094",
        "addr:city": "Chicago",
        "addr:housenumber": "5320",
        "addr:postcode": "60656",
        "addr:state": "IL",
        "addr:street": "North Cumberland Avenue",
        "brand": "7-Eleven",
        "brand:wikidata": "Q259340",
        "brand:wikipedia": "en:7-Eleven",
        "name": "7-Eleven",
        "shop": "convenience",
        "website": "https://www.7-eleven.com/"
      },
      "geometry": {
        "type": "Point",
        "coordinates": [
          -87.8373006,
          41.9763227
        ]
      },
      "id": "node/282370094"
    },
    {
      "type": "Feature",
      "properties": {
        "@id": "node/286083683",
        "brand": "Marathon",
        "brand:wikidata": "Q458363",
        "brand:wikipedia": "en:Marathon Petroleum",
        "name": "Marathon",
        "shop": "convenience"
      },
      "geometry": {
        "type": "Point",
        "coordinates": [
          -87.7771142,
          42.0267049
        ]
      },
      "id": "node/286083683"
    },
    {
      "type": "Feature",
      "properties": {
        "@id": "node/294829415",
        "addr:city": "Skokie",
        "addr:housenumber": "9449",
        "addr:postcode": "60077",
        "addr:state": "IL",
        "addr:street": "Skokie Boulevard",
        "brand": "Jewel-Osco",
        "brand:wikidata": "Q3178470",
        "brand:wikipedia": "en:Jewel (supermarket)",
        "name": "Jewel-Osco",
        "shop": "supermarket",
        "website": "https://www.jewelosco.com/pd/stores/IL/Skokie/Skokie-Skokie-Blvd/F3F773363"
      },
      "geometry": {
        "type": "Point",
        "coordinates": [
          -87.7447132,
          42.0528831
        ]
      },
      "id": "node/294829415"
    },
    {
      "type": "Feature",
      "properties": {
        "@id": "node/307816977",
        "brand": "7-Eleven",
        "brand:wikidata": "Q259340",
        "brand:wikipedia": "en:7-Eleven",
        "name": "7-Eleven",
        "shop": "convenience"
      },
      "geometry": {
        "type": "Point",
        "coordinates": [
          -87.9860269,
          42.1532537
        ]
      },
      "id": "node/307816977"
    },
    {
      "type": "Feature",
      "properties": {
        "@id": "node/362075598",
        "addr:city": "Evanston",
        "addr:housenumber": "2485",
        "addr:postcode": "60202",
        "addr:state": "IL",
        "addr:street": "Howard Street",
        "addr:street:name": "Howard",
        "addr:street:type": "Street",
        "brand": "Jewel-Osco",
        "brand:wikidata": "Q3178470",
        "brand:wikipedia": "en:Jewel (supermarket)",
        "description": "24/7 Jewel.",
        "name": "Jewel-Osco",
        "opening_hours": "24/7",
        "operator": "Jewel-Osco",
        "phone": "(847) 328-9791",
        "shop": "supermarket",
        "website": "https://www.jewelosco.com/stores/view-store.3487.html",
        "wheelchair": "yes"
      },
      "geometry": {
        "type": "Point",
        "coordinates": [
          -87.7079886,
          42.0208142
        ]
      },
      "id": "node/362075598"
    },
    {
      "type": "Feature",
      "properties": {
        "@id": "node/388984003",
        "amenity": "drinking_water",
        "fountain": "nasone"
      },
      "geometry": {
        "type": "Point",
        "coordinates": [
          12.494519,
          41.8877413
        ]
      },
      "id": "node/388984003"
    },
    {
      "type": "Feature",
      "properties": {
        "@id": "node/392722752",
        "addr:city": "Chicago",
        "addr:housenumber": "3140",
        "addr:postcode": "60618",
        "addr:state": "IL",
        "addr:street": "North California Avenue",
        "name": "Carniceria Guanajuato",
        "shop": "supermarket",
        "wheelchair": "yes"
      },
      "geometry": {
        "type": "Point",
        "coordinates": [
          -87.6980674,
          41.9387842
        ]
      },
      "id": "node/392722752"
    },
    {
      "type": "Feature",
      "properties": {
        "@id": "node/458917306",
        "brand": "Jewel-Osco",
        "brand:wikidata": "Q3178470",
        "brand:wikipedia": "en:Jewel (supermarket)",
        "name": "Jewel-Osco",
        "shop": "supermarket"
      },
      "geometry": {
        "type": "Point",
        "coordinates": [
          -87.8862549,
          41.1607787
        ]
      },
      "id": "node/458917306"
    },
    {
      "type": "Feature",
      "properties": {
        "@id": "node/460260857",
        "name": "Wonder Foods",
        "shop": "supermarket"
      },
      "geometry": {
        "type": "Point",
        "coordinates": [
          -88.3437152,
          42.3850066
        ]
      },
      "id": "node/460260857"
    },
    {
      "type": "Feature",
      "properties": {
        "@id": "node/463772284",
        "brand": "7-Eleven",
        "brand:wikidata": "Q259340",
        "brand:wikipedia": "en:7-Eleven",
        "name": "7-Eleven",
        "shop": "convenience"
      },
      "geometry": {
        "type": "Point",
        "coordinates": [
          -87.6623499,
          41.9248909
        ]
      },
      "id": "node/463772284"
    },
    {
      "type": "Feature",
      "properties": {
        "@id": "node/470777864",
        "brand": "7-Eleven",
        "brand:wikidata": "Q259340",
        "brand:wikipedia": "en:7-Eleven",
        "name": "7-Eleven",
        "opening_hours:signed": "no",
        "shop": "convenience"
      },
      "geometry": {
        "type": "Point",
        "coordinates": [
          -88.0189687,
          41.8868416
        ]
      },
      "id": "node/470777864"
    },
    {
      "type": "Feature",
      "properties": {
        "@id": "node/470778473",
        "brand": "7-Eleven",
        "brand:wikidata": "Q259340",
        "brand:wikipedia": "en:7-Eleven",
        "name": "7-Eleven",
        "shop": "convenience"
      },
      "geometry": {
        "type": "Point",
        "coordinates": [
          -88.018461,
          41.875089
        ]
      },
      "id": "node/470778473"
    },
    {
      "type": "Feature",
      "properties": {
        "@id": "node/480617083",
        "brand": "Jewel-Osco",
        "brand:wikidata": "Q3178470",
        "brand:wikipedia": "en:Jewel (supermarket)",
        "name": "Jewel-Osco",
        "shop": "supermarket"
      },
      "geometry": {
        "type": "Point",
        "coordinates": [
          -88.0817862,
          41.9384722
        ]
      },
      "id": "node/480617083"
    },
    {
      "type": "Feature",
      "properties": {
        "@id": "node/486089174",
        "name": "Beach Foods",
        "shop": "convenience"
      },
      "geometry": {
        "type": "Point",
        "coordinates": [
          -87.8261574,
          42.4201999
        ]
      },
      "id": "node/486089174"
    },
    {
      "type": "Feature",
      "properties": {
        "@id": "node/492622335",
        "brand": "Jewel-Osco",
        "brand:wikidata": "Q3178470",
        "brand:wikipedia": "en:Jewel (supermarket)",
        "name": "Jewel-Osco",
        "shop": "supermarket"
      },
      "geometry": {
        "type": "Point",
        "coordinates": [
          -88.0050872,
          42.005195
        ]
      },
      "id": "node/492622335"
    },
    {
      "type": "Feature",
      "properties": {
        "@id": "node/495113034",
        "amenity": "drinking_water",
        "check_date": "2022-06-22"
      },
      "geometry": {
        "type": "Point",
        "coordinates": [
          12.4934283,
          41.8913309
        ]
      },
      "id": "node/495113034"
    },
    {
      "type": "Feature",
      "properties": {
        "@id": "node/512985792",
        "addr:city": "Naperville",
        "addr:housenumber": "351",
        "addr:postcode": "60565",
        "addr:state": "IL",
        "addr:street": "East Bailey Road",
        "air_conditioning": "yes",
        "name": "5 Twelve",
        "payment:cards": "yes",
        "payment:cash": "yes",
        "phone": "(630) 369-0663",
        "shop": "convenience"
      },
      "geometry": {
        "type": "Point",
        "coordinates": [
          -88.1240753,
          41.7408319
        ]
      },
      "id": "node/512985792"
    },
    {
      "type": "Feature",
      "properties": {
        "@id": "node/516557601",
        "brand": "7-Eleven",
        "brand:wikidata": "Q259340",
        "brand:wikipedia": "en:7-Eleven",
        "name": "7-Eleven",
        "shop": "convenience"
      },
      "geometry": {
        "type": "Point",
        "coordinates": [
          -88.1988743,
          41.5209896
        ]
      },
      "id": "node/516557601"
    },
    {
      "type": "Feature",
      "properties": {
        "@id": "node/527495490",
        "addr:city": "Des Plaines",
        "addr:housenumber": "586",
        "addr:postcode": "60018",
        "addr:state": "IL",
        "addr:street": "East Oakton Street",
        "brand": "7-Eleven",
        "brand:wikidata": "Q259340",
        "brand:wikipedia": "en:7-Eleven",
        "name": "7-Eleven",
        "shop": "convenience",
        "website": "https://www.7-eleven.com/locations/il/des%20plaines/586-e-oakton-st-33360"
      },
      "geometry": {
        "type": "Point",
        "coordinates": [
          -87.909291,
          42.0238105
        ]
      },
      "id": "node/527495490"
    },
    {
      "type": "Feature",
      "properties": {
        "@id": "node/530816333",
        "name": "Hi-Lo Supermarket",
        "operator": "Kisler Bros.",
        "shop": "supermarket"
      },
      "geometry": {
        "type": "Point",
        "coordinates": [
          -90.3643647,
          40.9358896
        ]
      },
      "id": "node/530816333"
    },
    {
      "type": "Feature",
      "properties": {
        "@id": "node/632841254",
        "brand": "7-Eleven",
        "brand:wikidata": "Q259340",
        "brand:wikipedia": "en:7-Eleven",
        "name": "7-Eleven",
        "shop": "convenience"
      },
      "geometry": {
        "type": "Point",
        "coordinates": [
          -88.2708103,
          41.4543228
        ]
      },
      "id": "node/632841254"
    },
    {
      "type": "Feature",
      "properties": {
        "@id": "node/685457655",
        "amenity": "drinking_water",
        "check_date": "2021-11-01"
      },
      "geometry": {
        "type": "Point",
        "coordinates": [
          12.4867108,
          41.8902623
        ]
      },
      "id": "node/685457655"
    },
    {
      "type": "Feature",
      "properties": {
        "@id": "node/685461877",
        "amenity": "drinking_water",
        "check_date": "2021-11-01"
      },
      "geometry": {
        "type": "Point",
        "coordinates": [
          12.4875779,
          41.8891234
        ]
      },
      "id": "node/685461877"
    },
    {
      "type": "Feature",
      "properties": {
        "@id": "node/699260880",
        "brand": "Kroger",
        "brand:wikidata": "Q153417",
        "name": "Kroger",
        "shop": "supermarket"
      },
      "geometry": {
        "type": "Point",
        "coordinates": [
          -89.7010159,
          41.8092856
        ]
      },
      "id": "node/699260880"
    },
    {
      "type": "Feature",
      "properties": {
        "@id": "node/757950925",
        "addr:city": "Chicago",
        "addr:housenumber": "5316",
        "addr:postcode": "60630",
        "addr:state": "IL",
        "addr:street": "North Milwaukee Avenue",
        "addr:unit": "M",
        "brand": "7-Eleven",
        "brand:wikidata": "Q259340",
        "brand:wikipedia": "en:7-Eleven",
        "name": "7-Eleven",
        "shop": "convenience",
        "website": "https://www.7-eleven.com/locations/il/chicago/5316-m-n-milwaukee-avenue-33067"
      },
      "geometry": {
        "type": "Point",
        "coordinates": [
          -87.7697838,
          41.9772518
        ]
      },
      "id": "node/757950925"
    },
    {
      "type": "Feature",
      "properties": {
        "@id": "node/761427540",
        "name": "IGA Food Mart",
        "shop": "supermarket"
      },
      "geometry": {
        "type": "Point",
        "coordinates": [
          -89.2800422,
          40.7202238
        ]
      },
      "id": "node/761427540"
    },
    {
      "type": "Feature",
      "properties": {
        "@id": "node/761440021",
        "name": "Eureka Ace Hardware / Radio Shack",
        "shop": "convenience"
      },
      "geometry": {
        "type": "Point",
        "coordinates": [
          -89.2735022,
          40.7013936
        ]
      },
      "id": "node/761440021"
    },
    {
      "type": "Feature",
      "properties": {
        "@id": "node/761443152",
        "name": "Et Cetera Second Hand",
        "shop": "convenience"
      },
      "geometry": {
        "type": "Point",
        "coordinates": [
          -89.2725999,
          40.7206121
        ]
      },
      "id": "node/761443152"
    },
    {
      "type": "Feature",
      "properties": {
        "@id": "node/761533938",
        "name": "Sunset Foods",
        "phone": "+1-847-573-9570",
        "shop": "supermarket"
      },
      "geometry": {
        "type": "Point",
        "coordinates": [
          -87.9822295,
          42.3042144
        ]
      },
      "id": "node/761533938"
    },
    {
      "type": "Feature",
      "properties": {
        "@id": "node/761664861",
        "brand": "7-Eleven",
        "brand:wikidata": "Q259340",
        "brand:wikipedia": "en:7-Eleven",
        "name": "7-Eleven",
        "shop": "convenience"
      },
      "geometry": {
        "type": "Point",
        "coordinates": [
          -87.7561318,
          41.624156
        ]
      },
      "id": "node/761664861"
    },
    {
      "type": "Feature",
      "properties": {
        "@id": "node/761732051",
        "brand": "Jewel-Osco",
        "brand:wikidata": "Q3178470",
        "brand:wikipedia": "en:Jewel (supermarket)",
        "name": "Jewel-Osco",
        "shop": "supermarket"
      },
      "geometry": {
        "type": "Point",
        "coordinates": [
          -87.7577484,
          41.604264
        ]
      },
      "id": "node/761732051"
    },
    {
      "type": "Feature",
      "properties": {
        "@id": "node/761869242",
        "name": "Farina Market",
        "shop": "supermarket"
      },
      "geometry": {
        "type": "Point",
        "coordinates": [
          -88.7744431,
          38.8316826
        ]
      },
      "id": "node/761869242"
    },
    {
      "type": "Feature",
      "properties": {
        "@id": "node/803066940",
        "brand": "Jewel-Osco",
        "brand:wikidata": "Q3178470",
        "brand:wikipedia": "en:Jewel (supermarket)",
        "name": "Jewel-Osco",
        "shop": "supermarket"
      },
      "geometry": {
        "type": "Point",
        "coordinates": [
          -87.9471842,
          42.2622836
        ]
      },
      "id": "node/803066940"
    },
    {
      "type": "Feature",
      "properties": {
        "@id": "node/822114989",
        "name": "Ultra Food",
        "shop": "supermarket"
      },
      "geometry": {
        "type": "Point",
        "coordinates": [
          -87.8743391,
          41.1330329
        ]
      },
      "id": "node/822114989"
    },
    {
      "type": "Feature",
      "properties": {
        "@id": "node/903239399",
        "addr:city": "Chicago",
        "addr:housenumber": "3640",
        "addr:postcode": "60613",
        "addr:state": "IL",
        "addr:street": "North Halsted Street",
        "brand": "Whole Foods Market",
        "brand:wikidata": "Q1809448",
        "brand:wikipedia": "en:Whole Foods Market",
        "name": "Whole Foods Market",
        "shop": "supermarket",
        "wheelchair": "yes"
      },
      "geometry": {
        "type": "Point",
        "coordinates": [
          -87.6498096,
          41.9483162
        ]
      },
      "id": "node/903239399"
    },
    {
      "type": "Feature",
      "properties": {
        "@id": "node/903243739",
        "addr:city": "Chicago",
        "addr:housenumber": "3550",
        "addr:postcode": "60657",
        "addr:state": "IL",
        "addr:street": "North Lake Shore Drive",
        "name": "3550 Convenience Store",
        "shop": "convenience"
      },
      "geometry": {
        "type": "Point",
        "coordinates": [
          -87.6435225,
          41.9483322
        ]
      },
      "id": "node/903243739"
    },
    {
      "type": "Feature",
      "properties": {
        "@id": "node/903247511",
        "name": "3600 Groceries",
        "shop": "convenience"
      },
      "geometry": {
        "type": "Point",
        "coordinates": [
          -87.6437984,
          41.9488158
        ]
      },
      "id": "node/903247511"
    },
    {
      "type": "Feature",
      "properties": {
        "@id": "node/903248024",
        "addr:city": "Chicago",
        "addr:housenumber": "693",
        "addr:postcode": "60613",
        "addr:state": "IL",
        "addr:street": "West Waveland Avenue",
        "name": "The New York Market",
        "opening_hours": "Mo-Sa 08:00-22:00",
        "opening_hours:covid19": "same",
        "payment:cards": "yes",
        "payment:cash": "yes",
        "payment:credit_cards": "yes",
        "payment:mastercard": "yes",
        "payment:visa": "yes",
        "phone": "773-353-1787",
        "shop": "convenience"
      },
      "geometry": {
        "type": "Point",
        "coordinates": [
          -87.6463764,
          41.9496248
        ]
      },
      "id": "node/903248024"
    },
    {
      "type": "Feature",
      "properties": {
        "@id": "node/909285486",
        "addr:city": "Cairo",
        "addr:housenumber": "3811",
        "addr:postcode": "62914",
        "addr:state": "IL",
        "addr:street": "Sycamore Street",
        "amenity": "fuel",
        "name": "Cut Mart",
        "shop": "convenience"
      },
      "geometry": {
        "type": "Point",
        "coordinates": [
          -89.18427,
          37.0178842
        ]
      },
      "id": "node/909285486"
    },
    {
      "type": "Feature",
      "properties": {
        "@id": "node/949090740",
        "brand": "7-Eleven",
        "brand:wikidata": "Q259340",
        "brand:wikipedia": "en:7-Eleven",
        "name": "7-Eleven",
        "shop": "convenience"
      },
      "geometry": {
        "type": "Point",
        "coordinates": [
          -87.6487138,
          41.9492901
        ]
      },
      "id": "node/949090740"
    },
    {
      "type": "Feature",
      "properties": {
        "@id": "node/953890053",
        "amenity": "drinking_water"
      },
      "geometry": {
        "type": "Point",
        "coordinates": [
          12.4879526,
          41.8887986
        ]
      },
      "id": "node/953890053"
    },
    {
      "type": "Feature",
      "properties": {
        "@id": "node/953890062",
        "amenity": "drinking_water",
        "check_date": "2021-11-01",
        "man_made": "water_tap"
      },
      "geometry": {
        "type": "Point",
        "coordinates": [
          12.4883755,
          41.890985
        ]
      },
      "id": "node/953890062"
    },
    {
      "type": "Feature",
      "properties": {
        "@id": "node/953909059",
        "amenity": "drinking_water",
        "fountain": "nasone",
        "wikimedia_commons": "File:Nasone via dei santi Quattro,roma,italy 62022.jpeg"
      },
      "geometry": {
        "type": "Point",
        "coordinates": [
          12.4968765,
          41.8889852
        ]
      },
      "id": "node/953909059"
    },
    {
      "type": "Feature",
      "properties": {
        "@id": "node/966485416",
        "operator": "Zephers",
        "shop": "convenience"
      },
      "geometry": {
        "type": "Point",
        "coordinates": [
          -88.5238447,
          37.7442277
        ]
      },
      "id": "node/966485416"
    },
    {
      "type": "Feature",
      "properties": {
        "@id": "node/966513890",
        "name": "Harts Music Store",
        "shop": "convenience"
      },
      "geometry": {
        "type": "Point",
        "coordinates": [
          -88.5364733,
          37.7382223
        ]
      },
      "id": "node/966513890"
    },
    {
      "type": "Feature",
      "properties": {
        "@id": "node/966601187",
        "operator": "Mill Stone Market",
        "shop": "supermarket"
      },
      "geometry": {
        "type": "Point",
        "coordinates": [
          -88.6332135,
          37.682066
        ]
      },
      "id": "node/966601187"
    },
    {
      "type": "Feature",
      "properties": {
        "@id": "node/966601191",
        "operator": "Roc One Stop",
        "shop": "convenience"
      },
      "geometry": {
        "type": "Point",
        "coordinates": [
          -88.6323981,
          37.6824905
        ]
      },
      "id": "node/966601191"
    },
    {
      "type": "Feature",
      "properties": {
        "@id": "node/967197560",
        "operator": "BP Gas Station",
        "shop": "convenience"
      },
      "geometry": {
        "type": "Point",
        "coordinates": [
          -88.5563706,
          37.7382963
        ]
      },
      "id": "node/967197560"
    },
    {
      "type": "Feature",
      "properties": {
        "@id": "node/1013918512",
        "brand:wikidata": "Q4822010",
        "check_date": "2023-02-11",
        "cuisine": "pretzel",
        "level": "1",
        "name": "Liberty Duty Free",
        "opening_hours": "Mo,We,Fr-Su 07:00-20:00; Tu,Th 07:00-19:00",
        "payment:mastercard": "yes",
        "payment:visa": "yes",
        "shop": "convenience",
        "takeaway": "yes",
        "wheelchair": "yes"
      },
      "geometry": {
        "type": "Point",
        "coordinates": [
          -87.9100768,
          41.978792
        ]
      },
      "id": "node/1013918512"
    },
    {
      "type": "Feature",
      "properties": {
        "@id": "node/1081412317",
        "addr:city": "Mokena",
        "addr:housenumber": "19855",
        "addr:postcode": "60448",
        "addr:state": "IL",
        "addr:street": "La Grange Road",
        "brand": "Speedway",
        "brand:wikidata": "Q7575683",
        "brand:wikipedia": "en:Speedway (store)",
        "name": "Speedway",
        "ref": "1414",
        "shop": "convenience"
      },
      "geometry": {
        "type": "Point",
        "coordinates": [
          -87.8492965,
          41.5289324
        ]
      },
      "id": "node/1081412317"
    },
    {
      "type": "Feature",
      "properties": {
        "@id": "node/1082441640",
        "name": "Kankakee Natural Foods",
        "shop": "health_food"
      },
      "geometry": {
        "type": "Point",
        "coordinates": [
          -87.8496019,
          41.1508913
        ]
      },
      "id": "node/1082441640"
    },
    {
      "type": "Feature",
      "properties": {
        "@id": "node/1108545913",
        "name": "Sheridan Food Mart",
        "shop": "supermarket"
      },
      "geometry": {
        "type": "Point",
        "coordinates": [
          -88.6803844,
          41.5297911
        ]
      },
      "id": "node/1108545913"
    },
    {
      "type": "Feature",
      "properties": {
        "@id": "node/1108586336",
        "name": "Carlson's BP",
        "shop": "convenience"
      },
      "geometry": {
        "type": "Point",
        "coordinates": [
          -88.6817083,
          41.5301796
        ]
      },
      "id": "node/1108586336"
    },
    {
      "type": "Feature",
      "properties": {
        "@id": "node/1108613604",
        "shop": "convenience"
      },
      "geometry": {
        "type": "Point",
        "coordinates": [
          -88.6661081,
          41.464516
        ]
      },
      "id": "node/1108613604"
    },
    {
      "type": "Feature",
      "properties": {
        "@id": "node/1109322373",
        "name": "Tabacco Shop",
        "shop": "convenience"
      },
      "geometry": {
        "type": "Point",
        "coordinates": [
          -88.6815442,
          41.5297864
        ]
      },
      "id": "node/1109322373"
    },
    {
      "type": "Feature",
      "properties": {
        "@id": "node/1123834040",
        "brand": "Jewel-Osco",
        "brand:wikidata": "Q3178470",
        "brand:wikipedia": "en:Jewel (supermarket)",
        "name": "Jewel-Osco",
        "shop": "supermarket",
        "source:name": "local_knowledge"
      },
      "geometry": {
        "type": "Point",
        "coordinates": [
          -88.0176212,
          42.0788759
        ]
      },
      "id": "node/1123834040"
    },
    {
      "type": "Feature",
      "properties": {
        "@id": "node/1153892449",
        "name": "Roanoke IGA",
        "shop": "supermarket"
      },
      "geometry": {
        "type": "Point",
        "coordinates": [
          -89.1974433,
          40.7961539
        ]
      },
      "id": "node/1153892449"
    },
    {
      "type": "Feature",
      "properties": {
        "@id": "node/1156280040",
        "amenity": "fuel",
        "name": "BP",
        "shop": "convenience"
      },
      "geometry": {
        "type": "Point",
        "coordinates": [
          -89.7920538,
          42.4925749
        ]
      },
      "id": "node/1156280040"
    },
    {
      "type": "Feature",
      "properties": {
        "@id": "node/1170494282",
        "amenity": "drinking_water",
        "fountain": "nasone"
      },
      "geometry": {
        "type": "Point",
        "coordinates": [
          12.4942213,
          41.8900377
        ]
      },
      "id": "node/1170494282"
    },
    {
      "type": "Feature",
      "properties": {
        "@id": "node/1171392090",
        "name": "Shop 'n Save",
        "shop": "supermarket"
      },
      "geometry": {
        "type": "Point",
        "coordinates": [
          -89.6367243,
          40.7479601
        ]
      },
      "id": "node/1171392090"
    },
    {
      "type": "Feature",
      "properties": {
        "@id": "node/1178716076",
        "name": "Kroger",
        "shop": "supermarket"
      },
      "geometry": {
        "type": "Point",
        "coordinates": [
          -89.674978,
          40.646223
        ]
      },
      "id": "node/1178716076"
    },
    {
      "type": "Feature",
      "properties": {
        "@id": "node/1178716079",
        "name": "CVS Pharmacy",
        "shop": "convenience"
      },
      "geometry": {
        "type": "Point",
        "coordinates": [
          -89.6702291,
          40.6447811
        ]
      },
      "id": "node/1178716079"
    },
    {
      "type": "Feature",
      "properties": {
        "@id": "node/1233948884",
        "addr:city": "Chicago",
        "addr:housenumber": "535",
        "addr:postcode": "60605",
        "addr:state": "IL",
        "addr:street": "South State Street",
        "brand": "7-Eleven",
        "brand:wikidata": "Q259340",
        "brand:wikipedia": "en:7-Eleven",
        "name": "7-Eleven",
        "shop": "convenience",
        "website": "https://www.7-eleven.com"
      },
      "geometry": {
        "type": "Point",
        "coordinates": [
          -87.6273461,
          41.8748341
        ]
      },
      "id": "node/1233948884"
    },
    {
      "type": "Feature",
      "properties": {
        "@id": "node/1235713689",
        "amenity": "fuel",
        "name": "Mobil",
        "shop": "convenience"
      },
      "geometry": {
        "type": "Point",
        "coordinates": [
          -89.5765723,
          42.1272902
        ]
      },
      "id": "node/1235713689"
    },
    {
      "type": "Feature",
      "properties": {
        "@id": "node/1247191315",
        "shop": "convenience"
      },
      "geometry": {
        "type": "Point",
        "coordinates": [
          -87.6803014,
          42.0138299
        ]
      },
      "id": "node/1247191315"
    },
    {
      "type": "Feature",
      "properties": {
        "@id": "node/1247207815",
        "shop": "convenience"
      },
      "geometry": {
        "type": "Point",
        "coordinates": [
          -87.6827324,
          42.0120265
        ]
      },
      "id": "node/1247207815"
    },
    {
      "type": "Feature",
      "properties": {
        "@id": "node/1249412846",
        "name": "Ohio Filling Station",
        "shop": "convenience"
      },
      "geometry": {
        "type": "Point",
        "coordinates": [
          -89.461959,
          41.5590978
        ]
      },
      "id": "node/1249412846"
    },
    {
      "type": "Feature",
      "properties": {
        "@id": "node/1249454214",
        "name": "Walnut Cheese",
        "shop": "convenience"
      },
      "geometry": {
        "type": "Point",
        "coordinates": [
          -89.5913867,
          41.5571107
        ]
      },
      "id": "node/1249454214"
    },
    {
      "type": "Feature",
      "properties": {
        "@id": "node/1254873299",
        "addr:city": "Algonquin",
        "addr:country": "US",
        "addr:housenumber": "1800",
        "addr:postcode": "60102",
        "addr:state": "IL",
        "addr:street": "South Randall Road",
        "brand": "Trader Joe's",
        "brand:wikidata": "Q688825",
        "brand:wikipedia": "en:Trader Joe's",
        "name": "Trader Joe's",
        "opening_hours": "08:00-21:00; PH off",
        "phone": "+1-847-854-4886",
        "ref": "699",
        "shop": "supermarket",
        "website": "https://locations.traderjoes.com/il/algonquin/699/"
      },
      "geometry": {
        "type": "Point",
        "coordinates": [
          -88.3398061,
          42.1534218
        ]
      },
      "id": "node/1254873299"
    },
    {
      "type": "Feature",
      "properties": {
        "@id": "node/1257466729",
        "name": "6 Points Food & Liquor",
        "shop": "convenience"
      },
      "geometry": {
        "type": "Point",
        "coordinates": [
          -89.0063769,
          40.4593766
        ]
      },
      "id": "node/1257466729"
    },
    {
      "type": "Feature",
      "properties": {
        "@id": "node/1317602515",
        "brand": "7-Eleven",
        "brand:wikidata": "Q259340",
        "brand:wikipedia": "en:7-Eleven",
        "name": "7-Eleven",
        "shop": "convenience"
      },
      "geometry": {
        "type": "Point",
        "coordinates": [
          -88.0435816,
          42.3662822
        ]
      },
      "id": "node/1317602515"
    },
    {
      "type": "Feature",
      "properties": {
        "@id": "node/1317825479",
        "addr:city": "Round Lake Beach",
        "addr:housenumber": "900",
        "addr:postcode": "60073",
        "addr:state": "IL",
        "addr:street": "East Rollins Road",
        "air_conditioning": "yes",
        "brand": "Jewel-Osco",
        "brand:website": "https://jewelosco.com",
        "brand:wikidata": "Q3178470",
        "brand:wikipedia": "en:Jewel (supermarket)",
        "contact:facebook": "https://www.facebook.com/JewelOsco",
        "contact:instagram": "jewelosco",
        "contact:pinterest": "https://www.pinterest.com/jeweloscopr",
        "contact:twitter": "@jewelosco",
        "contact:youtube": "https://www.youtube.com/user/jewelosco",
        "name": "Jewel-Osco",
        "opening_hours": "Mo-Su 06:00-24:00",
        "operator": "Albertsons",
        "organic": "yes",
        "phone": "+1-847-223-9201",
        "shop": "supermarket",
        "website": "https://local.jewelosco.com/il/round-lake-beach/900-e-rollins-rd.html"
      },
      "geometry": {
        "type": "Point",
        "coordinates": [
          -88.0605772,
          42.3818978
        ]
      },
      "id": "node/1317825479"
    },
    {
      "type": "Feature",
      "properties": {
        "@id": "node/1318980635",
        "name": "Best Buy Food & Liquor",
        "opening_hours": "Mo-Sa 10:00-23:00; Su 10:00-22:00",
        "shop": "convenience"
      },
      "geometry": {
        "type": "Point",
        "coordinates": [
          -87.6757086,
          41.9616298
        ]
      },
      "id": "node/1318980635"
    },
    {
      "type": "Feature",
      "properties": {
        "@id": "node/1324503618",
        "name": "Elgin Fresh Market",
        "shop": "supermarket"
      },
      "geometry": {
        "type": "Point",
        "coordinates": [
          -88.2597436,
          42.0472248
        ]
      },
      "id": "node/1324503618"
    },
    {
      "type": "Feature",
      "properties": {
        "@id": "node/1324503908",
        "brand": "Jewel-Osco",
        "brand:wikidata": "Q3178470",
        "brand:wikipedia": "en:Jewel (supermarket)",
        "name": "Jewel-Osco",
        "shop": "supermarket"
      },
      "geometry": {
        "type": "Point",
        "coordinates": [
          -88.2530974,
          42.0479453
        ]
      },
      "id": "node/1324503908"
    },
    {
      "type": "Feature",
      "properties": {
        "@id": "node/1324507543",
        "shop": "supermarket"
      },
      "geometry": {
        "type": "Point",
        "coordinates": [
          -88.2577215,
          42.0264147
        ]
      },
      "id": "node/1324507543"
    },
    {
      "type": "Feature",
      "properties": {
        "@id": "node/1324507557",
        "addr:city": "Elgin",
        "addr:housenumber": "3",
        "addr:postcode": "60120",
        "addr:state": "IL",
        "addr:street": "Clock Tower Plaza",
        "name": "Butera Market",
        "shop": "supermarket",
        "wheelchair": "yes"
      },
      "geometry": {
        "type": "Point",
        "coordinates": [
          -88.2769304,
          42.0285332
        ]
      },
      "id": "node/1324507557"
    },
    {
      "type": "Feature",
      "properties": {
        "@id": "node/1324537401",
        "brand": "7-Eleven",
        "brand:wikidata": "Q259340",
        "brand:wikipedia": "en:7-Eleven",
        "name": "7-Eleven",
        "shop": "convenience"
      },
      "geometry": {
        "type": "Point",
        "coordinates": [
          -88.3129375,
          41.8889153
        ]
      },
      "id": "node/1324537401"
    },
    {
      "type": "Feature",
      "properties": {
        "@id": "node/1325485353",
        "brand": "Trader Joe's",
        "brand:wikidata": "Q688825",
        "brand:wikipedia": "en:Trader Joe's",
        "name": "Trader Joe's",
        "shop": "supermarket"
      },
      "geometry": {
        "type": "Point",
        "coordinates": [
          -88.3385334,
          41.8638988
        ]
      },
      "id": "node/1325485353"
    },
    {
      "type": "Feature",
      "properties": {
        "@id": "node/1325491206",
        "brand": "The Fresh Market",
        "brand:wikidata": "Q7735265",
        "brand:wikipedia": "en:The Fresh Market",
        "name": "The Fresh Market",
        "shop": "supermarket"
      },
      "geometry": {
        "type": "Point",
        "coordinates": [
          -88.3436725,
          41.8972847
        ]
      },
      "id": "node/1325491206"
    },
    {
      "type": "Feature",
      "properties": {
        "@id": "node/1329109585",
        "brand": "Piggly Wiggly",
        "brand:wikidata": "Q3388303",
        "brand:wikipedia": "en:Piggly Wiggly",
        "name": "Piggly Wiggly",
        "shop": "supermarket"
      },
      "geometry": {
        "type": "Point",
        "coordinates": [
          -90.4415193,
          42.4237347
        ]
      },
      "id": "node/1329109585"
    },
    {
      "type": "Feature",
      "properties": {
        "@id": "node/1335917289",
        "fixme": "verify that this still exists",
        "name": "Pik-Kwik",
        "shop": "supermarket"
      },
      "geometry": {
        "type": "Point",
        "coordinates": [
          -88.0682612,
          41.9805732
        ]
      },
      "id": "node/1335917289"
    },
    {
      "type": "Feature",
      "properties": {
        "@id": "node/1348833861",
        "brand": "Jewel-Osco",
        "brand:wikidata": "Q3178470",
        "brand:wikipedia": "en:Jewel (supermarket)",
        "name": "Jewel-Osco",
        "shop": "supermarket"
      },
      "geometry": {
        "type": "Point",
        "coordinates": [
          -88.1779995,
          42.0112779
        ]
      },
      "id": "node/1348833861"
    },
    {
      "type": "Feature",
      "properties": {
        "@id": "node/1363180266",
        "brand": "Patel Brothers",
        "brand:wikidata": "Q55641396",
        "brand:wikipedia": "en:Patel Brothers",
        "cuisine": "indian",
        "name": "Patel Brothers",
        "shop": "supermarket"
      },
      "geometry": {
        "type": "Point",
        "coordinates": [
          -88.1011875,
          42.0490424
        ]
      },
      "id": "node/1363180266"
    },
    {
      "type": "Feature",
      "properties": {
        "@id": "node/1374388964",
        "addr:city": "Gurnee",
        "addr:housename": "Univercell Wireless",
        "addr:housenumber": "19056",
        "addr:postcode": "60046",
        "addr:state": "IL",
        "addr:street": "West Grand Avenue",
        "alt_name": "Computer Repiar Center",
        "name": "Univercell Wireless",
        "shop": "convenience",
        "website": "univercellwireless.com"
      },
      "geometry": {
        "type": "Point",
        "coordinates": [
          -88.0045702,
          42.3867737
        ]
      },
      "id": "node/1374388964"
    },
    {
      "type": "Feature",
      "properties": {
        "@id": "node/1375314517",
        "brand": "Kroger",
        "brand:wikidata": "Q153417",
        "name": "Kroger",
        "shop": "supermarket"
      },
      "geometry": {
        "type": "Point",
        "coordinates": [
          -89.6284609,
          40.5688598
        ]
      },
      "id": "node/1375314517"
    },
    {
      "type": "Feature",
      "properties": {
        "@id": "node/1413831690",
        "name": "County Market",
        "shop": "supermarket"
      },
      "geometry": {
        "type": "Point",
        "coordinates": [
          -90.2522285,
          39.7212522
        ]
      },
      "id": "node/1413831690"
    },
    {
      "type": "Feature",
      "properties": {
        "@id": "node/1427596245",
        "addr:city": "Skokie",
        "addr:housenumber": "4034",
        "addr:postcode": "60076",
        "addr:state": "IL",
        "addr:street": "Dempster Street",
        "name": "Village Market Place",
        "opening_hours": "Mo-Su 08:00-22:00",
        "payment:apple_pay": "yes",
        "payment:cash": "yes",
        "payment:credit_cards": "yes",
        "phone": "+1 847 933 0900",
        "shop": "supermarket",
        "website": "http://villagemarketplace.net/Skokie/"
      },
      "geometry": {
        "type": "Point",
        "coordinates": [
          -87.7292639,
          42.040987
        ]
      },
      "id": "node/1427596245"
    },
    {
      "type": "Feature",
      "properties": {
        "@id": "node/1427599847",
        "addr:city": "Skokie",
        "addr:housenumber": "3924",
        "addr:postcode": "60076",
        "addr:state": "IL",
        "addr:street": "Dempster Street",
        "cuisine": "middle_eastern",
        "diet:halal": "only",
        "name": "Pita Inn Market & Bakery",
        "shop": "convenience"
      },
      "geometry": {
        "type": "Point",
        "coordinates": [
          -87.7263028,
          42.0411029
        ]
      },
      "id": "node/1427599847"
    },
    {
      "type": "Feature",
      "properties": {
        "@id": "node/1428167687",
        "addr:city": "Skokie",
        "addr:postcode": "60076",
        "addr:state": "IL",
        "addr:street": "Dempster Street",
        "name": "Skokie Kwik Mart",
        "shop": "convenience"
      },
      "geometry": {
        "type": "Point",
        "coordinates": [
          -87.722727,
          42.0404217
        ]
      },
      "id": "node/1428167687"
    },
    {
      "type": "Feature",
      "properties": {
        "@id": "node/1428176365",
        "cuisine": "middle_eastern",
        "name": "Peyvand Foods",
        "shop": "convenience"
      },
      "geometry": {
        "type": "Point",
        "coordinates": [
          -87.7214073,
          42.0410412
        ]
      },
      "id": "node/1428176365"
    },
    {
      "type": "Feature",
      "properties": {
        "@id": "node/1434235550",
        "addr:city": "Mundelein",
        "addr:housenumber": "400",
        "addr:postcode": "60060",
        "addr:state": "IL",
        "addr:street": "Townline Road",
        "name": "Garden Fresh Market",
        "shop": "supermarket"
      },
      "geometry": {
        "type": "Point",
        "coordinates": [
          -87.9959075,
          42.2414159
        ]
      },
      "id": "node/1434235550"
    },
    {
      "type": "Feature",
      "properties": {
        "@id": "node/1506998282",
        "addr:city": "Naperville",
        "addr:housenumber": "2855",
        "addr:postcode": "60563",
        "addr:state": "IL",
        "addr:street": "West 95th Street",
        "brand": "Jewel-Osco",
        "brand:wikidata": "Q3178470",
        "brand:wikipedia": "en:Jewel (supermarket)",
        "check_date": "2022-02-21",
        "name": "Jewel-Osco",
        "ref": "3058",
        "shop": "supermarket",
        "wheelchair": "yes"
      },
      "geometry": {
        "type": "Point",
        "coordinates": [
          -88.2033275,
          41.7119758
        ]
      },
      "id": "node/1506998282"
    },
    {
      "type": "Feature",
      "properties": {
        "@id": "node/1575855768",
        "name": "Annapoorna Store",
        "shop": "convenience"
      },
      "geometry": {
        "type": "Point",
        "coordinates": [
          -88.244838,
          40.1111445
        ]
      },
      "id": "node/1575855768"
    },
    {
      "type": "Feature",
      "properties": {
        "@id": "node/1582290547",
        "addr:city": "Chicago",
        "addr:housenumber": "333",
        "addr:postcode": "60601",
        "addr:state": "IL",
        "addr:street": "East Benton Place",
        "brand": "Mariano's Fresh Market",
        "brand:wikidata": "Q55622168",
        "brand:wikipedia": "en:Mariano's (supermarket)",
        "name": "Mariano's Fresh Market",
        "opening_hours": "06:00-22:00",
        "shop": "supermarket",
        "short_name": "Mariano's"
      },
      "geometry": {
        "type": "Point",
        "coordinates": [
          -87.6184319,
          41.8853168
        ]
      },
      "id": "node/1582290547"
    },
    {
      "type": "Feature",
      "properties": {
        "@id": "node/1584111258",
        "name": "Dotty Tobacco",
        "shop": "convenience"
      },
      "geometry": {
        "type": "Point",
        "coordinates": [
          -88.1589389,
          41.5513707
        ]
      },
      "id": "node/1584111258"
    },
    {
      "type": "Feature",
      "properties": {
        "@id": "node/1585375390",
        "addr:city": "Chicago",
        "addr:housenumber": "2559",
        "addr:postcode": "60622",
        "addr:state": "IL",
        "addr:street": "West Division Street",
        "alt_name": "Municipal Foods",
        "name": "Municipal Market",
        "opening_hours": "Mo-Th 09:00-22:00; Fr-Su 09:00-00:00",
        "shop": "supermarket",
        "wheelchair": "yes"
      },
      "geometry": {
        "type": "Point",
        "coordinates": [
          -87.691589,
          41.9027801
        ]
      },
      "id": "node/1585375390"
    },
    {
      "type": "Feature",
      "properties": {
        "@id": "node/1585392230",
        "name": "Milwaukee Dollar Plus",
        "shop": "convenience"
      },
      "geometry": {
        "type": "Point",
        "coordinates": [
          -87.6878216,
          41.9169223
        ]
      },
      "id": "node/1585392230"
    },
    {
      "type": "Feature",
      "properties": {
        "@id": "node/1618326383",
        "addr:city": "Chicago",
        "addr:housenumber": "235",
        "addr:postcode": "60607",
        "addr:state": "IL",
        "addr:street": "West Van Buren Street",
        "name": "South Loop Market",
        "opening_hours": "Mo-Th 07:00-20:00; Fr 07:00-23:00; Sa 09:00-23:00; Su 09:00-21:00",
        "shop": "convenience"
      },
      "geometry": {
        "type": "Point",
        "coordinates": [
          -87.6347962,
          41.8766767
        ]
      },
      "id": "node/1618326383"
    },
    {
      "type": "Feature",
      "properties": {
        "@id": "node/1619646628",
        "addr:city": "Chicago",
        "addr:housenumber": "833",
        "addr:state": "IL",
        "addr:street": "West Van Buren Street",
        "brand": "7-Eleven",
        "brand:wikidata": "Q259340",
        "brand:wikipedia": "en:7-Eleven",
        "name": "7-Eleven",
        "shop": "convenience"
      },
      "geometry": {
        "type": "Point",
        "coordinates": [
          -87.6485639,
          41.8765215
        ]
      },
      "id": "node/1619646628"
    },
    {
      "type": "Feature",
      "properties": {
        "@id": "node/1629279492",
        "name": "Urban Grocers",
        "shop": "convenience"
      },
      "geometry": {
        "type": "Point",
        "coordinates": [
          -87.6271887,
          41.872301
        ]
      },
      "id": "node/1629279492"
    },
    {
      "type": "Feature",
      "properties": {
        "@id": "node/1639964356",
        "brand": "7-Eleven",
        "brand:wikidata": "Q259340",
        "brand:wikipedia": "en:7-Eleven",
        "name": "7-Eleven",
        "opening_hours": "24/7",
        "shop": "convenience"
      },
      "geometry": {
        "type": "Point",
        "coordinates": [
          -87.6360661,
          41.8795276
        ]
      },
      "id": "node/1639964356"
    },
    {
      "type": "Feature",
      "properties": {
        "@id": "node/1640172675",
        "brand": "Jewel-Osco",
        "brand:wikidata": "Q3178470",
        "brand:wikipedia": "en:Jewel (supermarket)",
        "name": "Jewel-Osco",
        "shop": "supermarket"
      },
      "geometry": {
        "type": "Point",
        "coordinates": [
          -87.787687,
          41.9539684
        ]
      },
      "id": "node/1640172675"
    },
    {
      "type": "Feature",
      "properties": {
        "@id": "node/1641076020",
        "brand": "Mobil Mart",
        "brand:wikidata": "Q109676002",
        "brand:wikipedia": "en:Mobil",
        "name": "Mobil Mart",
        "shop": "convenience"
      },
      "geometry": {
        "type": "Point",
        "coordinates": [
          -88.1596703,
          42.0094928
        ]
      },
      "id": "node/1641076020"
    },
    {
      "type": "Feature",
      "properties": {
        "@id": "node/1641076023",
        "brand": "BP Shop",
        "brand:wikidata": "Q152057",
        "brand:wikipedia": "en:BP",
        "name": "BP Shop",
        "shop": "convenience"
      },
      "geometry": {
        "type": "Point",
        "coordinates": [
          -88.1545312,
          42.0090384
        ]
      },
      "id": "node/1641076023"
    },
    {
      "type": "Feature",
      "properties": {
        "@id": "node/1641076024",
        "brand": "ALDI",
        "brand:wikidata": "Q41171672",
        "brand:wikipedia": "en:Aldi",
        "name": "ALDI",
        "shop": "supermarket"
      },
      "geometry": {
        "type": "Point",
        "coordinates": [
          -88.1610972,
          42.0084804
        ]
      },
      "id": "node/1641076024"
    },
    {
      "type": "Feature",
      "properties": {
        "@id": "node/1651216427",
        "addr:city": "Sauk Village",
        "addr:housenumber": "1",
        "addr:postcode": "60411",
        "addr:state": "IL",
        "addr:street": "Sauk Plaza",
        "name": "Fairway Foods",
        "shop": "supermarket",
        "website": "http://fairway-foods.com/"
      },
      "geometry": {
        "type": "Point",
        "coordinates": [
          -87.5555398,
          41.491444
        ]
      },
      "id": "node/1651216427"
    },
    {
      "type": "Feature",
      "properties": {
        "@id": "node/1654768983",
        "brand": "ALDI",
        "brand:wikidata": "Q41171672",
        "brand:wikipedia": "en:Aldi",
        "name": "ALDI",
        "shop": "supermarket"
      },
      "geometry": {
        "type": "Point",
        "coordinates": [
          -88.4351295,
          42.3104741
        ]
      },
      "id": "node/1654768983"
    },
    {
      "type": "Feature",
      "properties": {
        "@id": "node/1656861982",
        "amenity": "drinking_water",
        "check_date": "2021-11-01",
        "man_made": "water_tap"
      },
      "geometry": {
        "type": "Point",
        "coordinates": [
          12.4883955,
          41.8907173
        ]
      },
      "id": "node/1656861982"
    },
    {
      "type": "Feature",
      "properties": {
        "@id": "node/1679535999",
        "addr:city": "Chicago",
        "addr:housenumber": "1101",
        "addr:postcode": "60607",
        "addr:state": "IL",
        "addr:street": "South Canal Street",
        "brand": "Whole Foods Market",
        "brand:wikidata": "Q1809448",
        "brand:wikipedia": "en:Whole Foods Market",
        "name": "Whole Foods Market",
        "shop": "supermarket"
      },
      "geometry": {
        "type": "Point",
        "coordinates": [
          -87.6387819,
          41.8682107
        ]
      },
      "id": "node/1679535999"
    },
    {
      "type": "Feature",
      "properties": {
        "@id": "node/1685988356",
        "brand": "Shell",
        "brand:wikidata": "Q110716465",
        "brand:wikipedia": "en:Royal Dutch Shell",
        "name": "Shell",
        "shop": "convenience"
      },
      "geometry": {
        "type": "Point",
        "coordinates": [
          -88.4371545,
          42.3157077
        ]
      },
      "id": "node/1685988356"
    },
    {
      "type": "Feature",
      "properties": {
        "@id": "node/1699190041",
        "addr:city": "Chicago",
        "addr:housenumber": "3201",
        "addr:postcode": "60616",
        "addr:state": "IL",
        "addr:street": "South State Street",
        "brand": "7-Eleven",
        "brand:wikidata": "Q259340",
        "brand:wikipedia": "en:7-Eleven",
        "name": "7-Eleven",
        "opening_hours": "24/7",
        "shop": "convenience",
        "website": "https://www.7-eleven.com/locations/il/chicago/3201-s-state-st-(ste-720)-33444"
      },
      "geometry": {
        "type": "Point",
        "coordinates": [
          -87.626095,
          41.8352026
        ]
      },
      "id": "node/1699190041"
    },
    {
      "type": "Feature",
      "properties": {
        "@id": "node/1700855328",
        "name": "Red Star Liquor",
        "shop": "convenience"
      },
      "geometry": {
        "type": "Point",
        "coordinates": [
          -87.7099241,
          41.9307373
        ]
      },
      "id": "node/1700855328"
    },
    {
      "type": "Feature",
      "properties": {
        "@id": "node/1705759618",
        "addr:city": "Des Plaines",
        "addr:housenumber": "1585",
        "addr:postcode": "60016",
        "addr:state": "IL",
        "addr:street": "Rand Road",
        "brand": "7-Eleven",
        "brand:wikidata": "Q259340",
        "brand:wikipedia": "en:7-Eleven",
        "name": "7-Eleven",
        "shop": "convenience",
        "website": "https://www.7-eleven.com/"
      },
      "geometry": {
        "type": "Point",
        "coordinates": [
          -87.8839527,
          42.0459237
        ]
      },
      "id": "node/1705759618"
    },
    {
      "type": "Feature",
      "properties": {
        "@id": "node/1707487739",
        "addr:housenumber": "3400",
        "addr:postcode": "62269",
        "addr:street": "Greenmount Crossing Drive",
        "brand": "Target",
        "brand:wikidata": "Q1046951",
        "brand:wikipedia": "en:Target Corporation",
        "name": "Target",
        "shop": "supermarket",
        "website": "https://www.target.com/"
      },
      "geometry": {
        "type": "Point",
        "coordinates": [
          -89.9236912,
          38.5728846
        ]
      },
      "id": "node/1707487739"
    },
    {
      "type": "Feature",
      "properties": {
        "@id": "node/1708722339",
        "brand": "7-Eleven",
        "brand:wikidata": "Q259340",
        "brand:wikipedia": "en:7-Eleven",
        "name": "7-Eleven",
        "shop": "convenience"
      },
      "geometry": {
        "type": "Point",
        "coordinates": [
          -88.0290381,
          42.4082337
        ]
      },
      "id": "node/1708722339"
    },
    {
      "type": "Feature",
      "properties": {
        "@id": "node/1708722366",
        "name": "Butera",
        "shop": "supermarket"
      },
      "geometry": {
        "type": "Point",
        "coordinates": [
          -88.0460558,
          42.4165295
        ]
      },
      "id": "node/1708722366"
    },
    {
      "type": "Feature",
      "properties": {
        "@id": "node/1708758624",
        "brand": "Jewel-Osco",
        "brand:wikidata": "Q3178470",
        "brand:wikipedia": "en:Jewel (supermarket)",
        "name": "Jewel-Osco",
        "shop": "supermarket"
      },
      "geometry": {
        "type": "Point",
        "coordinates": [
          -88.1433289,
          42.0230335
        ]
      },
      "id": "node/1708758624"
    },
    {
      "type": "Feature",
      "properties": {
        "@id": "node/1709280191",
        "amenity": "drinking_water",
        "check_date": "2021-11-02",
        "fountain": "bottle_refill",
        "name:ru": "    . "
      },
      "geometry": {
        "type": "Point",
        "coordinates": [
          12.4911794,
          41.891319
        ]
      },
      "id": "node/1709280191"
    },
    {
      "type": "Feature",
      "properties": {
        "@id": "node/1712561115",
        "name": "Sav-A-Lot",
        "shop": "supermarket"
      },
      "geometry": {
        "type": "Point",
        "coordinates": [
          -88.382631,
          38.3790633
        ]
      },
      "id": "node/1712561115"
    },
    {
      "type": "Feature",
      "properties": {
        "@id": "node/1721314103",
        "brand": "Jewel-Osco",
        "brand:wikidata": "Q3178470",
        "name": "Jewel-Osco",
        "shop": "supermarket"
      },
      "geometry": {
        "type": "Point",
        "coordinates": [
          -88.2381753,
          41.7800167
        ]
      },
      "id": "node/1721314103"
    },
    {
      "type": "Feature",
      "properties": {
        "@id": "node/1735823239",
        "brand": "7-Eleven",
        "brand:wikidata": "Q259340",
        "brand:wikipedia": "en:7-Eleven",
        "name": "7-Eleven",
        "shop": "convenience"
      },
      "geometry": {
        "type": "Point",
        "coordinates": [
          -88.2078677,
          42.2810267
        ]
      },
      "id": "node/1735823239"
    },
    {
      "type": "Feature",
      "properties": {
        "@id": "node/1735829107",
        "addr:city": "Wauconda",
        "addr:housenumber": "547",
        "addr:postcode": "60084",
        "addr:state": "IL",
        "addr:street": "West Liberty Street",
        "air_conditioning": "yes",
        "brand": "Jewel-Osco",
        "brand:website": "https://jewelosco.com",
        "brand:wikidata": "Q3178470",
        "brand:wikipedia": "en:Jewel (supermarket)",
        "check_date": "2022-11-26",
        "contact:facebook": "https://www.facebook.com/JewelOsco",
        "contact:instagram": "jewelosco",
        "contact:pinterest": "https://www.pinterest.com/jeweloscopr",
        "contact:twitter": "@jewelosco",
        "contact:youtube": "https://www.youtube.com/user/jewelosco",
        "curbside_pickup": "yes",
        "handwashing:soap": "yes",
        "name": "Jewel-Osco",
        "opening_hours": "06:00-24:00",
        "operator": "Albertsons",
        "organic": "yes",
        "payment:american_express": "yes",
        "payment:apple_pay": "yes",
        "payment:contactless": "yes",
        "payment:debit_cards": "yes",
        "payment:discover_card": "yes",
        "payment:ebt": "yes",
        "payment:google_pay": "yes",
        "payment:mastercard": "yes",
        "payment:samsung_pay": "yes",
        "payment:visa": "yes",
        "phone": "+1-847-526-0964",
        "shop": "supermarket",
        "toilets": "yes",
        "toilets:disposal": "flush",
        "toilets:hands_drying": "electric_hand_dryer",
        "toilets:handwashing": "yes",
        "website": "https://local.jewelosco.com/il/wauconda/547-w-liberty-st.html"
      },
      "geometry": {
        "type": "Point",
        "coordinates": [
          -88.1519126,
          42.2594357
        ]
      },
      "id": "node/1735829107"
    },
    {
      "type": "Feature",
      "properties": {
        "@id": "node/1754974768",
        "brand": "7-Eleven",
        "brand:wikidata": "Q259340",
        "brand:wikipedia": "en:7-Eleven",
        "name": "7-Eleven",
        "shop": "convenience"
      },
      "geometry": {
        "type": "Point",
        "coordinates": [
          -87.6591327,
          41.9655834
        ]
      },
      "id": "node/1754974768"
    },
    {
      "type": "Feature",
      "properties": {
        "@id": "node/1781191309",
        "brand": "Circle K",
        "brand:wikidata": "Q3268010",
        "brand:wikipedia": "en:Circle K",
        "name": "Circle K",
        "old_name": "Super Pantry",
        "shop": "convenience",
        "was:brand": "Super Pantry"
      },
      "geometry": {
        "type": "Point",
        "coordinates": [
          -89.483217,
          40.6925099
        ]
      },
      "id": "node/1781191309"
    },
    {
      "type": "Feature",
      "properties": {
        "@id": "node/1783237016",
        "brand": "ALDI",
        "brand:wikidata": "Q41171672",
        "brand:wikipedia": "en:Aldi",
        "name": "ALDI",
        "shop": "supermarket"
      },
      "geometry": {
        "type": "Point",
        "coordinates": [
          -88.0809519,
          41.936174
        ]
      },
      "id": "node/1783237016"
    },
    {
      "type": "Feature",
      "properties": {
        "@id": "node/1786793082",
        "name": "Puerto Rico Food and Liquors",
        "shop": "convenience"
      },
      "geometry": {
        "type": "Point",
        "coordinates": [
          -87.6917185,
          41.8992231
        ]
      },
      "id": "node/1786793082"
    },
    {
      "type": "Feature",
      "properties": {
        "@id": "node/1821357138",
        "brand": "Schnucks",
        "brand:wikidata": "Q7431920",
        "brand:wikipedia": "en:Schnucks",
        "name": "Schnucks",
        "shop": "supermarket"
      },
      "geometry": {
        "type": "Point",
        "coordinates": [
          -90.2205982,
          38.4443352
        ]
      },
      "id": "node/1821357138"
    },
    {
      "type": "Feature",
      "properties": {
        "@id": "node/1836887280",
        "brand": "ALDI",
        "brand:wikidata": "Q41171672",
        "brand:wikipedia": "en:Aldi",
        "name": "ALDI",
        "shop": "supermarket"
      },
      "geometry": {
        "type": "Point",
        "coordinates": [
          -88.3425405,
          41.8584519
        ]
      },
      "id": "node/1836887280"
    },
    {
      "type": "Feature",
      "properties": {
        "@id": "node/1855119977",
        "addr:city": "Evanston",
        "addr:housenumber": "510",
        "addr:postcode": "60202",
        "addr:street": "Main Street",
        "addr:street:name": "Main",
        "addr:street:type": "Street",
        "name": "Lucky Main Pantry",
        "shop": "convenience"
      },
      "geometry": {
        "type": "Point",
        "coordinates": [
          -87.6782356,
          42.0337843
        ]
      },
      "id": "node/1855119977"
    },
    {
      "type": "Feature",
      "properties": {
        "@id": "node/1868710752",
        "addr:city": "Evanston",
        "addr:housenumber": "825",
        "addr:postcode": "60201",
        "addr:street": "Noyes Street",
        "name": "D&D Finer Foods",
        "opening_hours": "Mo-Sa 08:00-20:00; Su 09:00-17:00",
        "shop": "supermarket"
      },
      "geometry": {
        "type": "Point",
        "coordinates": [
          -87.6832252,
          42.0585487
        ]
      },
      "id": "node/1868710752"
    },
    {
      "type": "Feature",
      "properties": {
        "@id": "node/1873959712",
        "addr:city": "Winthrop Harbor",
        "addr:postcode": "60096",
        "addr:state": "IL",
        "addr:street": "Sheridan Road",
        "name": "Harbor Centrella Foods",
        "shop": "supermarket",
        "wikidata": "Q5061141",
        "wikipedia": "en:Central Grocers Cooperative"
      },
      "geometry": {
        "type": "Point",
        "coordinates": [
          -87.8237655,
          42.4717725
        ]
      },
      "id": "node/1873959712"
    },
    {
      "type": "Feature",
      "properties": {
        "@id": "node/1873968447",
        "brand": "Citgo",
        "brand:wikidata": "Q2974437",
        "brand:wikipedia": "en:Citgo",
        "name": "Citgo",
        "shop": "convenience"
      },
      "geometry": {
        "type": "Point",
        "coordinates": [
          -87.8262197,
          42.4211737
        ]
      },
      "id": "node/1873968447"
    },
    {
      "type": "Feature",
      "properties": {
        "@id": "node/1888622842",
        "addr:city": "Chicago",
        "addr:housenumber": "1512",
        "addr:postcode": "60615",
        "addr:state": "IL",
        "addr:street": "East 53rd Street",
        "name": "Bonne Sante Health Foods",
        "shop": "supermarket"
      },
      "geometry": {
        "type": "Point",
        "coordinates": [
          -87.5884495,
          41.7997068
        ]
      },
      "id": "node/1888622842"
    },
    {
      "type": "Feature",
      "properties": {
        "@id": "node/1895691332",
        "addr:city": "Sycamore",
        "addr:country": "US",
        "addr:housenumber": "202",
        "addr:postcode": "60178",
        "addr:state": "IL",
        "addr:street": "West Peace Road",
        "brand": "Jewel-Osco",
        "brand:wikidata": "Q3178470",
        "brand:wikipedia": "en:Jewel (supermarket)",
        "name": "Jewel-Osco",
        "opening_hours": "06:00-00:00",
        "phone": "(815) 895-5276",
        "shop": "supermarket",
        "wheelchair": "yes"
      },
      "geometry": {
        "type": "Point",
        "coordinates": [
          -88.678108,
          42.0138817
        ]
      },
      "id": "node/1895691332"
    },
    {
      "type": "Feature",
      "properties": {
        "@id": "node/1907946069",
        "amenity": "marketplace",
        "name": "Saturday Farmers' Market",
        "opening_hours": "Sa 08:00-12:00 May-Oct"
      },
      "geometry": {
        "type": "Point",
        "coordinates": [
          -90.3653756,
          40.9461135
        ]
      },
      "id": "node/1907946069"
    },
    {
      "type": "Feature",
      "properties": {
        "@id": "node/1924150951",
        "addr:city": "Chicago",
        "addr:housenumber": "4335",
        "addr:postcode": "60613",
        "addr:state": "IL",
        "addr:street": "North Sheridan Road",
        "brand": "Jewel-Osco",
        "brand:wikidata": "Q3178470",
        "brand:wikipedia": "en:Jewel (supermarket)",
        "name": "Jewel-Osco",
        "shop": "supermarket",
        "website": "https://www.jewelosco.com/pd/stores/IL/Chicago/Chicago-Sheridan-and-Montrose/314373319"
      },
      "geometry": {
        "type": "Point",
        "coordinates": [
          -87.6534799,
          41.9612944
        ]
      },
      "id": "node/1924150951"
    },
    {
      "type": "Feature",
      "properties": {
        "@id": "node/1928436090",
        "addr:city": "Galesburg",
        "addr:postcode": "61401",
        "addr:state": "IL",
        "addr:street": "North Henderson Street",
        "brand": "Hy-Vee",
        "brand:wikidata": "Q1639719",
        "brand:wikipedia": "en:Hy-Vee",
        "name": "Hy-Vee",
        "shop": "supermarket"
      },
      "geometry": {
        "type": "Point",
        "coordinates": [
          -90.3805154,
          40.9718225
        ]
      },
      "id": "node/1928436090"
    },
    {
      "type": "Feature",
      "properties": {
        "@id": "node/1928449573",
        "name": "Out Post",
        "shop": "convenience"
      },
      "geometry": {
        "type": "Point",
        "coordinates": [
          -90.3739502,
          40.9419737
        ]
      },
      "id": "node/1928449573"
    },
    {
      "type": "Feature",
      "properties": {
        "@id": "node/1928459093",
        "brand": "BP Shop",
        "brand:wikidata": "Q152057",
        "name": "BP Shop",
        "shop": "convenience"
      },
      "geometry": {
        "type": "Point",
        "coordinates": [
          -90.3754737,
          40.9441375
        ]
      },
      "id": "node/1928459093"
    },
    {
      "type": "Feature",
      "properties": {
        "@id": "node/1929386570",
        "addr:city": "Galesburg",
        "addr:housenumber": "176",
        "addr:postcode": "61401",
        "addr:state": "IL",
        "addr:street": "South Seminary Street",
        "name": "Cornucopia Natural Market & Deli",
        "phone": "(309) 342-3111",
        "shop": "supermarket"
      },
      "geometry": {
        "type": "Point",
        "coordinates": [
          -90.3649062,
          40.945361
        ]
      },
      "id": "node/1929386570"
    },
    {
      "type": "Feature",
      "properties": {
        "@id": "node/1929527754",
        "addr:street": "Butterfield Road",
        "name": "Manny's Mini Mart",
        "shop": "convenience"
      },
      "geometry": {
        "type": "Point",
        "coordinates": [
          -87.9763883,
          42.2296831
        ]
      },
      "id": "node/1929527754"
    },
    {
      "type": "Feature",
      "properties": {
        "@id": "node/1937271380",
        "name": "Snyders",
        "shop": "convenience"
      },
      "geometry": {
        "type": "Point",
        "coordinates": [
          -89.4856658,
          41.8487022
        ]
      },
      "id": "node/1937271380"
    },
    {
      "type": "Feature",
      "properties": {
        "@id": "node/1975236575",
        "addr:city": "Chicago",
        "addr:housenumber": "1430",
        "addr:postcode": "60626",
        "addr:state": "IL",
        "addr:street": "West Morse Avenue",
        "name": "Morse Fresh Market",
        "opening_hours": "Mo-Su 07:00-21:00",
        "shop": "supermarket",
        "website": "http://www.morsefreshmarket.com/"
      },
      "geometry": {
        "type": "Point",
        "coordinates": [
          -87.6670593,
          42.0080973
        ]
      },
      "id": "node/1975236575"
    },
    {
      "type": "Feature",
      "properties": {
        "@id": "node/1975850558",
        "addr:city": "Evanston",
        "addr:housenumber": "847",
        "addr:postcode": "60202",
        "addr:state": "IL",
        "addr:street": "Dodge Avenue",
        "addr:street:name": "Dodge",
        "addr:street:type": "Avenue",
        "brand": "7-Eleven",
        "brand:wikidata": "Q259340",
        "brand:wikipedia": "en:7-Eleven",
        "name": "7-Eleven",
        "shop": "convenience"
      },
      "geometry": {
        "type": "Point",
        "coordinates": [
          -87.6988855,
          42.0337087
        ]
      },
      "id": "node/1975850558"
    },
    {
      "type": "Feature",
      "properties": {
        "@id": "node/1996125887",
        "entrance": "yes",
        "name": "Farm Fresh",
        "shop": "convenience"
      },
      "geometry": {
        "type": "Point",
        "coordinates": [
          -89.1414569,
          38.5306509
        ]
      },
      "id": "node/1996125887"
    },
    {
      "type": "Feature",
      "properties": {
        "@id": "node/2001852056",
        "addr:city": "Chicago",
        "addr:housenumber": "3435",
        "addr:postcode": "60608",
        "addr:state": "IL",
        "addr:street": "South Archer Avenue",
        "name": "Cermak Fresh Market",
        "shop": "supermarket",
        "website": "https://www.cermakfreshmarket.com/cermak-5-3435-s-archer-chicago"
      },
      "geometry": {
        "type": "Point",
        "coordinates": [
          -87.6761045,
          41.831001
        ]
      },
      "id": "node/2001852056"
    },
    {
      "type": "Feature",
      "properties": {
        "@id": "node/2001891231",
        "brand": "Huck's Food & Fuel",
        "brand:wikidata": "Q56276328",
        "brand:wikipedia": "en:Huck's Market",
        "name": "Huck's Food & Fuel",
        "shop": "convenience",
        "short_name": "Huck's"
      },
      "geometry": {
        "type": "Point",
        "coordinates": [
          -89.9667686,
          38.5929532
        ]
      },
      "id": "node/2001891231"
    },
    {
      "type": "Feature",
      "properties": {
        "@id": "node/2011141290",
        "description": "IGA grocery",
        "shop": "supermarket"
      },
      "geometry": {
        "type": "Point",
        "coordinates": [
          -88.8487824,
          38.7729397
        ]
      },
      "id": "node/2011141290"
    },
    {
      "type": "Feature",
      "properties": {
        "@id": "node/2020691173",
        "shop": "convenience"
      },
      "geometry": {
        "type": "Point",
        "coordinates": [
          -88.1407304,
          41.9176129
        ]
      },
      "id": "node/2020691173"
    },
    {
      "type": "Feature",
      "properties": {
        "@id": "node/2029404798",
        "shop": "convenience"
      },
      "geometry": {
        "type": "Point",
        "coordinates": [
          -87.6585348,
          41.9944208
        ]
      },
      "id": "node/2029404798"
    },
    {
      "type": "Feature",
      "properties": {
        "@id": "node/2031470827",
        "brand": "Citgo",
        "brand:wikidata": "Q2974437",
        "brand:wikipedia": "en:Citgo",
        "name": "Citgo",
        "operator": " Petrleos de Venezuela S.A.",
        "shop": "convenience"
      },
      "geometry": {
        "type": "Point",
        "coordinates": [
          -88.0893536,
          42.3786031
        ]
      },
      "id": "node/2031470827"
    },
    {
      "type": "Feature",
      "properties": {
        "@id": "node/2032855151",
        "name": "County Market",
        "shop": "supermarket"
      },
      "geometry": {
        "type": "Point",
        "coordinates": [
          -90.8187721,
          39.6060564
        ]
      },
      "id": "node/2032855151"
    },
    {
      "type": "Feature",
      "properties": {
        "@id": "node/2033083730",
        "designation": "Pawn Store",
        "name": "SuperPawn Jewery & Loan",
        "shop": "supermarket"
      },
      "geometry": {
        "type": "Point",
        "coordinates": [
          -88.0627855,
          42.3882847
        ]
      },
      "id": "node/2033083730"
    },
    {
      "type": "Feature",
      "properties": {
        "@id": "node/2035878741",
        "shop": "convenience"
      },
      "geometry": {
        "type": "Point",
        "coordinates": [
          -88.0722465,
          42.4151888
        ]
      },
      "id": "node/2035878741"
    },
    {
      "type": "Feature",
      "properties": {
        "@id": "node/2036711043",
        "addr:city": "Oswego",
        "addr:housename": "Jewel Osco",
        "addr:housenumber": "2540",
        "addr:postcode": "60543",
        "addr:street": "Route 30 Bypass",
        "brand": "Jewel-Osco",
        "brand:wikidata": "Q3178470",
        "brand:wikipedia": "en:Jewel (supermarket)",
        "name": "Jewel-Osco",
        "shop": "supermarket"
      },
      "geometry": {
        "type": "Point",
        "coordinates": [
          -88.3177653,
          41.717751
        ]
      },
      "id": "node/2036711043"
    },
    {
      "type": "Feature",
      "properties": {
        "@id": "node/2067187624",
        "addr:city": "Glen Ellyn",
        "addr:housenumber": "680",
        "addr:postcode": "60137",
        "addr:state": "IL",
        "addr:street": "East Roosevelt Road",
        "brand": "Trader Joe's",
        "brand:wikidata": "Q688825",
        "brand:wikipedia": "en:Trader Joe's",
        "entrance": "yes",
        "name": "Trader Joe's",
        "shop": "supermarket"
      },
      "geometry": {
        "type": "Point",
        "coordinates": [
          -88.0588424,
          41.8605469
        ]
      },
      "id": "node/2067187624"
    },
    {
      "type": "Feature",
      "properties": {
        "@id": "node/2079437631",
        "addr:housenumber": "4000",
        "addr:postcode": "62269",
        "addr:state": "IL",
        "addr:street": "Greenmount Crossing Drive",
        "brand": "Dierbergs",
        "brand:wikidata": "Q5274978",
        "brand:wikipedia": "en:Dierbergs Markets",
        "name": "Dierbergs",
        "shop": "supermarket",
        "website": "www.dierbergs.com"
      },
      "geometry": {
        "type": "Point",
        "coordinates": [
          -89.9269634,
          38.5711779
        ]
      },
      "id": "node/2079437631"
    },
    {
      "type": "Feature",
      "properties": {
        "@id": "node/2089403564",
        "addr:city": "Belleville",
        "addr:housenumber": "1800",
        "addr:postcode": "62221",
        "addr:state": "IL",
        "addr:street": "Lebanon Ave",
        "atm": "yes",
        "brand": "Circle K",
        "brand:wikidata": "Q3268010",
        "brand:wikipedia": "en:Circle K",
        "name": "Circle K",
        "opening_hours": "24/7",
        "shop": "convenience",
        "website": "https://www.circlek.com/store-locator/US/belleville/1800-lebanon-ave/4701461"
      },
      "geometry": {
        "type": "Point",
        "coordinates": [
          -89.9615745,
          38.5362178
        ]
      },
      "id": "node/2089403564"
    },
    {
      "type": "Feature",
      "properties": {
        "@id": "node/2104432355",
        "name": "Clark",
        "shop": "convenience",
        "source": "local_knowledge"
      },
      "geometry": {
        "type": "Point",
        "coordinates": [
          -90.229562,
          39.6917484
        ]
      },
      "id": "node/2104432355"
    },
    {
      "type": "Feature",
      "properties": {
        "@id": "node/2122103913",
        "addr:city": "Loves Park",
        "addr:housenumber": "5910",
        "addr:postcode": "61111",
        "addr:state": "IL",
        "addr:street": "North 2nd Street",
        "brand": "ALDI",
        "brand:wikidata": "Q41171672",
        "brand:wikipedia": "en:Aldi",
        "name": "ALDI",
        "phone": "(630) 879-8100",
        "shop": "supermarket"
      },
      "geometry": {
        "type": "Point",
        "coordinates": [
          -89.0597459,
          42.3167486
        ]
      },
      "id": "node/2122103913"
    },
    {
      "type": "Feature",
      "properties": {
        "@id": "node/2135344758",
        "addr:housenumber": "813",
        "addr:postcode": "61104",
        "addr:street": "East State Street",
        "name": "East State Market",
        "shop": "convenience"
      },
      "geometry": {
        "type": "Point",
        "coordinates": [
          -89.0844546,
          42.266792
        ]
      },
      "id": "node/2135344758"
    },
    {
      "type": "Feature",
      "properties": {
        "@id": "node/2168540462",
        "addr:city": "Chicago",
        "addr:housenumber": "550",
        "addr:postcode": "60654",
        "addr:state": "IL",
        "addr:street": "North State Street",
        "brand": "Jewel-Osco",
        "brand:wikidata": "Q3178470",
        "brand:wikipedia": "en:Jewel (supermarket)",
        "name": "Jewel-Osco",
        "shop": "supermarket"
      },
      "geometry": {
        "type": "Point",
        "coordinates": [
          -87.6285729,
          41.8921706
        ]
      },
      "id": "node/2168540462"
    },
    {
      "type": "Feature",
      "properties": {
        "@id": "node/2180199243",
        "name": "Dollar Store",
        "shop": "supermarket"
      },
      "geometry": {
        "type": "Point",
        "coordinates": [
          -88.1981032,
          40.1261918
        ]
      },
      "id": "node/2180199243"
    },
    {
      "type": "Feature",
      "properties": {
        "@id": "node/2237542448",
        "addr:city": "Chicago",
        "addr:housenumber": "11730",
        "addr:postcode": "60643",
        "addr:state": "IL",
        "addr:street": "South Marshfield Avenue",
        "brand": "Jewel-Osco",
        "brand:wikidata": "Q3178470",
        "brand:wikipedia": "en:Jewel (supermarket)",
        "name": "Jewel-Osco",
        "shop": "supermarket",
        "website": "https://local.jewelosco.com/il/chicago/11730-s-marshfield-ave.html"
      },
      "geometry": {
        "type": "Point",
        "coordinates": [
          -87.664606,
          41.6802481
        ]
      },
      "id": "node/2237542448"
    },
    {
      "type": "Feature",
      "properties": {
        "@id": "node/2240521935",
        "name": "Familia Foods",
        "shop": "convenience"
      },
      "geometry": {
        "type": "Point",
        "coordinates": [
          -87.7220043,
          41.9207455
        ]
      },
      "id": "node/2240521935"
    },
    {
      "type": "Feature",
      "properties": {
        "@id": "node/2240521940",
        "name": "Lyndale Foods",
        "shop": "convenience"
      },
      "geometry": {
        "type": "Point",
        "coordinates": [
          -87.7216704,
          41.9219439
        ]
      },
      "id": "node/2240521940"
    },
    {
      "type": "Feature",
      "properties": {
        "@id": "node/2248112352",
        "addr:city": "Noble",
        "addr:housenumber": "104",
        "addr:postcode": "62868",
        "addr:street": "West North Avenue",
        "name": "Noble Foods",
        "shop": "convenience"
      },
      "geometry": {
        "type": "Point",
        "coordinates": [
          -88.2238634,
          38.6977416
        ]
      },
      "id": "node/2248112352"
    },
    {
      "type": "Feature",
      "properties": {
        "@id": "node/2264929855",
        "addr:city": "Chicago",
        "addr:housenumber": "1655",
        "addr:postcode": "60617",
        "addr:state": "IL",
        "addr:street": "East 95th Street",
        "brand": "Jewel-Osco",
        "brand:wikidata": "Q3178470",
        "brand:wikipedia": "en:Jewel (supermarket)",
        "name": "Jewel-Osco",
        "shop": "supermarket"
      },
      "geometry": {
        "type": "Point",
        "coordinates": [
          -87.5827723,
          41.7202751
        ]
      },
      "id": "node/2264929855"
    },
    {
      "type": "Feature",
      "properties": {
        "@id": "node/2268719014",
        "name": "Pilot Travel Center",
        "shop": "convenience"
      },
      "geometry": {
        "type": "Point",
        "coordinates": [
          -88.0014775,
          40.7508101
        ]
      },
      "id": "node/2268719014"
    },
    {
      "type": "Feature",
      "properties": {
        "@id": "node/2274247594",
        "addr:city": "Chicago",
        "addr:housenumber": "4934",
        "addr:postcode": "60632",
        "addr:state": "IL",
        "addr:street": "South Kedzie Avenue",
        "brand": "ALDI",
        "brand:wikidata": "Q41171672",
        "brand:wikipedia": "en:Aldi",
        "name": "ALDI",
        "shop": "supermarket"
      },
      "geometry": {
        "type": "Point",
        "coordinates": [
          -87.7057244,
          41.8033885
        ]
      },
      "id": "node/2274247594"
    },
    {
      "type": "Feature",
      "properties": {
        "@id": "node/2274321342",
        "addr:city": "Chicago",
        "addr:housenumber": "4632",
        "addr:postcode": "60625",
        "addr:state": "IL",
        "addr:street": "North Kedzie Avenue",
        "name": "Blanz Pantry",
        "phone": "(773) 478-0101",
        "shop": "convenience"
      },
      "geometry": {
        "type": "Point",
        "coordinates": [
          -87.7087511,
          41.9657014
        ]
      },
      "id": "node/2274321342"
    },
    {
      "type": "Feature",
      "properties": {
        "@id": "node/2282747123",
        "addr:city": "Chicago",
        "addr:country": "US",
        "addr:housenumber": "2844",
        "addr:postcode": "60657",
        "addr:state": "IL",
        "addr:street": "North Broadway",
        "brand": "Walmart",
        "brand:wikidata": "Q483551",
        "brand:wikipedia": "en:Walmart",
        "name": "Walmart Neighborhood Market",
        "opening_hours": "Mo-Su 07:00-22:00",
        "operator": "Walmart",
        "payment:cash": "yes",
        "payment:credit_cards": "yes",
        "payment:debit_cards": "yes",
        "payment:ebt": "yes",
        "phone": "+1-773-687-4401",
        "ref:walmart": "5645",
        "shop": "supermarket",
        "website": "https://www.walmart.com/store/5645/chicago-il/whats-new"
      },
      "geometry": {
        "type": "Point",
        "coordinates": [
          -87.644651,
          41.934104
        ]
      },
      "id": "node/2282747123"
    },
    {
      "type": "Feature",
      "properties": {
        "@id": "node/2289746664",
        "name": "Casey's General Store",
        "shop": "convenience"
      },
      "geometry": {
        "type": "Point",
        "coordinates": [
          -89.8637411,
          38.3112146
        ]
      },
      "id": "node/2289746664"
    },
    {
      "type": "Feature",
      "properties": {
        "@id": "node/2289751225",
        "name": "Marissa IGA",
        "shop": "supermarket"
      },
      "geometry": {
        "type": "Point",
        "coordinates": [
          -89.7467621,
          38.2487765
        ]
      },
      "id": "node/2289751225"
    },
    {
      "type": "Feature",
      "properties": {
        "@id": "node/2289751228",
        "name": "Casey's General Store",
        "shop": "convenience"
      },
      "geometry": {
        "type": "Point",
        "coordinates": [
          -89.7546758,
          38.2549227
        ]
      },
      "id": "node/2289751228"
    },
    {
      "type": "Feature",
      "properties": {
        "@id": "node/2289753860",
        "name": "Casey's General Store",
        "shop": "convenience"
      },
      "geometry": {
        "type": "Point",
        "coordinates": [
          -89.6847966,
          38.2110913
        ]
      },
      "id": "node/2289753860"
    },
    {
      "type": "Feature",
      "properties": {
        "@id": "node/2294252569",
        "addr:city": "Evanston",
        "addr:housenumber": "2400",
        "addr:postcode": "60202",
        "addr:state": "IL",
        "addr:street": "Main Street",
        "addr:street:name": "Main",
        "addr:street:type": "Street",
        "brand": "Food 4 Less",
        "brand:wikidata": "Q5465282",
        "brand:wikipedia": "en:Food 4 Less",
        "name": "Food 4 Less",
        "shop": "supermarket",
        "website": "https://www.food4less.com/"
      },
      "geometry": {
        "type": "Point",
        "coordinates": [
          -87.7070999,
          42.0325982
        ]
      },
      "id": "node/2294252569"
    },
    {
      "type": "Feature",
      "properties": {
        "@id": "node/2294719602",
        "addr:city": "Chicago",
        "addr:housenumber": "222",
        "addr:postcode": "60601",
        "addr:state": "IL",
        "addr:street": "North Columbus Service Drive",
        "name": "Bockwinkel's",
        "shop": "supermarket"
      },
      "geometry": {
        "type": "Point",
        "coordinates": [
          -87.6217728,
          41.8865997
        ]
      },
      "id": "node/2294719602"
    },
    {
      "type": "Feature",
      "properties": {
        "@id": "node/2295173511",
        "addr:city": "Evanston",
        "addr:housenumber": "1910",
        "addr:postcode": "60202",
        "addr:state": "IL",
        "addr:street": "Dempster Street",
        "addr:street:name": "Dempster",
        "addr:street:type": "Street",
        "name": "Valli Produce",
        "old_name": "Dominick's",
        "shop": "supermarket",
        "website": "http://www.valliproduce.com/stores/evanston"
      },
      "geometry": {
        "type": "Point",
        "coordinates": [
          -87.7000926,
          42.0385389
        ]
      },
      "id": "node/2295173511"
    },
    {
      "type": "Feature",
      "properties": {
        "@id": "node/2295226729",
        "addr:city": "Evanston",
        "addr:housenumber": "817",
        "addr:postcode": "60201",
        "addr:state": "IL",
        "addr:street": "Davis Street",
        "addr:street:name": "Davis",
        "addr:street:type": "Street",
        "brand": "7-Eleven",
        "brand:wikidata": "Q259340",
        "brand:wikipedia": "en:7-Eleven",
        "name": "7-Eleven",
        "shop": "convenience"
      },
      "geometry": {
        "type": "Point",
        "coordinates": [
          -87.6831301,
          42.0471935
        ]
      },
      "id": "node/2295226729"
    },
    {
      "type": "Feature",
      "properties": {
        "@id": "node/2295250277",
        "addr:city": "Evanston",
        "addr:housenumber": "2966",
        "addr:postcode": "60201",
        "addr:street": "Central Street",
        "addr:street:name": "Central",
        "addr:street:type": "Street",
        "brand": "Shell",
        "brand:wikidata": "Q110716465",
        "brand:wikipedia": "en:Royal Dutch Shell",
        "name": "Shell",
        "shop": "convenience"
      },
      "geometry": {
        "type": "Point",
        "coordinates": [
          -87.7174059,
          42.0642061
        ]
      },
      "id": "node/2295250277"
    },
    {
      "type": "Feature",
      "properties": {
        "@id": "node/2295265470",
        "addr:city": "Evanston",
        "addr:housenumber": "1942",
        "addr:postcode": "60201",
        "addr:state": "IL",
        "addr:street": "Maple Avenue",
        "addr:street:name": "Maple",
        "addr:street:type": "Avenue",
        "name": "Shop Now",
        "shop": "convenience"
      },
      "geometry": {
        "type": "Point",
        "coordinates": [
          -87.6848956,
          42.0535701
        ]
      },
      "id": "node/2295265470"
    },
    {
      "type": "Feature",
      "properties": {
        "@id": "node/2296077689",
        "addr:city": "Chicago",
        "addr:housenumber": "44",
        "addr:postcode": "60611",
        "addr:state": "IL",
        "addr:street": "East Ontario Street",
        "brand": "Trader Joe's",
        "brand:wikidata": "Q688825",
        "brand:wikipedia": "en:Trader Joe's",
        "name": "Trader Joe's",
        "phone": "+1 312-951-6369",
        "shop": "supermarket",
        "website": "https://www.traderjoes.com/",
        "wheelchair": "yes"
      },
      "geometry": {
        "type": "Point",
        "coordinates": [
          -87.6262699,
          41.8934915
        ]
      },
      "id": "node/2296077689"
    },
    {
      "type": "Feature",
      "properties": {
        "@id": "node/2297572244",
        "addr:housenumber": "1402",
        "addr:street": "West Grand Avenue",
        "name": "Green Grocer",
        "shop": "convenience",
        "website": "greengrocerchicago.com"
      },
      "geometry": {
        "type": "Point",
        "coordinates": [
          -87.6625356,
          41.8911786
        ]
      },
      "id": "node/2297572244"
    },
    {
      "type": "Feature",
      "properties": {
        "@id": "node/2300376336",
        "addr:city": "Burbank",
        "addr:housenumber": "7910",
        "addr:postcode": "60459",
        "addr:state": "IL",
        "addr:street": "South Cicero Avenue",
        "brand": "Jewel-Osco",
        "brand:wikidata": "Q3178470",
        "brand:wikipedia": "en:Jewel (supermarket)",
        "name": "Jewel-Osco",
        "shop": "supermarket",
        "website": "https://www.jewelosco.com/pd/stores/IL/Burbank/Burbank-79th-St-and-Cicero/DB2573220"
      },
      "geometry": {
        "type": "Point",
        "coordinates": [
          -87.7424027,
          41.7472633
        ]
      },
      "id": "node/2300376336"
    },
    {
      "type": "Feature",
      "properties": {
        "@id": "node/2300378763",
        "brand": "7-Eleven",
        "brand:wikidata": "Q259340",
        "brand:wikipedia": "en:7-Eleven",
        "name": "7-Eleven",
        "shop": "convenience"
      },
      "geometry": {
        "type": "Point",
        "coordinates": [
          -87.7597995,
          41.7346548
        ]
      },
      "id": "node/2300378763"
    },
    {
      "type": "Feature",
      "properties": {
        "@id": "node/2300379048",
        "name": "Fresh Foods",
        "shop": "supermarket"
      },
      "geometry": {
        "type": "Point",
        "coordinates": [
          -87.7790288,
          41.7324878
        ]
      },
      "id": "node/2300379048"
    },
    {
      "type": "Feature",
      "properties": {
        "@id": "node/2300390824",
        "addr:city": "Bridgeview",
        "addr:housenumber": "8847",
        "addr:postcode": "60455",
        "addr:state": "IL",
        "addr:street": "Harlem Avenue",
        "name": "Shop 'n Save",
        "shop": "supermarket"
      },
      "geometry": {
        "type": "Point",
        "coordinates": [
          -87.7976214,
          41.7302382
        ]
      },
      "id": "node/2300390824"
    },
    {
      "type": "Feature",
      "properties": {
        "@id": "node/2300405173",
        "addr:city": "Hickory Hills",
        "addr:housenumber": "9528",
        "addr:postcode": "60457",
        "addr:state": "IL",
        "addr:street": "South Roberts Road",
        "brand": "Jewel-Osco",
        "brand:wikidata": "Q3178470",
        "brand:wikipedia": "en:Jewel (supermarket)",
        "name": "Jewel-Osco",
        "ref": "3029",
        "shop": "supermarket"
      },
      "geometry": {
        "type": "Point",
        "coordinates": [
          -87.8203212,
          41.7175345
        ]
      },
      "id": "node/2300405173"
    },
    {
      "type": "Feature",
      "properties": {
        "@id": "node/2300431090",
        "addr:city": "Chicago Ridge",
        "addr:housenumber": "9640",
        "addr:postcode": "60415",
        "addr:state": "IL",
        "addr:street": "South Ridgeland Avenue",
        "brand": "ALDI",
        "brand:wikidata": "Q41171672",
        "brand:wikipedia": "en:Aldi",
        "name": "ALDI",
        "shop": "supermarket"
      },
      "geometry": {
        "type": "Point",
        "coordinates": [
          -87.781781,
          41.7165991
        ]
      },
      "id": "node/2300431090"
    },
    {
      "type": "Feature",
      "properties": {
        "@id": "node/2300451522",
        "brand": "7-Eleven",
        "brand:wikidata": "Q259340",
        "brand:wikipedia": "en:7-Eleven",
        "name": "7-Eleven",
        "shop": "convenience"
      },
      "geometry": {
        "type": "Point",
        "coordinates": [
          -87.779672,
          41.6980128
        ]
      },
      "id": "node/2300451522"
    },
    {
      "type": "Feature",
      "properties": {
        "@id": "node/2300453601",
        "addr:city": "Worth",
        "addr:postcode": "60482",
        "addr:state": "IL",
        "addr:street": "West 111th Street",
        "name": "Fairplay",
        "shop": "supermarket"
      },
      "geometry": {
        "type": "Point",
        "coordinates": [
          -87.7853905,
          41.6908948
        ]
      },
      "id": "node/2300453601"
    },
    {
      "type": "Feature",
      "properties": {
        "@id": "node/2302117600",
        "brand": "Shell",
        "brand:wikidata": "Q154950",
        "brand:wikipedia": "en:Royal Dutch Shell",
        "name": "Shell",
        "shop": "convenience"
      },
      "geometry": {
        "type": "Point",
        "coordinates": [
          -88.0108859,
          40.7505661
        ]
      },
      "id": "node/2302117600"
    },
    {
      "type": "Feature",
      "properties": {
        "@id": "node/2322413116",
        "level": "1",
        "name": "CIBO Express",
        "shop": "convenience"
      },
      "geometry": {
        "type": "Point",
        "coordinates": [
          -87.9027105,
          41.9758461
        ]
      },
      "id": "node/2322413116"
    },
    {
      "type": "Feature",
      "properties": {
        "@id": "node/2322673330",
        "level": "1",
        "name": "Fresh Attractions",
        "shop": "convenience"
      },
      "geometry": {
        "type": "Point",
        "coordinates": [
          -87.9002537,
          41.9746653
        ]
      },
      "id": "node/2322673330"
    },
    {
      "type": "Feature",
      "properties": {
        "@id": "node/2323580270",
        "addr:city": "Chicago",
        "addr:housenumber": "1512",
        "addr:postcode": "60640",
        "addr:state": "IL",
        "addr:street": "West Foster Avenue",
        "name": "Middle East Bakery & Grocery",
        "shop": "convenience",
        "website": "http://middleeastbakeryandgrocery.com/"
      },
      "geometry": {
        "type": "Point",
        "coordinates": [
          -87.668909,
          41.9762948
        ]
      },
      "id": "node/2323580270"
    },
    {
      "type": "Feature",
      "properties": {
        "@id": "node/2324555409",
        "addr:city": "Chicago",
        "addr:housenumber": "2014",
        "addr:postcode": "60647",
        "addr:state": "IL",
        "addr:street": "West Wabansia Avenue",
        "name": "Olivia's Market",
        "opening_hours": "08:00-21:00",
        "phone": "773-227-4220",
        "shop": "convenience",
        "website": "http://www.oliviasmarket.com/"
      },
      "geometry": {
        "type": "Point",
        "coordinates": [
          -87.6781186,
          41.9123956
        ]
      },
      "id": "node/2324555409"
    },
    {
      "type": "Feature",
      "properties": {
        "@id": "node/2324559044",
        "addr:housenumber": "1758",
        "addr:postcode": "60622",
        "addr:street": "West Wabansia Avenue",
        "name": "Bucktown Market",
        "shop": "convenience"
      },
      "geometry": {
        "type": "Point",
        "coordinates": [
          -87.6724672,
          41.9124994
        ]
      },
      "id": "node/2324559044"
    },
    {
      "type": "Feature",
      "properties": {
        "@id": "node/2324563345",
        "addr:city": "Chicago",
        "addr:housenumber": "1341",
        "addr:postcode": "60622",
        "addr:state": "IL",
        "addr:street": "North Paulina Street",
        "brand": "Jewel-Osco",
        "brand:wikidata": "Q3178470",
        "brand:wikipedia": "en:Jewel (supermarket)",
        "name": "Jewel-Osco",
        "shop": "supermarket",
        "wheelchair": "yes"
      },
      "geometry": {
        "type": "Point",
        "coordinates": [
          -87.6694606,
          41.9065353
        ]
      },
      "id": "node/2324563345"
    },
    {
      "type": "Feature",
      "properties": {
        "@id": "node/2324567715",
        "name": "Goddess and Grocer",
        "shop": "convenience"
      },
      "geometry": {
        "type": "Point",
        "coordinates": [
          -87.6773163,
          41.9119179
        ]
      },
      "id": "node/2324567715"
    },
    {
      "type": "Feature",
      "properties": {
        "@id": "node/2333981357",
        "addr:city": "Rockford",
        "addr:country": "US",
        "addr:housenumber": "1730",
        "addr:postcode": "61107",
        "addr:street": "North Alpine Road",
        "name": "Gray's IGA Foods",
        "operator": "Gray's IGA Foods",
        "organic": "yes",
        "phone": "+1 815-397-4225",
        "shop": "supermarket",
        "toilets:access": "customers",
        "toilets:wheelchair": "yes",
        "wheelchair": "yes"
      },
      "geometry": {
        "type": "Point",
        "coordinates": [
          -89.0307267,
          42.2857462
        ]
      },
      "id": "node/2333981357"
    },
    {
      "type": "Feature",
      "properties": {
        "@id": "node/2341231948",
        "brand": "7-Eleven",
        "brand:wikidata": "Q259340",
        "brand:wikipedia": "en:7-Eleven",
        "name": "7-Eleven",
        "shop": "convenience"
      },
      "geometry": {
        "type": "Point",
        "coordinates": [
          -87.6268029,
          41.8818873
        ]
      },
      "id": "node/2341231948"
    },
    {
      "type": "Feature",
      "properties": {
        "@id": "node/2343011988",
        "addr:city": "Chicago",
        "addr:housenumber": "443",
        "addr:postcode": "60616",
        "addr:state": "IL",
        "addr:street": "East 34th Street",
        "brand": "Jewel-Osco",
        "brand:wikidata": "Q3178470",
        "brand:wikipedia": "en:Jewel (supermarket)",
        "name": "Jewel-Osco",
        "shop": "supermarket",
        "website": "https://www.jewelosco.com/pd/stores/IL/Chicago/Chicago-34th-St-and-King-Drive/418673218"
      },
      "geometry": {
        "type": "Point",
        "coordinates": [
          -87.614658,
          41.8327674
        ]
      },
      "id": "node/2343011988"
    },
    {
      "type": "Feature",
      "properties": {
        "@id": "node/2348765192",
        "atm": "yes",
        "name": "Pilot",
        "shop": "convenience",
        "source": "GPS"
      },
      "geometry": {
        "type": "Point",
        "coordinates": [
          -88.531062,
          39.149331
        ]
      },
      "id": "node/2348765192"
    },
    {
      "type": "Feature",
      "properties": {
        "@id": "node/2348768408",
        "atm": "yes",
        "name": "Motomart",
        "shop": "convenience"
      },
      "geometry": {
        "type": "Point",
        "coordinates": [
          -88.535205,
          39.142867
        ]
      },
      "id": "node/2348768408"
    },
    {
      "type": "Feature",
      "properties": {
        "@id": "node/2349058783",
        "addr:city": "Chicago",
        "addr:housenumber": "5320",
        "addr:postcode": "60632",
        "addr:state": "IL",
        "addr:street": "South Pulaski Road",
        "brand": "Jewel-Osco",
        "brand:wikidata": "Q3178470",
        "brand:wikipedia": "en:Jewel (supermarket)",
        "name": "Jewel-Osco",
        "shop": "supermarket",
        "website": "https://local.jewelosco.com/il/chicago/5320-s-pulaski-rd.html"
      },
      "geometry": {
        "type": "Point",
        "coordinates": [
          -87.7250281,
          41.795988
        ]
      },
      "id": "node/2349058783"
    },