{
  "type": "FeatureCollection",
  "generator": "overpass-ide",
  "copyright": "The data included in this document is from www.openstreetmap.org. The data is made available under ODbL.",
  "timestamp": "2023-03-05T23:33:18Z",
  "features": [
    {
      "type": "Feature",
      "properties": {
        "@id": "node/266310881",
        "amenity": "drinking_water"
      },
      "geometry": {
        "type": "Point",
        "coordinates": [
          12.4934985,
          41.8923773
        ]
      },
      "id": "node/266310881"
    },
    {
      "type": "Feature",
      "properties": {
        "@id": "node/343629094",
        "name": "Sav-U-More",
        "operator": "Dollar General Store",
        "shop": "supermarket"
      },
      "geometry": {
        "type": "Point",
        "coordinates": [
          -85.3192057,
          41.2288199
        ]
      },
      "id": "node/343629094"
    },
    {
      "type": "Feature",
      "properties": {
        "@id": "node/388984003",
        "amenity": "drinking_water",
        "fountain": "nasone"
      },
      "geometry": {
        "type": "Point",
        "coordinates": [
          12.494519,
          41.8877413
        ]
      },
      "id": "node/388984003"
    },
    {
      "type": "Feature",
      "properties": {
        "@id": "node/460431596",
        "brand": "7-Eleven",
        "brand:wikidata": "Q259340",
        "brand:wikipedia": "en:7-Eleven",
        "name": "7-Eleven",
        "shop": "convenience"
      },
      "geometry": {
        "type": "Point",
        "coordinates": [
          -86.3228694,
          41.6641964
        ]
      },
      "id": "node/460431596"
    },
    {
      "type": "Feature",
      "properties": {
        "@id": "node/460432069",
        "name": "Martin's SuperMarket #8",
        "shop": "supermarket"
      },
      "geometry": {
        "type": "Point",
        "coordinates": [
          -86.3084831,
          41.6729334
        ]
      },
      "id": "node/460432069"
    },
    {
      "type": "Feature",
      "properties": {
        "@id": "node/460432162",
        "brand": "Kroger",
        "brand:wikidata": "Q153417",
        "brand:wikipedia": "en:Kroger",
        "name": "Kroger",
        "shop": "supermarket"
      },
      "geometry": {
        "type": "Point",
        "coordinates": [
          -86.3111124,
          41.6700614
        ]
      },
      "id": "node/460432162"
    },
    {
      "type": "Feature",
      "properties": {
        "@id": "node/460589337",
        "name": "Veldman's Marathon",
        "shop": "convenience"
      },
      "geometry": {
        "type": "Point",
        "coordinates": [
          -86.32148,
          41.6713545
        ]
      },
      "id": "node/460589337"
    },
    {
      "type": "Feature",
      "properties": {
        "@id": "node/461309433",
        "name": "Jaworski's Meat Market",
        "shop": "supermarket"
      },
      "geometry": {
        "type": "Point",
        "coordinates": [
          -86.3792188,
          41.6438542
        ]
      },
      "id": "node/461309433"
    },
    {
      "type": "Feature",
      "properties": {
        "@id": "node/462043823",
        "addr:city": "South Bend",
        "addr:housenumber": "1110",
        "addr:postcode": "46614",
        "addr:state": "IN",
        "addr:street": "East Ireland Road",
        "brand": "Speedway",
        "brand:wikidata": "Q7575683",
        "brand:wikipedia": "en:Speedway (store)",
        "name": "Speedway",
        "ref": "6636",
        "shop": "convenience"
      },
      "geometry": {
        "type": "Point",
        "coordinates": [
          -86.2341576,
          41.6288841
        ]
      },
      "id": "node/462043823"
    },
    {
      "type": "Feature",
      "properties": {
        "@id": "node/462044086",
        "addr:city": "South Bend",
        "addr:housenumber": "926",
        "addr:postcode": "46614",
        "addr:state": "IN",
        "addr:street": "Erskine Plaza",
        "brand": "Martin's Super Markets",
        "brand:wikidata": "Q6774803",
        "brand:wikipedia": "en:Martin's Super Markets",
        "name": "Martin's Super Markets",
        "opening_hours": "Mo-Su 06:00-24:00",
        "phone": "+1 574 291 3571",
        "ref": "11",
        "shop": "supermarket",
        "website": "https://martins-supermarkets.com/stores/south-bend-erskine-plaza"
      },
      "geometry": {
        "type": "Point",
        "coordinates": [
          -86.2370495,
          41.6268974
        ]
      },
      "id": "node/462044086"
    },
    {
      "type": "Feature",
      "properties": {
        "@id": "node/462321199",
        "name": "Larwill Deli",
        "shop": "convenience"
      },
      "geometry": {
        "type": "Point",
        "coordinates": [
          -85.6251346,
          41.1807818
        ]
      },
      "id": "node/462321199"
    },
    {
      "type": "Feature",
      "properties": {
        "@id": "node/490481593",
        "brand": "Kroger",
        "brand:wikidata": "Q153417",
        "brand:wikipedia": "en:Kroger",
        "name": "Kroger",
        "shop": "supermarket"
      },
      "geometry": {
        "type": "Point",
        "coordinates": [
          -85.8179291,
          38.3289396
        ]
      },
      "id": "node/490481593"
    },
    {
      "type": "Feature",
      "properties": {
        "@id": "node/495113034",
        "amenity": "drinking_water",
        "check_date": "2022-06-22"
      },
      "geometry": {
        "type": "Point",
        "coordinates": [
          12.4934283,
          41.8913309
        ]
      },
      "id": "node/495113034"
    },
    {
      "type": "Feature",
      "properties": {
        "@id": "node/599872184",
        "brand": "Martin's Super Markets",
        "brand:wikidata": "Q6774803",
        "name": "Martin's Super Markets",
        "shop": "supermarket"
      },
      "geometry": {
        "type": "Point",
        "coordinates": [
          -86.2141371,
          41.6602685
        ]
      },
      "id": "node/599872184"
    },
    {
      "type": "Feature",
      "properties": {
        "@id": "node/599873582",
        "addr:city": "South Bend",
        "addr:housenumber": "2081",
        "addr:postcode": "46637",
        "addr:state": "IN",
        "addr:street": "South Bend Avenue",
        "brand": "Martin's Super Markets",
        "brand:wikidata": "Q6774803",
        "brand:wikipedia": "en:Martin's Super Markets",
        "name": "Martin's Super Markets",
        "opening_hours": "Mo-Su 06:00-24:00",
        "ref": "10",
        "shop": "supermarket"
      },
      "geometry": {
        "type": "Point",
        "coordinates": [
          -86.2182309,
          41.7007777
        ]
      },
      "id": "node/599873582"
    },
    {
      "type": "Feature",
      "properties": {
        "@id": "node/619373026",
        "name": "Meijer",
        "opening_hours": "24/7",
        "shop": "convenience"
      },
      "geometry": {
        "type": "Point",
        "coordinates": [
          -85.011796,
          41.1304108
        ]
      },
      "id": "node/619373026"
    },
    {
      "type": "Feature",
      "properties": {
        "@id": "node/660329409",
        "name": "Marathon Gas",
        "shop": "convenience"
      },
      "geometry": {
        "type": "Point",
        "coordinates": [
          -85.0753611,
          41.1789142
        ]
      },
      "id": "node/660329409"
    },
    {
      "type": "Feature",
      "properties": {
        "@id": "node/667031605",
        "addr:city": "Spencer",
        "addr:housenumber": "148",
        "addr:postcode": "47460",
        "addr:state": "IN",
        "addr:street": "East Morgan Street",
        "brand": "Circle K",
        "brand:wikidata": "Q3268010",
        "brand:wikipedia": "en:Circle K",
        "name": "Circle K",
        "phone": "+1-812-829-4641",
        "shop": "convenience"
      },
      "geometry": {
        "type": "Point",
        "coordinates": [
          -86.7610569,
          39.2866466
        ]
      },
      "id": "node/667031605"
    },
    {
      "type": "Feature",
      "properties": {
        "@id": "node/685457655",
        "amenity": "drinking_water",
        "check_date": "2021-11-01"
      },
      "geometry": {
        "type": "Point",
        "coordinates": [
          12.4867108,
          41.8902623
        ]
      },
      "id": "node/685457655"
    },
    {
      "type": "Feature",
      "properties": {
        "@id": "node/685461877",
        "amenity": "drinking_water",
        "check_date": "2021-11-01"
      },
      "geometry": {
        "type": "Point",
        "coordinates": [
          12.4875779,
          41.8891234
        ]
      },
      "id": "node/685461877"
    },
    {
      "type": "Feature",
      "properties": {
        "@id": "node/691724920",
        "name": "Kroger",
        "shop": "supermarket"
      },
      "geometry": {
        "type": "Point",
        "coordinates": [
          -85.2761499,
          41.0766146
        ]
      },
      "id": "node/691724920"
    },
    {
      "type": "Feature",
      "properties": {
        "@id": "node/761485414",
        "addr:city": "Fishers",
        "addr:housenumber": "8924A",
        "addr:postcode": "46038",
        "addr:state": "IN",
        "addr:street": "East 116th Street",
        "brand": "Circle K",
        "brand:wikidata": "Q3268010",
        "brand:wikipedia": "en:Circle K",
        "name": "Circle K",
        "ref": "2284",
        "shop": "convenience"
      },
      "geometry": {
        "type": "Point",
        "coordinates": [
          -86.0119688,
          39.9573016
        ]
      },
      "id": "node/761485414"
    },
    {
      "type": "Feature",
      "properties": {
        "@id": "node/761485449",
        "brand": "Kroger",
        "brand:wikidata": "Q153417",
        "brand:wikipedia": "en:Kroger",
        "name": "Kroger",
        "shop": "supermarket"
      },
      "geometry": {
        "type": "Point",
        "coordinates": [
          -85.9960687,
          39.9550482
        ]
      },
      "id": "node/761485449"
    },
    {
      "type": "Feature",
      "properties": {
        "@id": "node/761485452",
        "addr:city": "Fishers",
        "addr:housenumber": "9797",
        "addr:postcode": "46037",
        "addr:state": "IN",
        "addr:street": "East 116th Street",
        "brand": "GetGo",
        "brand:wikidata": "Q5553766",
        "brand:wikipedia": "en:GetGo",
        "name": "GetGo",
        "shop": "convenience"
      },
      "geometry": {
        "type": "Point",
        "coordinates": [
          -85.9955054,
          39.956432
        ]
      },
      "id": "node/761485452"
    },
    {
      "type": "Feature",
      "properties": {
        "@id": "node/762272589",
        "brand": "Save-A-Lot",
        "brand:wikidata": "Q7427972",
        "brand:wikipedia": "en:Save-A-Lot",
        "name": "Save-A-Lot",
        "shop": "supermarket"
      },
      "geometry": {
        "type": "Point",
        "coordinates": [
          -87.16529,
          39.0312956
        ]
      },
      "id": "node/762272589"
    },
    {
      "type": "Feature",
      "properties": {
        "@id": "node/837147643",
        "addr:city": "Bloomington",
        "addr:housenumber": "4681",
        "addr:postcode": "47404",
        "addr:state": "IN",
        "addr:street": "West Richland Plaza Drive",
        "brand": "IGA",
        "brand:wikidata": "Q3146662",
        "brand:wikipedia": "en:IGA (supermarkets)",
        "name": "IGA",
        "phone": "+1-812-876-4217",
        "ref": "464",
        "shop": "supermarket"
      },
      "geometry": {
        "type": "Point",
        "coordinates": [
          -86.5950326,
          39.2171816
        ]
      },
      "id": "node/837147643"
    },
    {
      "type": "Feature",
      "properties": {
        "@id": "node/847920624",
        "name": "Dollar Smart",
        "shop": "supermarket"
      },
      "geometry": {
        "type": "Point",
        "coordinates": [
          -85.4930695,
          40.4661876
        ]
      },
      "id": "node/847920624"
    },
    {
      "type": "Feature",
      "properties": {
        "@id": "node/864724846",
        "brand": "Kroger",
        "brand:wikidata": "Q153417",
        "brand:wikipedia": "en:Kroger",
        "name": "Kroger",
        "shop": "supermarket"
      },
      "geometry": {
        "type": "Point",
        "coordinates": [
          -86.1957932,
          41.6812632
        ]
      },
      "id": "node/864724846"
    },
    {
      "type": "Feature",
      "properties": {
        "@id": "node/869556964",
        "addr:city": "Plymouth",
        "addr:housenumber": "2001",
        "addr:postcode": "46563",
        "addr:state": "IN",
        "addr:street": "North Michigan Street",
        "brand": "Kroger",
        "brand:wikidata": "Q153417",
        "brand:wikipedia": "en:Kroger",
        "name": "Kroger",
        "shop": "supermarket"
      },
      "geometry": {
        "type": "Point",
        "coordinates": [
          -86.3135467,
          41.3580562
        ]
      },
      "id": "node/869556964"
    },
    {
      "type": "Feature",
      "properties": {
        "@id": "node/876562481",
        "brand": "Martin's Super Markets",
        "brand:wikidata": "Q6774803",
        "name": "Martin's Super Markets",
        "shop": "supermarket"
      },
      "geometry": {
        "type": "Point",
        "coordinates": [
          -86.2977898,
          41.3454194
        ]
      },
      "id": "node/876562481"
    },
    {
      "type": "Feature",
      "properties": {
        "@id": "node/953890053",
        "amenity": "drinking_water"
      },
      "geometry": {
        "type": "Point",
        "coordinates": [
          12.4879526,
          41.8887986
        ]
      },
      "id": "node/953890053"
    },
    {
      "type": "Feature",
      "properties": {
        "@id": "node/953890062",
        "amenity": "drinking_water",
        "check_date": "2021-11-01",
        "man_made": "water_tap"
      },
      "geometry": {
        "type": "Point",
        "coordinates": [
          12.4883755,
          41.890985
        ]
      },
      "id": "node/953890062"
    },
    {
      "type": "Feature",
      "properties": {
        "@id": "node/953909059",
        "amenity": "drinking_water",
        "fountain": "nasone",
        "wikimedia_commons": "File:Nasone via dei santi Quattro,roma,italy 62022.jpeg"
      },
      "geometry": {
        "type": "Point",
        "coordinates": [
          12.4968765,
          41.8889852
        ]
      },
      "id": "node/953909059"
    },
    {
      "type": "Feature",
      "properties": {
        "@id": "node/955189054",
        "brand": "Kroger",
        "brand:wikidata": "Q153417",
        "brand:wikipedia": "en:Kroger",
        "name": "Kroger",
        "shop": "supermarket"
      },
      "geometry": {
        "type": "Point",
        "coordinates": [
          -85.0590604,
          41.1000011
        ]
      },
      "id": "node/955189054"
    },
    {
      "type": "Feature",
      "properties": {
        "@id": "node/960395099",
        "name": "M&M Market",
        "shop": "supermarket"
      },
      "geometry": {
        "type": "Point",
        "coordinates": [
          -84.9587012,
          40.5919011
        ]
      },
      "id": "node/960395099"
    },
    {
      "type": "Feature",
      "properties": {
        "@id": "node/966359344",
        "addr:city": "Dyer",
        "addr:housenumber": "805",
        "addr:postcode": "46311",
        "addr:state": "IN",
        "addr:street": "Joliet Street",
        "brand": "Jewel-Osco",
        "brand:wikidata": "Q3178470",
        "brand:wikipedia": "en:Jewel (supermarket)",
        "name": "Jewel-Osco",
        "opening_hours": "06:00-24:00",
        "ref": "3127",
        "shop": "supermarket",
        "website": "https://local.jewelosco.com/in/dyer/805-joliet-st.html"
      },
      "geometry": {
        "type": "Point",
        "coordinates": [
          -87.5078399,
          41.494695
        ]
      },
      "id": "node/966359344"
    },
    {
      "type": "Feature",
      "properties": {
        "@id": "node/967144906",
        "addr:city": "Bloomfield",
        "addr:housenumber": "550",
        "addr:postcode": "47424",
        "addr:state": "IN",
        "addr:street": "South Washington Street",
        "name": "the Picnic Basket",
        "phone": "+1-812-384-3583",
        "shop": "convenience"
      },
      "geometry": {
        "type": "Point",
        "coordinates": [
          -86.9375897,
          39.0211464
        ]
      },
      "id": "node/967144906"
    },
    {
      "type": "Feature",
      "properties": {
        "@id": "node/967193565",
        "addr:city": "Worthington",
        "addr:housenumber": "319",
        "addr:postcode": "47471",
        "addr:state": "IN",
        "addr:street": "Canal St",
        "name": "Worthington Country Market",
        "phone": "+1-812-875-2031",
        "shop": "supermarket",
        "website": "http://site.worthingtoncountrymarket.com"
      },
      "geometry": {
        "type": "Point",
        "coordinates": [
          -86.97436,
          39.1221846
        ]
      },
      "id": "node/967193565"
    },
    {
      "type": "Feature",
      "properties": {
        "@id": "node/967197735",
        "addr:city": "Worthington",
        "addr:housenumber": "820",
        "addr:postcode": "47471",
        "addr:state": "IN",
        "addr:street": "South  Commercial Street",
        "name": "Worthington Food Mart",
        "shop": "convenience"
      },
      "geometry": {
        "type": "Point",
        "coordinates": [
          -86.9845741,
          39.1096786
        ]
      },
      "id": "node/967197735"
    },
    {
      "type": "Feature",
      "properties": {
        "@id": "node/968657775",
        "brand": "Kroger",
        "brand:wikidata": "Q153417",
        "brand:wikipedia": "en:Kroger",
        "name": "Kroger",
        "shop": "supermarket"
      },
      "geometry": {
        "type": "Point",
        "coordinates": [
          -86.4016116,
          39.7646127
        ]
      },
      "id": "node/968657775"
    },
    {
      "type": "Feature",
      "properties": {
        "@id": "node/974525390",
        "addr:city": "Gosport",
        "addr:housenumber": "118",
        "addr:postcode": "47433",
        "addr:state": "IN",
        "addr:street": "E Main St",
        "phone": "+1-812-879-5600",
        "shop": "supermarket"
      },
      "geometry": {
        "type": "Point",
        "coordinates": [
          -86.6638215,
          39.3490985
        ]
      },
      "id": "node/974525390"
    },
    {
      "type": "Feature",
      "properties": {
        "@id": "node/990708033",
        "shop": "convenience"
      },
      "geometry": {
        "type": "Point",
        "coordinates": [
          -86.0594988,
          39.4897955
        ]
      },
      "id": "node/990708033"
    },
    {
      "type": "Feature",
      "properties": {
        "@id": "node/999988695",
        "addr:city": "Bloomington",
        "addr:postcode": "47404",
        "addr:state": "IN",
        "brand": "Kroger",
        "brand:wikidata": "Q153417",
        "brand:wikipedia": "en:Kroger",
        "name": "Kroger",
        "shop": "supermarket"
      },
      "geometry": {
        "type": "Point",
        "coordinates": [
          -86.53979,
          39.1876066
        ]
      },
      "id": "node/999988695"
    },
    {
      "type": "Feature",
      "properties": {
        "@id": "node/1041149759",
        "name": "Maritins",
        "shop": "supermarket"
      },
      "geometry": {
        "type": "Point",
        "coordinates": [
          -85.8218891,
          41.2501767
        ]
      },
      "id": "node/1041149759"
    },
    {
      "type": "Feature",
      "properties": {
        "@id": "node/1158128713",
        "name": "Crossroads Pantry and Filling Station",
        "shop": "convenience"
      },
      "geometry": {
        "type": "Point",
        "coordinates": [
          -84.9606372,
          40.5914006
        ]
      },
      "id": "node/1158128713"
    },
    {
      "type": "Feature",
      "properties": {
        "@id": "node/1170494282",
        "amenity": "drinking_water",
        "fountain": "nasone"
      },
      "geometry": {
        "type": "Point",
        "coordinates": [
          12.4942213,
          41.8900377
        ]
      },
      "id": "node/1170494282"
    },
    {
      "type": "Feature",
      "properties": {
        "@id": "node/1311899165",
        "name": "Black's Merchantile",
        "shop": "convenience"
      },
      "geometry": {
        "type": "Point",
        "coordinates": [
          -86.5337706,
          39.1683938
        ]
      },
      "id": "node/1311899165"
    },
    {
      "type": "Feature",
      "properties": {
        "@id": "node/1312446529",
        "amenity": "fuel",
        "brand": "Marathon",
        "brand:wikidata": "Q458363",
        "brand:wikipedia": "en:Marathon Petroleum",
        "fuel:octane_87": "yes",
        "name": "Gills Marathon 2",
        "shop": "convenience"
      },
      "geometry": {
        "type": "Point",
        "coordinates": [
          -86.0819726,
          39.7052156
        ]
      },
      "id": "node/1312446529"
    },
    {
      "type": "Feature",
      "properties": {
        "@id": "node/1432363739",
        "addr:city": "South Bend",
        "addr:housenumber": "1217",
        "addr:postcode": "46614",
        "addr:state": "IN",
        "addr:street": "East Ireland Road",
        "brand": "Kroger",
        "brand:wikidata": "Q153417",
        "brand:wikipedia": "en:Kroger",
        "name": "Kroger",
        "shop": "supermarket"
      },
      "geometry": {
        "type": "Point",
        "coordinates": [
          -86.2320387,
          41.6305082
        ]
      },
      "id": "node/1432363739"
    },
    {
      "type": "Feature",
      "properties": {
        "@id": "node/1432367153",
        "brand": "Marathon",
        "brand:wikidata": "Q458363",
        "brand:wikipedia": "en:Marathon Petroleum",
        "name": "Marathon",
        "shop": "convenience"
      },
      "geometry": {
        "type": "Point",
        "coordinates": [
          -86.250241,
          41.6293455
        ]
      },
      "id": "node/1432367153"
    },
    {
      "type": "Feature",
      "properties": {
        "@id": "node/1437495175",
        "addr:city": "Mishawaka",
        "addr:country": "US",
        "addr:housenumber": "316",
        "addr:postcode": "46545",
        "addr:state": "IN",
        "addr:street": "Indian Ridge Boulevard",
        "brand": "Walmart",
        "brand:wikidata": "Q483551",
        "brand:wikipedia": "en:Walmart",
        "name": "Walmart Supercenter",
        "opening_hours": "24/7",
        "operator": "Walmart",
        "operator:wikidata": "Q483551",
        "operator:wikipedia": "en:Walmart",
        "phone": "+1-574-243-9188",
        "ref:walmart": "2678",
        "shop": "supermarket",
        "website": "https://www.walmart.com/store/2678/mishawaka-in/whats-new"
      },
      "geometry": {
        "type": "Point",
        "coordinates": [
          -86.1811783,
          41.7150311
        ]
      },
      "id": "node/1437495175"
    },
    {
      "type": "Feature",
      "properties": {
        "@id": "node/1496011099",
        "name": "Philips 66",
        "shop": "convenience"
      },
      "geometry": {
        "type": "Point",
        "coordinates": [
          -86.2968531,
          41.6722695
        ]
      },
      "id": "node/1496011099"
    },
    {
      "type": "Feature",
      "properties": {
        "@id": "node/1496011101",
        "name": "Philips 66",
        "shop": "convenience"
      },
      "geometry": {
        "type": "Point",
        "coordinates": [
          -86.3216179,
          41.6724965
        ]
      },
      "id": "node/1496011101"
    },
    {
      "type": "Feature",
      "properties": {
        "@id": "node/1496012263",
        "name": "Kwik Mart",
        "shop": "convenience"
      },
      "geometry": {
        "type": "Point",
        "coordinates": [
          -86.2501519,
          41.6476169
        ]
      },
      "id": "node/1496012263"
    },
    {
      "type": "Feature",
      "properties": {
        "@id": "node/1508719667",
        "designation": "Gas Station / Small Convenience Store",
        "name": "White's BP Gas Station",
        "shop": "convenience"
      },
      "geometry": {
        "type": "Point",
        "coordinates": [
          -85.6977287,
          41.3290444
        ]
      },
      "id": "node/1508719667"
    },
    {
      "type": "Feature",
      "properties": {
        "@id": "node/1514846392",
        "addr:housenumber": "4400",
        "addr:postcode": "47591",
        "addr:street": "S. School House Road",
        "name": "Halterville General Store",
        "shop": "convenience"
      },
      "geometry": {
        "type": "Point",
        "coordinates": [
          -87.5644244,
          38.6125867
        ]
      },
      "id": "node/1514846392"
    },
    {
      "type": "Feature",
      "properties": {
        "@id": "node/1536809917",
        "brand": "Kroger",
        "brand:wikidata": "Q153417",
        "brand:wikipedia": "en:Kroger",
        "name": "Kroger",
        "shop": "supermarket"
      },
      "geometry": {
        "type": "Point",
        "coordinates": [
          -86.1614542,
          40.0220489
        ]
      },
      "id": "node/1536809917"
    },
    {
      "type": "Feature",
      "properties": {
        "@id": "node/1541521256",
        "check_date": "2022-12-10",
        "name": "Al's",
        "shop": "supermarket"
      },
      "geometry": {
        "type": "Point",
        "coordinates": [
          -86.8574548,
          41.7340518
        ]
      },
      "id": "node/1541521256"
    },
    {
      "type": "Feature",
      "properties": {
        "@id": "node/1562666160",
        "amenity": "marketplace",
        "name": "TIme Flies Antiques"
      },
      "geometry": {
        "type": "Point",
        "coordinates": [
          -86.5420631,
          39.166519
        ]
      },
      "id": "node/1562666160"
    },
    {
      "type": "Feature",
      "properties": {
        "@id": "node/1655148116",
        "brand": "Family Express",
        "brand:wikidata": "Q85760458",
        "name": "Family Express",
        "shop": "convenience"
      },
      "geometry": {
        "type": "Point",
        "coordinates": [
          -86.3010701,
          41.3271135
        ]
      },
      "id": "node/1655148116"
    },
    {
      "type": "Feature",
      "properties": {
        "@id": "node/1656861982",
        "amenity": "drinking_water",
        "check_date": "2021-11-01",
        "man_made": "water_tap"
      },
      "geometry": {
        "type": "Point",
        "coordinates": [
          12.4883955,
          41.8907173
        ]
      },
      "id": "node/1656861982"
    },
    {
      "type": "Feature",
      "properties": {
        "@id": "node/1670368749",
        "name": "JayC",
        "shop": "supermarket"
      },
      "geometry": {
        "type": "Point",
        "coordinates": [
          -86.6141931,
          38.5628232
        ]
      },
      "id": "node/1670368749"
    },
    {
      "type": "Feature",
      "properties": {
        "@id": "node/1670806519",
        "shop": "convenience"
      },
      "geometry": {
        "type": "Point",
        "coordinates": [
          -86.6443846,
          38.3802293
        ]
      },
      "id": "node/1670806519"
    },
    {
      "type": "Feature",
      "properties": {
        "@id": "node/1670806717",
        "shop": "convenience"
      },
      "geometry": {
        "type": "Point",
        "coordinates": [
          -86.6291336,
          38.4005292
        ]
      },
      "id": "node/1670806717"
    },
    {
      "type": "Feature",
      "properties": {
        "@id": "node/1670912536",
        "name": "Camp Store",
        "shop": "convenience"
      },
      "geometry": {
        "type": "Point",
        "coordinates": [
          -86.6538781,
          38.406318
        ]
      },
      "id": "node/1670912536"
    },
    {
      "type": "Feature",
      "properties": {
        "@id": "node/1675261595",
        "brand": "Kroger",
        "brand:wikidata": "Q153417",
        "brand:wikipedia": "en:Kroger",
        "name": "Kroger",
        "shop": "supermarket"
      },
      "geometry": {
        "type": "Point",
        "coordinates": [
          -85.2150157,
          39.312266
        ]
      },
      "id": "node/1675261595"
    },
    {
      "type": "Feature",
      "properties": {
        "@id": "node/1685447027",
        "shop": "supermarket"
      },
      "geometry": {
        "type": "Point",
        "coordinates": [
          -86.8691488,
          39.4460562
        ]
      },
      "id": "node/1685447027"
    },
    {
      "type": "Feature",
      "properties": {
        "@id": "node/1707454588",
        "addr:city": "Zionsville",
        "addr:housenumber": "5",
        "addr:postcode": "46077",
        "addr:state": "IN",
        "addr:street": "Boone Village",
        "brand": "Kroger",
        "brand:wikidata": "Q153417",
        "brand:wikipedia": "en:Kroger",
        "name": "Kroger",
        "ref": "333",
        "shop": "supermarket"
      },
      "geometry": {
        "type": "Point",
        "coordinates": [
          -86.2768249,
          39.9507941
        ]
      },
      "id": "node/1707454588"
    },
    {
      "type": "Feature",
      "properties": {
        "@id": "node/1709280191",
        "amenity": "drinking_water",
        "check_date": "2021-11-02",
        "fountain": "bottle_refill",
        "name:ru": "вода с газом и без. бесплатная"
      },
      "geometry": {
        "type": "Point",
        "coordinates": [
          12.4911794,
          41.891319
        ]
      },
      "id": "node/1709280191"
    },
    {
      "type": "Feature",
      "properties": {
        "@id": "node/1932428455",
        "addr:city": "Sullivan",
        "addr:housenumber": "277",
        "addr:postcode": "47882",
        "addr:state": "IN",
        "addr:street": "South Section Street",
        "contact:facebook": "baeslersmarket",
        "name": "Baesler's Market",
        "shop": "supermarket"
      },
      "geometry": {
        "type": "Point",
        "coordinates": [
          -87.4089947,
          39.0924127
        ]
      },
      "id": "node/1932428455"
    },
    {
      "type": "Feature",
      "properties": {
        "@id": "node/1947944138",
        "addr:city": "Goshen",
        "addr:housenumber": "2036",
        "addr:postcode": "46526",
        "addr:state": "IN",
        "addr:street": "Lincolnway East",
        "brand": "ALDI",
        "brand:wikidata": "Q41171672",
        "brand:wikipedia": "en:Aldi",
        "name": "ALDI",
        "ref": "62003",
        "shop": "supermarket"
      },
      "geometry": {
        "type": "Point",
        "coordinates": [
          -85.7932763,
          41.5596352
        ]
      },
      "id": "node/1947944138"
    },
    {
      "type": "Feature",
      "properties": {
        "@id": "node/1979783524",
        "addr:city": "Indiana",
        "addr:postcode": "19560-000",
        "addr:street": "Avenida Alzira Santana Lebrão",
        "addr:suburb": "centro",
        "name": "Supermercado Mais Você",
        "shop": "supermarket"
      },
      "geometry": {
        "type": "Point",
        "coordinates": [
          -51.2515602,
          -22.1756746
        ]
      },
      "id": "node/1979783524"
    },
    {
      "type": "Feature",
      "properties": {
        "@id": "node/1979783882",
        "name": "Supermercado Abdala",
        "shop": "supermarket"
      },
      "geometry": {
        "type": "Point",
        "coordinates": [
          -51.2528181,
          -22.1742812
        ]
      },
      "id": "node/1979783882"
    },
    {
      "type": "Feature",
      "properties": {
        "@id": "node/1979784266",
        "name": "Supermercado Costa",
        "shop": "supermarket"
      },
      "geometry": {
        "type": "Point",
        "coordinates": [
          -51.2575147,
          -22.1772518
        ]
      },
      "id": "node/1979784266"
    },
    {
      "type": "Feature",
      "properties": {
        "@id": "node/2060683604",
        "shop": "convenience"
      },
      "geometry": {
        "type": "Point",
        "coordinates": [
          -86.1970141,
          41.6806346
        ]
      },
      "id": "node/2060683604"
    },
    {
      "type": "Feature",
      "properties": {
        "@id": "node/2060687911",
        "brand": "7-Eleven",
        "brand:wikidata": "Q259340",
        "brand:wikipedia": "en:7-Eleven",
        "name": "7-Eleven",
        "shop": "convenience"
      },
      "geometry": {
        "type": "Point",
        "coordinates": [
          -86.1970335,
          41.6732516
        ]
      },
      "id": "node/2060687911"
    },
    {
      "type": "Feature",
      "properties": {
        "@id": "node/2081762080",
        "name": "Star Food Market",
        "shop": "convenience"
      },
      "geometry": {
        "type": "Point",
        "coordinates": [
          -87.0731145,
          40.1754732
        ]
      },
      "id": "node/2081762080"
    },
    {
      "type": "Feature",
      "properties": {
        "@id": "node/2095777270",
        "brand": "Aldi",
        "brand:wikidata": "Q125054",
        "brand:wikipedia": "en:Aldi",
        "name": "Aldi",
        "shop": "supermarket"
      },
      "geometry": {
        "type": "Point",
        "coordinates": [
          -86.2487608,
          41.6285401
        ]
      },
      "id": "node/2095777270"
    },
    {
      "type": "Feature",
      "properties": {
        "@id": "node/2095777271",
        "addr:city": "Mishawaka",
        "addr:housenumber": "210",
        "addr:postcode": "46545",
        "addr:state": "IN",
        "addr:street": "Douglas Road",
        "brand": "ALDI",
        "brand:wikidata": "Q41171672",
        "brand:wikipedia": "en:Aldi",
        "name": "ALDI",
        "opening_hours": "Mo-Sa 09:00-21:00; Su 09:00-20:00",
        "phone": "+1 833 462 1002",
        "shop": "supermarket"
      },
      "geometry": {
        "type": "Point",
        "coordinates": [
          -86.1820593,
          41.7099422
        ]
      },
      "id": "node/2095777271"
    },
    {
      "type": "Feature",
      "properties": {
        "@id": "node/2155232179",
        "addr:city": "South Bend",
        "addr:housenumber": "1233",
        "addr:postcode": "46617",
        "addr:state": "IN",
        "addr:street": "North Eddy Street",
        "addr:unit": "104",
        "brand": "7-Eleven",
        "brand:wikidata": "Q259340",
        "brand:wikipedia": "en:7-Eleven",
        "name": "7-Eleven",
        "shop": "convenience"
      },
      "geometry": {
        "type": "Point",
        "coordinates": [
          -86.2358215,
          41.6916102
        ]
      },
      "id": "node/2155232179"
    },
    {
      "type": "Feature",
      "properties": {
        "@id": "node/2189079599",
        "addr:city": "Highland",
        "addr:housename": "Ultra Foods",
        "addr:housenumber": "8401",
        "addr:postcode": "46322",
        "addr:state": "IN",
        "addr:street": "Indianapolis Boulevard",
        "name": "Ultra Foods",
        "shop": "supermarket",
        "website": "http://http://www.ultra-foods.com"
      },
      "geometry": {
        "type": "Point",
        "coordinates": [
          -87.4691154,
          41.5581787
        ]
      },
      "id": "node/2189079599"
    },
    {
      "type": "Feature",
      "properties": {
        "@id": "node/2198427361",
        "amenity": "fuel",
        "shop": "convenience"
      },
      "geometry": {
        "type": "Point",
        "coordinates": [
          -87.3641401,
          41.4302626
        ]
      },
      "id": "node/2198427361"
    },
    {
      "type": "Feature",
      "properties": {
        "@id": "node/2229046573",
        "addr:city": "Worthington",
        "addr:housenumber": "9564",
        "addr:postcode": "47471",
        "addr:state": "IN",
        "addr:street": "State Road 67",
        "name": "Freedom Country Store",
        "phone": "+1-812-875-3996",
        "shop": "supermarket"
      },
      "geometry": {
        "type": "Point",
        "coordinates": [
          -86.930925,
          39.1615583
        ]
      },
      "id": "node/2229046573"
    },
    {
      "type": "Feature",
      "properties": {
        "@id": "node/2273935193",
        "addr:city": "Sullivan",
        "addr:housenumber": "230",
        "addr:postcode": "47882",
        "addr:state": "IN",
        "addr:street": "West Wall Street",
        "brand": "Save-A-Lot",
        "brand:wikidata": "Q7427972",
        "brand:wikipedia": "en:Save-A-Lot",
        "name": "Save-A-Lot",
        "ref": "23394",
        "shop": "supermarket"
      },
      "geometry": {
        "type": "Point",
        "coordinates": [
          -87.4114298,
          39.0969482
        ]
      },
      "id": "node/2273935193"
    },
    {
      "type": "Feature",
      "properties": {
        "@id": "node/2288301609",
        "name": "Daum’s Dairy Mart",
        "shop": "convenience"
      },
      "geometry": {
        "type": "Point",
        "coordinates": [
          -85.1351809,
          39.658777
        ]
      },
      "id": "node/2288301609"
    },
    {
      "type": "Feature",
      "properties": {
        "@id": "node/2348254538",
        "brand": "Kroger",
        "brand:wikidata": "Q153417",
        "brand:wikipedia": "en:Kroger",
        "name": "Kroger",
        "shop": "supermarket"
      },
      "geometry": {
        "type": "Point",
        "coordinates": [
          -86.9008687,
          40.0220772
        ]
      },
      "id": "node/2348254538"
    },
    {
      "type": "Feature",
      "properties": {
        "@id": "node/2364331538",
        "addr:housenumber": "310 W",
        "addr:postcode": "46755",
        "addr:street": "North Street",
        "brand": "Kroger",
        "brand:wikidata": "Q153417",
        "brand:wikipedia": "en:Kroger",
        "name": "Kroger",
        "shop": "supermarket"
      },
      "geometry": {
        "type": "Point",
        "coordinates": [
          -85.2716146,
          41.4529593
        ]
      },
      "id": "node/2364331538"
    },
    {
      "type": "Feature",
      "properties": {
        "@id": "node/2364581882",
        "addr:city": "Kendallville",
        "addr:housename": "Save-A-Lot",
        "addr:housenumber": "811",
        "addr:postcode": "46755",
        "addr:street": "East North Street",
        "brand": "Save-A-Lot",
        "brand:wikidata": "Q7427972",
        "brand:wikipedia": "en:Save-A-Lot",
        "name": "Save-A-Lot",
        "shop": "supermarket"
      },
      "geometry": {
        "type": "Point",
        "coordinates": [
          -85.2536493,
          41.4531233
        ]
      },
      "id": "node/2364581882"
    },
    {
      "type": "Feature",
      "properties": {
        "@id": "node/2377614774",
        "addr:city": "Merrillville",
        "addr:housenumber": "3200",
        "addr:postcode": "46410",
        "addr:state": "IN",
        "addr:street": "East 81st Avenue",
        "brand": "Speedway",
        "brand:wikidata": "Q7575683",
        "brand:wikipedia": "en:Speedway (store)",
        "name": "Speedway",
        "ref": "6676",
        "shop": "convenience"
      },
      "geometry": {
        "type": "Point",
        "coordinates": [
          -87.2965059,
          41.4718196
        ]
      },
      "id": "node/2377614774"
    },
    {
      "type": "Feature",
      "properties": {
        "@id": "node/2399877583",
        "alt_name": "Kroger",
        "brand": "Kroger",
        "brand:wikidata": "Q153417",
        "name": "Kroger",
        "shop": "supermarket"
      },
      "geometry": {
        "type": "Point",
        "coordinates": [
          -85.8267528,
          41.2393476
        ]
      },
      "id": "node/2399877583"
    },
    {
      "type": "Feature",
      "properties": {
        "@id": "node/2401996496",
        "name": "The Corner Cupboard",
        "shop": "convenience"
      },
      "geometry": {
        "type": "Point",
        "coordinates": [
          -85.2736483,
          40.1928082
        ]
      },
      "id": "node/2401996496"
    },
    {
      "type": "Feature",
      "properties": {
        "@id": "node/2411232855",
        "addr:city": "Cedar Lake",
        "addr:postcode": "46303",
        "addr:state": "IN",
        "addr:street": "West Lincoln Plaza",
        "brand": "Strack & Van Til",
        "brand:wikidata": "Q17108969",
        "name": "Strack & Van Til",
        "shop": "supermarket"
      },
      "geometry": {
        "type": "Point",
        "coordinates": [
          -87.4514025,
          41.3752568
        ]
      },
      "id": "node/2411232855"
    },
    {
      "type": "Feature",
      "properties": {
        "@id": "node/2425854495",
        "brand": "7-Eleven",
        "brand:wikidata": "Q259340",
        "brand:wikipedia": "en:7-Eleven",
        "name": "7-Eleven",
        "shop": "convenience"
      },
      "geometry": {
        "type": "Point",
        "coordinates": [
          -86.2439766,
          41.6795828
        ]
      },
      "id": "node/2425854495"
    },
    {
      "type": "Feature",
      "properties": {
        "@id": "node/2439333162",
        "name": "Save A Lot1",
        "shop": "supermarket"
      },
      "geometry": {
        "type": "Point",
        "coordinates": [
          -85.1625076,
          41.0518759
        ]
      },
      "id": "node/2439333162"
    },
    {
      "type": "Feature",
      "properties": {
        "@id": "node/2467287911",
        "brand": "Aldi",
        "brand:wikidata": "Q125054",
        "brand:wikipedia": "en:Aldi",
        "name": "Aldi",
        "shop": "supermarket"
      },
      "geometry": {
        "type": "Point",
        "coordinates": [
          -85.3881966,
          40.2200436
        ]
      },
      "id": "node/2467287911"
    },
    {
      "type": "Feature",
      "properties": {
        "@id": "node/2480503314",
        "addr:city": "Plainfield",
        "addr:housenumber": "1930",
        "addr:postcode": "46168",
        "addr:state": "IN",
        "addr:street": "East Main Street",
        "brand": "Kroger",
        "brand:wikidata": "Q153417",
        "brand:wikipedia": "en:Kroger",
        "name": "Kroger",
        "shop": "supermarket"
      },
      "geometry": {
        "type": "Point",
        "coordinates": [
          -86.3755499,
          39.712021
        ]
      },
      "id": "node/2480503314"
    },
    {
      "type": "Feature",
      "properties": {
        "@id": "node/2502972759",
        "atm": "yes",
        "brand": "Kroger",
        "brand:wikidata": "Q153417",
        "brand:wikipedia": "en:Kroger",
        "name": "Kroger",
        "shop": "supermarket",
        "source": "Local_knowledge",
        "toilets:wheelchair": "yes",
        "wheelchair": "yes"
      },
      "geometry": {
        "type": "Point",
        "coordinates": [
          -86.205519,
          39.913798
        ]
      },
      "id": "node/2502972759"
    },
    {
      "type": "Feature",
      "properties": {
        "@id": "node/2502974183",
        "addr:city": "Indianapolis",
        "addr:housenumber": "2902",
        "addr:postcode": "46268",
        "addr:state": "IN",
        "addr:street": "West 86th Street",
        "brand": "Trader Joe's",
        "brand:wikidata": "Q688825",
        "brand:wikipedia": "en:Trader Joe's",
        "name": "Trader Joe's",
        "phone": "+1-317-337-1880",
        "shop": "supermarket",
        "source": "Local_knowledge",
        "toilets:wheelchair": "no",
        "wheelchair": "yes"
      },
      "geometry": {
        "type": "Point",
        "coordinates": [
          -86.212464,
          39.912493
        ]
      },
      "id": "node/2502974183"
    },
    {
      "type": "Feature",
      "properties": {
        "@id": "node/2537299968",
        "amenity": "drinking_water",
        "fountain": "nasone",
        "indoor": "no",
        "wikimedia_commons": "File:Nasone via mecenate, Roma, Italia Jun 30, 2022 06-19-16 PM.jpeg"
      },
      "geometry": {
        "type": "Point",
        "coordinates": [
          12.4987211,
          41.8911676
        ]
      },
      "id": "node/2537299968"
    },
    {
      "type": "Feature",
      "properties": {
        "@id": "node/2569082119",
        "addr:city": "Knox",
        "addr:housenumber": "910",
        "addr:postcode": "46534",
        "addr:street": "South Heaton Street",
        "name": "Osborns Mini Mart",
        "phone": "+1-574-772-3244",
        "shop": "convenience",
        "wheelchair": "yes"
      },
      "geometry": {
        "type": "Point",
        "coordinates": [
          -86.61988,
          41.2883302
        ]
      },
      "id": "node/2569082119"
    },
    {
      "type": "Feature",
      "properties": {
        "@id": "node/2569083568",
        "addr:city": "Knox",
        "addr:housenumber": "1209",
        "addr:postcode": "46534",
        "addr:state": "IN",
        "addr:street": "South Heaton Street",
        "amenity": "marketplace",
        "name": "Five Star",
        "wheelchair": "yes"
      },
      "geometry": {
        "type": "Point",
        "coordinates": [
          -86.622381,
          41.2853503
        ]
      },
      "id": "node/2569083568"
    },
    {
      "type": "Feature",
      "properties": {
        "@id": "node/2573301630",
        "brand": "Casey's General Store",
        "brand:wikidata": "Q2940968",
        "brand:wikipedia": "en:Casey's General Stores",
        "name": "Casey's General Store",
        "phone": "+1-812- 925-3742",
        "shop": "convenience",
        "website": "https://www.caseys.com/"
      },
      "geometry": {
        "type": "Point",
        "coordinates": [
          -87.3640582,
          38.0422922
        ]
      },
      "id": "node/2573301630"
    },
    {
      "type": "Feature",
      "properties": {
        "@id": "node/2573301645",
        "name": "Hucks Convenience Store",
        "shop": "convenience",
        "website": "http://www.martinandbayley.com/"
      },
      "geometry": {
        "type": "Point",
        "coordinates": [
          -87.3673299,
          38.0433043
        ]
      },
      "id": "node/2573301645"
    },
    {
      "type": "Feature",
      "properties": {
        "@id": "node/2623641006",
        "addr:housenumber": "6101",
        "addr:street": "North Keystone Avenue",
        "brand": "Target",
        "brand:wikidata": "Q1046951",
        "brand:wikipedia": "en:Target Corporation",
        "name": "Target",
        "shop": "supermarket"
      },
      "geometry": {
        "type": "Point",
        "coordinates": [
          -86.119614,
          39.866153
        ]
      },
      "id": "node/2623641006"
    },
    {
      "type": "Feature",
      "properties": {
        "@id": "node/2634594095",
        "name": "Old Mill Mart",
        "shop": "convenience",
        "source": "Bing"
      },
      "geometry": {
        "type": "Point",
        "coordinates": [
          -87.9246953,
          38.1301758
        ]
      },
      "id": "node/2634594095"
    },
    {
      "type": "Feature",
      "properties": {
        "@id": "node/2634594096",
        "addr:housenumber": "621",
        "addr:postcode": "47631",
        "addr:street": "Church Street",
        "name": "New Harmony Marathon",
        "phone": "+1-812-682-3360",
        "shop": "convenience",
        "source": "Bing"
      },
      "geometry": {
        "type": "Point",
        "coordinates": [
          -87.9323164,
          38.1295168
        ]
      },
      "id": "node/2634594096"
    },
    {
      "type": "Feature",
      "properties": {
        "@id": "node/2655747009",
        "addr:city": "Granger",
        "addr:housenumber": "12850",
        "addr:postcode": "46530",
        "addr:state": "IN",
        "addr:street": "Adams Road",
        "brand": "Martin's Super Markets",
        "brand:wikidata": "Q6774803",
        "brand:wikipedia": "en:Martin's Super Markets",
        "name": "Martin's Super Markets",
        "opening_hours": "Mo-Su 06:00-24:00",
        "phone": "+1-574-277-5521",
        "shop": "supermarket"
      },
      "geometry": {
        "type": "Point",
        "coordinates": [
          -86.1187856,
          41.7515492
        ]
      },
      "id": "node/2655747009"
    },
    {
      "type": "Feature",
      "properties": {
        "@id": "node/2657195976",
        "addr:city": "Fishers",
        "addr:housenumber": "7272",
        "addr:postcode": "46038",
        "addr:state": "IN",
        "addr:street": "Fishers Crossing Drive",
        "brand": "Kroger",
        "brand:wikidata": "Q153417",
        "brand:wikipedia": "en:Kroger",
        "name": "Kroger",
        "opening_hours": "24/7",
        "operator": "The Kroger Co.",
        "phone": "+1-317-579-0201",
        "ref": "944",
        "shop": "supermarket",
        "website": "https://www.kroger.com/"
      },
      "geometry": {
        "type": "Point",
        "coordinates": [
          -86.0413953,
          39.9583784
        ]
      },
      "id": "node/2657195976"
    },
    {
      "type": "Feature",
      "properties": {
        "@id": "node/2657474038",
        "check_date": "2022-10-09",
        "name": "Gallops",
        "shop": "convenience"
      },
      "geometry": {
        "type": "Point",
        "coordinates": [
          -86.737371,
          41.6859326
        ]
      },
      "id": "node/2657474038"
    },
    {
      "type": "Feature",
      "properties": {
        "@id": "node/2667346075",
        "brand": "Circle K",
        "brand:wikidata": "Q3268010",
        "brand:wikipedia": "en:Circle K",
        "name": "Circle K",
        "shop": "convenience"
      },
      "geometry": {
        "type": "Point",
        "coordinates": [
          -86.0647299,
          39.9273466
        ]
      },
      "id": "node/2667346075"
    },
    {
      "type": "Feature",
      "properties": {
        "@id": "node/2669391148",
        "name": "Carniceria Morelos",
        "phone": "+1-317-577-9243",
        "shop": "convenience"
      },
      "geometry": {
        "type": "Point",
        "coordinates": [
          -86.0692582,
          39.9254964
        ]
      },
      "id": "node/2669391148"
    },
    {
      "type": "Feature",
      "properties": {
        "@id": "node/2669391166",
        "name": "Namaste Plaza, Inc",
        "opening_hours": "Mo-Su 11:00-21:00",
        "phone": "+1-317-849-8640",
        "shop": "convenience"
      },
      "geometry": {
        "type": "Point",
        "coordinates": [
          -86.0690496,
          39.9252675
        ]
      },
      "id": "node/2669391166"
    },
    {
      "type": "Feature",
      "properties": {
        "@id": "node/2699921087",
        "addr:city": "LaPorte",
        "addr:housenumber": "55",
        "addr:postcode": "46350",
        "addr:state": "IN",
        "addr:street": "Pine Lake Avenue",
        "brand": "Kroger",
        "brand:wikidata": "Q153417",
        "brand:wikipedia": "en:Kroger",
        "check_date": "2022-12-14",
        "name": "Kroger",
        "opening_hours": "Mo-Su 07:00-22:00",
        "phone": "+1 219 362 1591",
        "shop": "supermarket"
      },
      "geometry": {
        "type": "Point",
        "coordinates": [
          -86.7263448,
          41.6144298
        ]
      },
      "id": "node/2699921087"
    },
    {
      "type": "Feature",
      "properties": {
        "@id": "node/2738855850",
        "brand": "Kroger",
        "brand:wikidata": "Q153417",
        "brand:wikipedia": "en:Kroger",
        "name": "Kroger",
        "shop": "supermarket"
      },
      "geometry": {
        "type": "Point",
        "coordinates": [
          -86.1193017,
          39.8751703
        ]
      },
      "id": "node/2738855850"
    },
    {
      "type": "Feature",
      "properties": {
        "@id": "node/2805236318",
        "name": "Schnucks",
        "shop": "supermarket"
      },
      "geometry": {
        "type": "Point",
        "coordinates": [
          -87.4898468,
          38.0096744
        ]
      },
      "id": "node/2805236318"
    },
    {
      "type": "Feature",
      "properties": {
        "@id": "node/2826427975",
        "addr:city": "Elkhart",
        "addr:housenumber": "2810",
        "addr:postcode": "46514",
        "addr:state": "IN",
        "addr:street": "Emerson Drive",
        "brand": "ALDI",
        "brand:wikidata": "Q41171672",
        "brand:wikipedia": "en:Aldi",
        "name": "ALDI",
        "opening_hours": "Mo-Sa 09:00-21:00; Su 09:00-20:00",
        "phone": "+1 855 955 2534",
        "shop": "supermarket"
      },
      "geometry": {
        "type": "Point",
        "coordinates": [
          -85.9806915,
          41.7248885
        ]
      },
      "id": "node/2826427975"
    },
    {
      "type": "Feature",
      "properties": {
        "@id": "node/2872839808",
        "name": "Payless",
        "shop": "supermarket"
      },
      "geometry": {
        "type": "Point",
        "coordinates": [
          -86.8703163,
          40.4336063
        ]
      },
      "id": "node/2872839808"
    },
    {
      "type": "Feature",
      "properties": {
        "@id": "node/2900117596",
        "name": "former Marsh Supermarket",
        "shop": "supermarket"
      },
      "geometry": {
        "type": "Point",
        "coordinates": [
          -86.2815869,
          39.8212647
        ]
      },
      "id": "node/2900117596"
    },
    {
      "type": "Feature",
      "properties": {
        "@id": "node/2938397121",
        "name": "Marsh",
        "shop": "supermarket"
      },
      "geometry": {
        "type": "Point",
        "coordinates": [
          -85.9115633,
          39.7263823
        ]
      },
      "id": "node/2938397121"
    },
    {
      "type": "Feature",
      "properties": {
        "@id": "node/2955359304",
        "amenity": "marketplace",
        "name": "Baylough's Grocery Store (historical)"
      },
      "geometry": {
        "type": "Point",
        "coordinates": [
          -87.0613178,
          41.4805485
        ]
      },
      "id": "node/2955359304"
    },
    {
      "type": "Feature",
      "properties": {
        "@id": "node/2964058462",
        "name": "Sander's Food Market",
        "shop": "supermarket"
      },
      "geometry": {
        "type": "Point",
        "coordinates": [
          -86.6022741,
          41.0603592
        ]
      },
      "id": "node/2964058462"
    },
    {
      "type": "Feature",
      "properties": {
        "@id": "node/2969409957",
        "addr:city": "Noblesville",
        "addr:country": "US",
        "addr:housename": "Walmart Supercenter",
        "addr:housenumber": "16865",
        "addr:postcode": "46060",
        "addr:state": "IN",
        "addr:street": "Clover Road",
        "brand": "Walmart",
        "brand:wikidata": "Q483551",
        "brand:wikipedia": "en:Walmart",
        "name": "Walmart Supercenter",
        "ref:walmart": "923",
        "shop": "supermarket"
      },
      "geometry": {
        "type": "Point",
        "coordinates": [
          -85.9989544,
          40.0337021
        ]
      },
      "id": "node/2969409957"
    },
    {
      "type": "Feature",
      "properties": {
        "@id": "node/3003840577",
        "addr:city": "Indianapolis",
        "addr:postcode": "46241",
        "addr:street": "West Washington Street",
        "name": "Hana Market",
        "note": "Eritrean dry goods and food",
        "shop": "supermarket"
      },
      "geometry": {
        "type": "Point",
        "coordinates": [
          -86.2424183,
          39.7549877
        ]
      },
      "id": "node/3003840577"
    },
    {
      "type": "Feature",
      "properties": {
        "@id": "node/3015750255",
        "shop": "supermarket"
      },
      "geometry": {
        "type": "Point",
        "coordinates": [
          -86.2165207,
          39.7742422
        ]
      },
      "id": "node/3015750255"
    },
    {
      "type": "Feature",
      "properties": {
        "@id": "node/3156618291",
        "name": "R & M Food Market",
        "shop": "supermarket"
      },
      "geometry": {
        "type": "Point",
        "coordinates": [
          -86.8681706,
          40.6097035
        ]
      },
      "id": "node/3156618291"
    },
    {
      "type": "Feature",
      "properties": {
        "@id": "node/3209542067",
        "addr:city": "Lowell",
        "addr:housenumber": "2080",
        "addr:postcode": "46356",
        "addr:state": "IN",
        "addr:street": "East Commercial Avenue",
        "brand": "Strack & Van Til",
        "brand:wikidata": "Q17108969",
        "name": "Strack & Van Til",
        "ref": "8755",
        "shop": "supermarket"
      },
      "geometry": {
        "type": "Point",
        "coordinates": [
          -87.392753,
          41.2890616
        ]
      },
      "id": "node/3209542067"
    },
    {
      "type": "Feature",
      "properties": {
        "@id": "node/3216144733",
        "addr:city": "Indianapolis",
        "addr:housenumber": "320",
        "addr:postcode": "46204",
        "addr:state": "IN",
        "addr:street": "North New Jersey Street",
        "air_conditioning": "yes",
        "branch": "Lockerbie",
        "brand": "Needler's Fresh Market",
        "level": "0",
        "name": "Needler's Fresh Market",
        "opening_hours": "Mo-Su 07:00-24:00",
        "operator": "Fresh Encounter Inc.",
        "organic": "yes",
        "phone": "+1 317 262 4888",
        "shop": "supermarket",
        "website": "https://www.needlersfreshmarket.com/stores/needlers-lockerbie",
        "wheelchair": "yes"
      },
      "geometry": {
        "type": "Point",
        "coordinates": [
          -86.1516702,
          39.7719723
        ]
      },
      "id": "node/3216144733"
    },
    {
      "type": "Feature",
      "properties": {
        "@id": "node/3308527983",
        "name": "Priceless Foods",
        "shop": "supermarket"
      },
      "geometry": {
        "type": "Point",
        "coordinates": [
          -87.5101912,
          37.9562918
        ]
      },
      "id": "node/3308527983"
    },
    {
      "type": "Feature",
      "properties": {
        "@id": "node/3443202493",
        "addr:city": "Indianapolis",
        "addr:housenumber": "8703",
        "addr:postcode": "46241",
        "addr:state": "IN",
        "addr:street": "Colonel H. Weir Cook Memorial Drive",
        "brand": "Circle K",
        "brand:wikidata": "Q3268010",
        "brand:wikipedia": "en:Circle K",
        "name": "Circle K",
        "shop": "convenience"
      },
      "geometry": {
        "type": "Point",
        "coordinates": [
          -86.3148825,
          39.6999332
        ]
      },
      "id": "node/3443202493"
    },
    {
      "type": "Feature",
      "properties": {
        "@id": "node/3514805140",
        "addr:city": "Goshen",
        "addr:housenumber": "209",
        "addr:postcode": "46526",
        "addr:state": "IN",
        "addr:street": "North Chicago Avenue",
        "brand": "Kroger",
        "brand:wikidata": "Q153417",
        "brand:wikipedia": "en:Kroger",
        "name": "Kroger",
        "shop": "supermarket"
      },
      "geometry": {
        "type": "Point",
        "coordinates": [
          -85.8445746,
          41.5875258
        ]
      },
      "id": "node/3514805140"
    },
    {
      "type": "Feature",
      "properties": {
        "@id": "node/3517391693",
        "addr:city": "Goshen",
        "addr:housenumber": "1527",
        "addr:postcode": "46528",
        "addr:state": "IN",
        "addr:street": "Bashor Road",
        "name": "Martin's Super Market",
        "phone": "+1 574 537-0719",
        "shop": "supermarket"
      },
      "geometry": {
        "type": "Point",
        "coordinates": [
          -85.8559981,
          41.5958136
        ]
      },
      "id": "node/3517391693"
    },
    {
      "type": "Feature",
      "properties": {
        "@id": "node/3533976066",
        "shop": "convenience"
      },
      "geometry": {
        "type": "Point",
        "coordinates": [
          -86.5099327,
          40.2693779
        ]
      },
      "id": "node/3533976066"
    },
    {
      "type": "Feature",
      "properties": {
        "@id": "node/3533976068",
        "shop": "convenience"
      },
      "geometry": {
        "type": "Point",
        "coordinates": [
          -86.5127218,
          40.2794512
        ]
      },
      "id": "node/3533976068"
    },
    {
      "type": "Feature",
      "properties": {
        "@id": "node/3533976069",
        "shop": "convenience"
      },
      "geometry": {
        "type": "Point",
        "coordinates": [
          -86.5103736,
          40.2848047
        ]
      },
      "id": "node/3533976069"
    },
    {
      "type": "Feature",
      "properties": {
        "@id": "node/3534207736",
        "brand": "Aldi",
        "brand:wikidata": "Q125054",
        "brand:wikipedia": "en:Aldi",
        "name": "Aldi",
        "shop": "supermarket"
      },
      "geometry": {
        "type": "Point",
        "coordinates": [
          -86.4796858,
          40.2780306
        ]
      },
      "id": "node/3534207736"
    },
    {
      "type": "Feature",
      "properties": {
        "@id": "node/3551133500",
        "brand": "Fresh Thyme",
        "brand:wikidata": "Q64132791",
        "name": "Fresh Thyme",
        "shop": "supermarket",
        "toilets:wheelchair": "no",
        "wheelchair": "yes"
      },
      "geometry": {
        "type": "Point",
        "coordinates": [
          -86.2022079,
          39.913405
        ]
      },
      "id": "node/3551133500"
    },
    {
      "type": "Feature",
      "properties": {
        "@id": "node/3557203416",
        "name": "IGA Plus",
        "shop": "supermarket"
      },
      "geometry": {
        "type": "Point",
        "coordinates": [
          -87.2376058,
          39.7763961
        ]
      },
      "id": "node/3557203416"
    },
    {
      "type": "Feature",
      "properties": {
        "@id": "node/3561537478",
        "name": "Campstore",
        "shop": "convenience"
      },
      "geometry": {
        "type": "Point",
        "coordinates": [
          -86.7265546,
          39.2906442
        ]
      },
      "id": "node/3561537478"
    },
    {
      "type": "Feature",
      "properties": {
        "@id": "node/3566415446",
        "brand": "Schnucks",
        "brand:wikidata": "Q7431920",
        "brand:wikipedia": "en:Schnucks",
        "name": "Schnucks",
        "shop": "supermarket"
      },
      "geometry": {
        "type": "Point",
        "coordinates": [
          -87.5759878,
          38.01212
        ]
      },
      "id": "node/3566415446"
    },
    {
      "type": "Feature",
      "properties": {
        "@id": "node/3649642330",
        "addr:city": "Indianapolis",
        "addr:housenumber": "3872",
        "addr:postcode": "46254",
        "addr:state": "IN",
        "addr:street": "Lafayette Road",
        "name": "Tienda Morelos Mexican Food Market",
        "shop": "supermarket",
        "source": "esri_USDOT_Indiana"
      },
      "geometry": {
        "type": "Point",
        "coordinates": [
          -86.238362,
          39.825284
        ]
      },
      "id": "node/3649642330"
    },
    {
      "type": "Feature",
      "properties": {
        "@id": "node/3649699025",
        "addr:city": "Indianapolis",
        "addr:housenumber": "3898",
        "addr:postcode": "46224",
        "addr:state": "IN",
        "addr:street": "Lafayette Road",
        "addr:unit": "A",
        "brand": "Save-A-Lot",
        "brand:wikidata": "Q7427972",
        "brand:wikipedia": "en:Save-A-Lot",
        "name": "Save-A-Lot",
        "ref": "877",
        "shop": "supermarket"
      },
      "geometry": {
        "type": "Point",
        "coordinates": [
          -86.238979,
          39.826943
        ]
      },
      "id": "node/3649699025"
    },
    {
      "type": "Feature",
      "properties": {
        "@id": "node/3654704687",
        "addr:city": "Bloomfield",
        "addr:housenumber": "360",
        "addr:postcode": "47424",
        "addr:state": "IN",
        "addr:street": "East Main St",
        "name": "Ruler Food Store",
        "phone": "+1-812-384-3220",
        "shop": "supermarket",
        "website": "https://www.jaycfoods.com/topic/ruler-foods"
      },
      "geometry": {
        "type": "Point",
        "coordinates": [
          -86.9336882,
          39.0274023
        ]
      },
      "id": "node/3654704687"
    },
    {
      "type": "Feature",
      "properties": {
        "@id": "node/3669511725",
        "addr:city": "Indianapolis",
        "addr:housenumber": "1415",
        "addr:postcode": "46260",
        "addr:state": "IN",
        "addr:street": "West 86th Street",
        "name": "Village Pantry",
        "ref": "5578",
        "shop": "convenience"
      },
      "geometry": {
        "type": "Point",
        "coordinates": [
          -86.184414,
          39.911673
        ]
      },
      "id": "node/3669511725"
    },
    {
      "type": "Feature",
      "properties": {
        "@id": "node/3761012368",
        "addr:city": "Auburn",
        "addr:housenumber": "1005",
        "addr:postcode": "46706",
        "addr:state": "IN",
        "addr:street": "West 7th Street",
        "brand": "Kroger",
        "brand:wikidata": "Q153417",
        "brand:wikipedia": "en:Kroger",
        "name": "Kroger",
        "shop": "supermarket"
      },
      "geometry": {
        "type": "Point",
        "coordinates": [
          -85.072416,
          41.3645701
        ]
      },
      "id": "node/3761012368"
    },
    {
      "type": "Feature",
      "properties": {
        "@id": "node/3780605639",
        "addr:city": "South Bend",
        "addr:housenumber": "208",
        "addr:postcode": "46601",
        "addr:state": "IN",
        "addr:street": "West Colfax Avenue",
        "name": "Saigon Market",
        "shop": "supermarket"
      },
      "geometry": {
        "type": "Point",
        "coordinates": [
          -86.2526239,
          41.6775279
        ]
      },
      "id": "node/3780605639"
    },
    {
      "type": "Feature",
      "properties": {
        "@id": "node/3785014818",
        "amenity": "drinking_water"
      },
      "geometry": {
        "type": "Point",
        "coordinates": [
          12.4934389,
          41.8873381
        ]
      },
      "id": "node/3785014818"
    },
    {
      "type": "Feature",
      "properties": {
        "@id": "node/3803640697",
        "addr:unit": "B105",
        "brand": "The Fresh Market",
        "brand:wikidata": "Q7735265",
        "brand:wikipedia": "en:The Fresh Market",
        "name": "The Fresh Market",
        "shop": "supermarket",
        "wheelchair": "yes"
      },
      "geometry": {
        "type": "Point",
        "coordinates": [
          -86.1184385,
          40.0018774
        ]
      },
      "id": "node/3803640697"
    },
    {
      "type": "Feature",
      "properties": {
        "@id": "node/3881400312",
        "addr:city": "Fishers",
        "addr:housenumber": "11750",
        "addr:postcode": "46038",
        "addr:state": "IN",
        "addr:street": "Commercial Drive",
        "brand": "Target",
        "brand:wikidata": "Q1046951",
        "brand:wikipedia": "en:Target Corporation",
        "name": "Target",
        "shop": "supermarket"
      },
      "geometry": {
        "type": "Point",
        "coordinates": [
          -86.0098525,
          39.9597182
        ]
      },
      "id": "node/3881400312"
    },
    {
      "type": "Feature",
      "properties": {
        "@id": "node/3887814285",
        "addr:city": "Schererville",
        "addr:housenumber": "1515",
        "addr:postcode": "46375",
        "addr:state": "IN",
        "addr:street": "Indianapolis Boulevard",
        "brand": "Strack & Van Til",
        "brand:wikidata": "Q17108969",
        "brand:wikipedia": "en:Strack & Van Til",
        "name": "Strack & Van Til",
        "shop": "supermarket",
        "website": "https://strackandvantil.com/locations/schererville/"
      },
      "geometry": {
        "type": "Point",
        "coordinates": [
          -87.4691212,
          41.4946881
        ]
      },
      "id": "node/3887814285"
    },
    {
      "type": "Feature",
      "properties": {
        "@id": "node/3921224895",
        "shop": "convenience"
      },
      "geometry": {
        "type": "Point",
        "coordinates": [
          -85.833075,
          41.6021695
        ]
      },
      "id": "node/3921224895"
    },
    {
      "type": "Feature",
      "properties": {
        "@id": "node/3921315318",
        "name": "7-Eleven",
        "shop": "convenience"
      },
      "geometry": {
        "type": "Point",
        "coordinates": [
          -85.8306845,
          41.5740549
        ]
      },
      "id": "node/3921315318"
    },
    {
      "type": "Feature",
      "properties": {
        "@id": "node/3922287614",
        "addr:city": "Goshen",
        "addr:housenumber": "910",
        "addr:postcode": "46526",
        "addr:state": "IN",
        "addr:street": "West Lincoln Avenue",
        "brand": "Speedway",
        "brand:wikidata": "Q7575683",
        "brand:wikipedia": "en:Speedway (store)",
        "name": "Speedway",
        "ref": "5157",
        "shop": "convenience"
      },
      "geometry": {
        "type": "Point",
        "coordinates": [
          -85.8478564,
          41.5859262
        ]
      },
      "id": "node/3922287614"
    },
    {
      "type": "Feature",
      "properties": {
        "@id": "node/3922347684",
        "name": "pak-a-sak",
        "shop": "convenience"
      },
      "geometry": {
        "type": "Point",
        "coordinates": [
          -85.8355082,
          41.5889672
        ]
      },
      "id": "node/3922347684"
    },
    {
      "type": "Feature",
      "properties": {
        "@id": "node/3929458105",
        "shop": "convenience"
      },
      "geometry": {
        "type": "Point",
        "coordinates": [
          -85.7861861,
          41.5522363
        ]
      },
      "id": "node/3929458105"
    },
    {
      "type": "Feature",
      "properties": {
        "@id": "node/3954118019",
        "shop": "convenience"
      },
      "geometry": {
        "type": "Point",
        "coordinates": [
          -85.8673426,
          41.6012582
        ]
      },
      "id": "node/3954118019"
    },
    {
      "type": "Feature",
      "properties": {
        "@id": "node/4103693118",
        "name": "Lange's Butcher Shop",
        "shop": "supermarket"
      },
      "geometry": {
        "type": "Point",
        "coordinates": [
          -86.9030638,
          41.7141573
        ]
      },
      "id": "node/4103693118"
    },
    {
      "type": "Feature",
      "properties": {
        "@id": "node/4138698111",
        "name": "Nicole Taylor's Pasta Market",
        "shop": "supermarket"
      },
      "geometry": {
        "type": "Point",
        "coordinates": [
          -86.1394506,
          39.8514142
        ]
      },
      "id": "node/4138698111"
    },
    {
      "type": "Feature",
      "properties": {
        "@id": "node/4367392301",
        "brand": "ALDI",
        "brand:wikidata": "Q41171672",
        "brand:wikipedia": "en:Aldi",
        "name": "ALDI",
        "shop": "supermarket"
      },
      "geometry": {
        "type": "Point",
        "coordinates": [
          -87.4744197,
          41.5711049
        ]
      },
      "id": "node/4367392301"
    },
    {
      "type": "Feature",
      "properties": {
        "@id": "node/4381096302",
        "addr:city": "Terre Haute",
        "addr:housenumber": "2140",
        "addr:postcode": "47804",
        "addr:state": "IN",
        "addr:street": "Fort Harrison Road",
        "brand": "Kroger",
        "brand:wikidata": "Q153417",
        "brand:wikipedia": "en:Kroger",
        "name": "Kroger",
        "shop": "supermarket"
      },
      "geometry": {
        "type": "Point",
        "coordinates": [
          -87.3839953,
          39.5077469
        ]
      },
      "id": "node/4381096302"
    },
    {
      "type": "Feature",
      "properties": {
        "@id": "node/4381096304",
        "addr:city": "Terre Haute",
        "addr:housenumber": "3266",
        "addr:postcode": "47804",
        "addr:state": "IN",
        "addr:street": "North 25th St",
        "name": "Casey's General Store",
        "shop": "supermarket"
      },
      "geometry": {
        "type": "Point",
        "coordinates": [
          -87.3797395,
          39.506408
        ]
      },
      "id": "node/4381096304"
    },
    {
      "type": "Feature",
      "properties": {
        "@id": "node/4381096330",
        "addr:city": "Terre Haute",
        "addr:housenumber": "2219",
        "addr:postcode": "47805",
        "addr:state": "IN",
        "addr:street": "Lafayette Avenue",
        "brand": "Circle K",
        "brand:wikidata": "Q3268010",
        "brand:wikipedia": "en:Circle K",
        "name": "Circle K",
        "shop": "convenience"
      },
      "geometry": {
        "type": "Point",
        "coordinates": [
          -87.38232,
          39.5118509
        ]
      },
      "id": "node/4381096330"
    },
    {
      "type": "Feature",
      "properties": {
        "@id": "node/4381096343",
        "addr:city": "Terre Haute",
        "addr:housenumber": "5083",
        "addr:postcode": "47805",
        "addr:state": "IN",
        "addr:street": "North Lafayette Street",
        "name": "Jiffy Mini-Mart",
        "shop": "convenience"
      },
      "geometry": {
        "type": "Point",
        "coordinates": [
          -87.3701111,
          39.5276452
        ]
      },
      "id": "node/4381096343"
    },
    {
      "type": "Feature",
      "properties": {
        "@id": "node/4402016397",
        "addr:city": "Carmel",
        "addr:housenumber": "14620",
        "addr:postcode": "46032",
        "addr:state": "IN",
        "addr:street": "Greyhound Plaza",
        "brand": "ALDI",
        "brand:wikidata": "Q41171672",
        "brand:wikipedia": "en:Aldi",
        "level": "1",
        "name": "ALDI",
        "opening_hours": "Mo-Su 09:00-20:00",
        "payment:cash": "yes",
        "payment:credit_cards": "yes",
        "shop": "supermarket",
        "toilets:wheelchair": "yes",
        "website": "http://weeklyads.aldi.us/Aldi/StoreLocation/Index/?StoreID=2674803&MapCityStateZip=46032",
        "wheelchair": "limited"
      },
      "geometry": {
        "type": "Point",
        "coordinates": [
          -86.1289742,
          40.0010897
        ]
      },
      "id": "node/4402016397"
    },
    {
      "type": "Feature",
      "properties": {
        "@id": "node/4412608264",
        "addr:city": "Lafayette",
        "addr:housenumber": "65",
        "addr:postcode": "47909",
        "addr:state": "IN",
        "addr:street": "Beck Lane",
        "brand": "Pay Less Super Markets",
        "brand:wikidata": "Q7156587",
        "brand:wikipedia": "en:Pay Less Super Markets",
        "name": "Pay Less Super Markets",
        "opening_hours": "07:00-22:00",
        "operator": "Kroger",
        "phone": "+1 765 474 0677",
        "shop": "supermarket",
        "website": "https://www.pay-less.com/stores/details/021/00822"
      },
      "geometry": {
        "type": "Point",
        "coordinates": [
          -86.9023895,
          40.3862345
        ]
      },
      "id": "node/4412608264"
    },
    {
      "type": "Feature",
      "properties": {
        "@id": "node/4454165908",
        "brand": "Meijer",
        "brand:wikidata": "Q1917753",
        "brand:wikipedia": "en:Meijer",
        "name": "Meijer",
        "shop": "convenience"
      },
      "geometry": {
        "type": "Point",
        "coordinates": [
          -86.0224797,
          39.9266594
        ]
      },
      "id": "node/4454165908"
    },
    {
      "type": "Feature",
      "properties": {
        "@id": "node/4455743589",
        "brand": "Circle K",
        "brand:wikidata": "Q3268010",
        "brand:wikipedia": "en:Circle K",
        "name": "Circle K",
        "opening_hours": "24/7",
        "shop": "convenience"
      },
      "geometry": {
        "type": "Point",
        "coordinates": [
          -86.039259,
          39.9574015
        ]
      },
      "id": "node/4455743589"
    },
    {
      "type": "Feature",
      "properties": {
        "@id": "node/4460003015",
        "name": "Asia Mart",
        "shop": "supermarket"
      },
      "geometry": {
        "type": "Point",
        "coordinates": [
          -86.0619876,
          39.9118769
        ]
      },
      "id": "node/4460003015"
    },
    {
      "type": "Feature",
      "properties": {
        "@id": "node/4465804752",
        "shop": "convenience"
      },
      "geometry": {
        "type": "Point",
        "coordinates": [
          -86.0142764,
          39.9280786
        ]
      },
      "id": "node/4465804752"
    },
    {
      "type": "Feature",
      "properties": {
        "@id": "node/4522353383",
        "addr:housenumber": "1300",
        "addr:street": "East 86th Street",
        "brand": "Whole Foods Market",
        "brand:wikidata": "Q1809448",
        "brand:wikipedia": "en:Whole Foods Market",
        "name": "Whole Foods Market",
        "opening_hours": "Mo-Su 08:00-22:00",
        "phone": "+1-317-706-0900",
        "shop": "supermarket",
        "website": "https://www.wholefoodsmarket.com/stores/eightysixthst",
        "wheelchair": "yes"
      },
      "geometry": {
        "type": "Point",
        "coordinates": [
          -86.137216,
          39.9139463
        ]
      },
      "id": "node/4522353383"
    },
    {
      "type": "Feature",
      "properties": {
        "@id": "node/4529699678",
        "addr:city": "Evansville",
        "addr:housenumber": "1365",
        "addr:postcode": "47714",
        "addr:street": "Covert Avenue",
        "name": "Simpson's",
        "shop": "supermarket"
      },
      "geometry": {
        "type": "Point",
        "coordinates": [
          -87.5396558,
          37.954509
        ]
      },
      "id": "node/4529699678"
    },
    {
      "type": "Feature",
      "properties": {
        "@id": "node/4584129292",
        "addr:city": "Valparaiso",
        "addr:housenumber": "76",
        "addr:postcode": "46383",
        "addr:state": "IN",
        "addr:street": "South Washington Street",
        "name": "Old World Market",
        "shop": "supermarket"
      },
      "geometry": {
        "type": "Point",
        "coordinates": [
          -87.0611501,
          41.4669365
        ]
      },
      "id": "node/4584129292"
    },
    {
      "type": "Feature",
      "properties": {
        "@id": "node/4598707376",
        "name": "Philips 66",
        "shop": "convenience"
      },
      "geometry": {
        "type": "Point",
        "coordinates": [
          -85.8341336,
          41.589042
        ]
      },
      "id": "node/4598707376"
    },
    {
      "type": "Feature",
      "properties": {
        "@id": "node/4606449385",
        "addr:city": "Goshen",
        "addr:housenumber": "18423",
        "addr:postcode": "46528",
        "addr:state": "IN",
        "addr:street": "US Highway 20",
        "name": "Gallops",
        "shop": "convenience"
      },
      "geometry": {
        "type": "Point",
        "coordinates": [
          -85.8199003,
          41.6682217
        ]
      },
      "id": "node/4606449385"
    },
    {
      "type": "Feature",
      "properties": {
        "@id": "node/4606449387",
        "addr:city": "Bristol",
        "addr:housenumber": "18541",
        "addr:postcode": "46507",
        "addr:state": "IN",
        "addr:street": "U South 20",
        "brand": "Speedway",
        "brand:wikidata": "Q7575683",
        "brand:wikipedia": "en:Speedway (store)",
        "name": "Speedway",
        "ref": "6662",
        "shop": "convenience"
      },
      "geometry": {
        "type": "Point",
        "coordinates": [
          -85.8222911,
          41.6677684
        ]
      },
      "id": "node/4606449387"
    },
    {
      "type": "Feature",
      "properties": {
        "@id": "node/4616767575",
        "shop": "convenience"
      },
      "geometry": {
        "type": "Point",
        "coordinates": [
          -85.9217894,
          41.6367186
        ]
      },
      "id": "node/4616767575"
    },
    {
      "type": "Feature",
      "properties": {
        "@id": "node/4625479114",
        "shop": "convenience"
      },
      "geometry": {
        "type": "Point",
        "coordinates": [
          -85.8276326,
          41.5827234
        ]
      },
      "id": "node/4625479114"
    },
    {
      "type": "Feature",
      "properties": {
        "@id": "node/4632494691",
        "name": "Save-A-Lot",
        "shop": "supermarket"
      },
      "geometry": {
        "type": "Point",
        "coordinates": [
          -87.5306287,
          37.9478155
        ]
      },
      "id": "node/4632494691"
    },
    {
      "type": "Feature",
      "properties": {
        "@id": "node/4635167146",
        "brand": "Kroger",
        "brand:wikidata": "Q153417",
        "brand:wikipedia": "en:Kroger",
        "name": "Kroger",
        "shop": "supermarket",
        "wheelchair": "limited"
      },
      "geometry": {
        "type": "Point",
        "coordinates": [
          -85.1673081,
          40.7204059
        ]
      },
      "id": "node/4635167146"
    },
    {
      "type": "Feature",
      "properties": {
        "@id": "node/4636076356",
        "name": "Al's",
        "shop": "supermarket"
      },
      "geometry": {
        "type": "Point",
        "coordinates": [
          -87.1419001,
          41.5495595
        ]
      },
      "id": "node/4636076356"
    },
    {
      "type": "Feature",
      "properties": {
        "@id": "node/4640552864",
        "shop": "supermarket"
      },
      "geometry": {
        "type": "Point",
        "coordinates": [
          -87.153099,
          38.6519267
        ]
      },
      "id": "node/4640552864"
    },
    {
      "type": "Feature",
      "properties": {
        "@id": "node/4640558734",
        "shop": "supermarket"
      },
      "geometry": {
        "type": "Point",
        "coordinates": [
          -87.1504114,
          38.6543606
        ]
      },
      "id": "node/4640558734"
    },
    {
      "type": "Feature",
      "properties": {
        "@id": "node/4675078142",
        "addr:city": "West Lafayette",
        "addr:housenumber": "3065",
        "addr:postcode": "47906",
        "addr:state": "IN",
        "addr:street": "N. Salisbury Street",
        "amenity": "marketplace",
        "name": "West Lafayette Farmers Market",
        "opening_hours": "May-Oct We 15:30-19:00",
        "phone": "+1-765-775-5110",
        "website": "http://www.wlfarmersmarket.com"
      },
      "geometry": {
        "type": "Point",
        "coordinates": [
          -86.9161131,
          40.4630275
        ]
      },
      "id": "node/4675078142"
    },
    {
      "type": "Feature",
      "properties": {
        "@id": "node/4773968862",
        "addr:city": "Richmond",
        "addr:housenumber": "4401",
        "addr:postcode": "47374",
        "addr:state": "IN",
        "addr:street": "National Road East",
        "brand": "ALDI",
        "brand:wikidata": "Q41171672",
        "brand:wikipedia": "en:Aldi",
        "name": "ALDI",
        "opening_hours": "Mo-Fr 09:00-20:00,Sa 09:00-19:00,Su 10:00-18:00",
        "phone": "+1-630-879-8100",
        "shop": "supermarket"
      },
      "geometry": {
        "type": "Point",
        "coordinates": [
          -84.84167,
          39.8298799
        ]
      },
      "id": "node/4773968862"
    },
    {
      "type": "Feature",
      "properties": {
        "@id": "node/4773968865",
        "addr:city": "Richmond",
        "addr:housenumber": "3701",
        "addr:postcode": "47374",
        "addr:state": "IN",
        "addr:street": "National Road East",
        "brand": "Kroger",
        "brand:wikidata": "Q153417",
        "brand:wikipedia": "en:Kroger",
        "name": "Kroger",
        "shop": "supermarket"
      },
      "geometry": {
        "type": "Point",
        "coordinates": [
          -84.8507498,
          39.8292647
        ]
      },
      "id": "node/4773968865"
    },
    {
      "type": "Feature",
      "properties": {
        "@id": "node/4775066033",
        "addr:city": "Fort Wayne",
        "addr:housenumber": "4120",
        "addr:postcode": "46805",
        "addr:state": "IN",
        "addr:street": "North Clinton Street",
        "brand": "Kroger",
        "brand:wikidata": "Q153417",
        "brand:wikipedia": "en:Kroger",
        "name": "Kroger",
        "shop": "supermarket",
        "shop_1": "pharmacy"
      },
      "geometry": {
        "type": "Point",
        "coordinates": [
          -85.129282,
          41.1153242
        ]
      },
      "id": "node/4775066033"
    },
    {
      "type": "Feature",
      "properties": {
        "@id": "node/4792560750",
        "name": "Aunt Millies Outlet",
        "shop": "convenience"
      },
      "geometry": {
        "type": "Point",
        "coordinates": [
          -84.8859969,
          39.8338427
        ]
      },
      "id": "node/4792560750"
    },
    {
      "type": "Feature",
      "properties": {
        "@id": "node/4804317596",
        "name": "Springboro General Store",
        "shop": "convenience"
      },
      "geometry": {
        "type": "Point",
        "coordinates": [
          -86.7749404,
          40.5955879
        ]
      },
      "id": "node/4804317596"
    },
    {
      "type": "Feature",
      "properties": {
        "@id": "node/4804833357",
        "name": "64/30 Surplus Store",
        "shop": "convenience"
      },
      "geometry": {
        "type": "Point",
        "coordinates": [
          -85.0421466,
          41.0710632
        ]
      },
      "id": "node/4804833357"
    },
    {
      "type": "Feature",
      "properties": {
        "@id": "node/4874771024",
        "addr:city": "Bloomington",
        "addr:housenumber": "3600",
        "addr:postcode": "47404",
        "addr:state": "IN",
        "addr:street": "West 3rd Street",
        "brand": "Fresh Thyme",
        "brand:wikidata": "Q64132791",
        "name": "Fresh Thyme",
        "name:en": "Fresh Thyme Farmers Market",
        "shop": "supermarket"
      },
      "geometry": {
        "type": "Point",
        "coordinates": [
          -86.5796132,
          39.1660604
        ]
      },
      "id": "node/4874771024"
    },
    {
      "type": "Feature",
      "properties": {
        "@id": "node/4917229140",
        "addr:city": "Carmel",
        "addr:housenumber": "11505",
        "addr:postcode": "46032",
        "addr:state": "IN",
        "addr:street": "N Illinois St",
        "name": "Market District",
        "shop": "supermarket"
      },
      "geometry": {
        "type": "Point",
        "coordinates": [
          -86.1637984,
          39.9522987
        ]
      },
      "id": "node/4917229140"
    },
    {
      "type": "Feature",
      "properties": {
        "@id": "node/4961975242",
        "addr:city": "Indianapolis",
        "addr:housenumber": "9450",
        "addr:postcode": "46240",
        "addr:state": "IN",
        "addr:street": "Haver Way",
        "amenity": "marketplace",
        "description": "Asian Grocery Store",
        "name": "East Asia Market"
      },
      "geometry": {
        "type": "Point",
        "coordinates": [
          -86.1139044,
          39.9254466
        ]
      },
      "id": "node/4961975242"
    },
    {
      "type": "Feature",
      "properties": {
        "@id": "node/4962514408",
        "addr:city": "Indianapolis",
        "addr:housenumber": "9601",
        "addr:postcode": "46280",
        "addr:state": "IN",
        "addr:street": "College Avenue North",
        "name": "Village Pantry",
        "shop": "convenience"
      },
      "geometry": {
        "type": "Point",
        "coordinates": [
          -86.1453068,
          39.9275686
        ]
      },
      "id": "node/4962514408"
    },
    {
      "type": "Feature",
      "properties": {
        "@id": "node/4964123310",
        "amenity": "marketplace",
        "name": "Carmel Farmers Market",
        "opening_hours": "May-Sep Sa 08:00-11:30"
      },
      "geometry": {
        "type": "Point",
        "coordinates": [
          -86.1307559,
          39.9691852
        ]
      },
      "id": "node/4964123310"
    },
    {
      "type": "Feature",
      "properties": {
        "@id": "node/4966232452",
        "addr:city": "Carmel",
        "addr:housenumber": "1323",
        "addr:postcode": "46032",
        "addr:state": "IN",
        "addr:street": "South Range Line Road",
        "name": "Mini-Mart.us",
        "shop": "convenience"
      },
      "geometry": {
        "type": "Point",
        "coordinates": [
          -86.1261629,
          39.9601574
        ]
      },
      "id": "node/4966232452"
    },
    {
      "type": "Feature",
      "properties": {
        "@id": "node/4968938371",
        "name": "Village Pantry",
        "shop": "convenience"
      },
      "geometry": {
        "type": "Point",
        "coordinates": [
          -86.2360126,
          39.9415857
        ]
      },
      "id": "node/4968938371"
    },
    {
      "type": "Feature",
      "properties": {
        "@id": "node/4979463254",
        "shop": "convenience"
      },
      "geometry": {
        "type": "Point",
        "coordinates": [
          -85.8879611,
          41.7021584
        ]
      },
      "id": "node/4979463254"
    },
    {
      "type": "Feature",
      "properties": {
        "@id": "node/4979463255",
        "shop": "convenience"
      },
      "geometry": {
        "type": "Point",
        "coordinates": [
          -85.8891612,
          41.701596
        ]
      },
      "id": "node/4979463255"
    },
    {
      "type": "Feature",
      "properties": {
        "@id": "node/4980094924",
        "name": "Martin's Gas Station",
        "shop": "convenience"
      },
      "geometry": {
        "type": "Point",
        "coordinates": [
          -85.8581087,
          41.5955793
        ]
      },
      "id": "node/4980094924"
    },
    {
      "type": "Feature",
      "properties": {
        "@id": "node/4989170783",
        "addr:city": "Fishers",
        "addr:housenumber": "8895",
        "addr:postcode": "46038",
        "addr:state": "IN",
        "addr:street": "East 116th Street",
        "brand": "Speedway",
        "brand:wikidata": "Q7575683",
        "brand:wikipedia": "en:Speedway (store)",
        "name": "Speedway",
        "ref": "6066",
        "shop": "convenience"
      },
      "geometry": {
        "type": "Point",
        "coordinates": [
          -86.0122599,
          39.9564388
        ]
      },
      "id": "node/4989170783"
    },
    {
      "type": "Feature",
      "properties": {
        "@id": "node/4995494571",
        "addr:city": "Indianapolis",
        "addr:housenumber": "9989",
        "addr:postcode": "46229",
        "addr:state": "IN",
        "addr:street": "East Washington Street",
        "brand": "ALDI",
        "brand:wikidata": "Q41171672",
        "brand:wikipedia": "en:Aldi",
        "name": "ALDI",
        "ref": "71",
        "shop": "supermarket"
      },
      "geometry": {
        "type": "Point",
        "coordinates": [
          -85.9908055,
          39.7730163
        ]
      },
      "id": "node/4995494571"
    },
    {
      "type": "Feature",
      "properties": {
        "@id": "node/5001825732",
        "addr:city": "Indianapolis",
        "addr:housenumber": "8916",
        "addr:postcode": "46219",
        "addr:state": "IN",
        "addr:street": "East Washington Street",
        "brand": "Speedway",
        "brand:wikidata": "Q7575683",
        "brand:wikipedia": "en:Speedway (store)",
        "fuel:diesel": "yes",
        "name": "Speedway",
        "opening_hours": "24/7",
        "ref": "8054",
        "shop": "convenience"
      },
      "geometry": {
        "type": "Point",
        "coordinates": [
          -86.0107211,
          39.7744318
        ]
      },
      "id": "node/5001825732"
    },
    {
      "type": "Feature",
      "properties": {
        "@id": "node/5015285069",
        "addr:city": "Indianapolis",
        "addr:housenumber": "4225",
        "addr:postcode": "46250",
        "addr:state": "IN",
        "addr:street": "East 82nd Street",
        "brand": "Fresh Thyme",
        "brand:wikidata": "Q64132791",
        "name": "Fresh Thyme",
        "phone": "+1-317-348-0254",
        "shop": "supermarket",
        "website": "https://freshthyme.com/"
      },
      "geometry": {
        "type": "Point",
        "coordinates": [
          -86.0950892,
          39.9063614
        ]
      },
      "id": "node/5015285069"
    },
    {
      "type": "Feature",
      "properties": {
        "@id": "node/5025348446",
        "shop": "convenience"
      },
      "geometry": {
        "type": "Point",
        "coordinates": [
          -85.8890452,
          41.7026549
        ]
      },
      "id": "node/5025348446"
    },
    {
      "type": "Feature",
      "properties": {
        "@id": "node/5025384112",
        "addr:city": "Auburn",
        "addr:housenumber": "1014",
        "addr:postcode": "46706",
        "addr:state": "IN",
        "addr:street": "West 7th Street",
        "brand": "Save-A-Lot",
        "brand:wikidata": "Q7427972",
        "brand:wikipedia": "en:Save-A-Lot",
        "name": "Save-A-Lot",
        "ref": "8039",
        "shop": "supermarket"
      },
      "geometry": {
        "type": "Point",
        "coordinates": [
          -85.0731682,
          41.3678925
        ]
      },
      "id": "node/5025384112"
    },
    {
      "type": "Feature",
      "properties": {
        "@id": "node/5077239532",
        "addr:city": "Indianapolis",
        "addr:housenumber": "965",
        "addr:postcode": "46229",
        "addr:state": "IN",
        "addr:street": "North German Church Road",
        "brand": "Speedway",
        "brand:wikidata": "Q7575683",
        "brand:wikipedia": "en:Speedway (store)",
        "name": "Speedway",
        "ref": "8057",
        "shop": "convenience"
      },
      "geometry": {
        "type": "Point",
        "coordinates": [
          -85.9705921,
          39.7820945
        ]
      },
      "id": "node/5077239532"
    },
    {
      "type": "Feature",
      "properties": {
        "@id": "node/5161366424",
        "name": "Nobles",
        "shop": "supermarket"
      },
      "geometry": {
        "type": "Point",
        "coordinates": [
          -86.767449,
          37.9639535
        ]
      },
      "id": "node/5161366424"
    },
    {
      "type": "Feature",
      "properties": {
        "@id": "node/5175625998",
        "addr:housenumber": "7201",
        "addr:street": "Maplecrest Road",
        "name": "Marathon",
        "shop": "convenience"
      },
      "geometry": {
        "type": "Point",
        "coordinates": [
          -85.0637685,
          41.1470063
        ]
      },
      "id": "node/5175625998"
    },
    {
      "type": "Feature",
      "properties": {
        "@id": "node/5194524268",
        "addr:city": "St Paul",
        "addr:housenumber": "7880",
        "addr:postcode": "47272",
        "addr:state": "IN",
        "addr:street": "North Old US Hwy 421",
        "name": "Love's",
        "shop": "convenience"
      },
      "geometry": {
        "type": "Point",
        "coordinates": [
          -85.6262664,
          39.4506501
        ]
      },
      "id": "node/5194524268"
    },
    {
      "type": "Feature",
      "properties": {
        "@id": "node/5216696260",
        "brand": "Kroger",
        "brand:wikidata": "Q153417",
        "brand:wikipedia": "en:Kroger",
        "name": "Kroger",
        "shop": "supermarket"
      },
      "geometry": {
        "type": "Point",
        "coordinates": [
          -86.1597453,
          39.6186417
        ]
      },
      "id": "node/5216696260"
    },
    {
      "type": "Feature",
      "properties": {
        "@id": "node/5216696290",
        "brand": "ALDI",
        "brand:wikidata": "Q41171672",
        "brand:wikipedia": "en:Aldi",
        "name": "ALDI",
        "shop": "supermarket"
      },
      "geometry": {
        "type": "Point",
        "coordinates": [
          -86.1593463,
          39.6112442
        ]
      },
      "id": "node/5216696290"
    },
    {
      "type": "Feature",
      "properties": {
        "@id": "node/5218168918",
        "brand": "IGA",
        "brand:wikidata": "Q3146662",
        "brand:wikipedia": "en:IGA (supermarkets)",
        "name": "IGA",
        "shop": "supermarket"
      },
      "geometry": {
        "type": "Point",
        "coordinates": [
          -86.9399404,
          38.3892403
        ]
      },
      "id": "node/5218168918"
    },
    {
      "type": "Feature",
      "properties": {
        "@id": "node/5258880932",
        "name": "Bucks",
        "shop": "supermarket"
      },
      "geometry": {
        "type": "Point",
        "coordinates": [
          -86.3454246,
          38.3746654
        ]
      },
      "id": "node/5258880932"
    },
    {
      "type": "Feature",
      "properties": {
        "@id": "node/5258880934",
        "name": "Ednas Grocery",
        "shop": "supermarket"
      },
      "geometry": {
        "type": "Point",
        "coordinates": [
          -86.3585932,
          38.3726366
        ]
      },
      "id": "node/5258880934"
    },
    {
      "type": "Feature",
      "properties": {
        "@id": "node/5258880937",
        "name": "Marengo Hardware",
        "shop": "supermarket"
      },
      "geometry": {
        "type": "Point",
        "coordinates": [
          -86.343348,
          38.3682399
        ]
      },
      "id": "node/5258880937"
    },
    {
      "type": "Feature",
      "properties": {
        "@id": "node/5265118538",
        "brand": "Aldi",
        "brand:wikidata": "Q125054",
        "brand:wikipedia": "en:Aldi",
        "name": "Aldi",
        "shop": "supermarket"
      },
      "geometry": {
        "type": "Point",
        "coordinates": [
          -85.1348413,
          41.1215818
        ]
      },
      "id": "node/5265118538"
    },
    {
      "type": "Feature",
      "properties": {
        "@id": "node/5266079737",
        "name": "Two Herons Marina",
        "shop": "convenience",
        "website": "https://www.twoheronsmarina.com/"
      },
      "geometry": {
        "type": "Point",
        "coordinates": [
          -86.402006,
          39.069569
        ]
      },
      "id": "node/5266079737"
    },
    {
      "type": "Feature",
      "properties": {
        "@id": "node/5284755023",
        "name": "JayC",
        "shop": "supermarket"
      },