{
  "type": "FeatureCollection",
  "generator": "overpass-ide",
  "copyright": "The data included in this document is from www.openstreetmap.org. The data is made available under ODbL.",
  "timestamp": "2023-03-05T23:51:29Z",
  "features": [
    {
      "type": "Feature",
      "properties": {
        "@id": "node/265347484",
        "brand": "7-Eleven",
        "brand:wikidata": "Q259340",
        "brand:wikipedia": "en:7-Eleven",
        "name": "7-Eleven",
        "shop": "convenience"
      },
      "geometry": {
        "type": "Point",
        "coordinates": [
          -97.0173281,
          42.2358165
        ]
      },
      "id": "node/265347484"
    },
    {
      "type": "Feature",
      "properties": {
        "@id": "node/266310881",
        "amenity": "drinking_water"
      },
      "geometry": {
        "type": "Point",
        "coordinates": [
          12.4934985,
          41.8923773
        ]
      },
      "id": "node/266310881"
    },
    {
      "type": "Feature",
      "properties": {
        "@id": "node/388984003",
        "amenity": "drinking_water",
        "fountain": "nasone"
      },
      "geometry": {
        "type": "Point",
        "coordinates": [
          12.494519,
          41.8877413
        ]
      },
      "id": "node/388984003"
    },
    {
      "type": "Feature",
      "properties": {
        "@id": "node/495113034",
        "amenity": "drinking_water",
        "check_date": "2022-06-22"
      },
      "geometry": {
        "type": "Point",
        "coordinates": [
          12.4934283,
          41.8913309
        ]
      },
      "id": "node/495113034"
    },
    {
      "type": "Feature",
      "properties": {
        "@id": "node/648480447",
        "name": "Werts' GW",
        "shop": "supermarket"
      },
      "geometry": {
        "type": "Point",
        "coordinates": [
          -97.8659552,
          41.569649
        ]
      },
      "id": "node/648480447"
    },
    {
      "type": "Feature",
      "properties": {
        "@id": "node/685457655",
        "amenity": "drinking_water",
        "check_date": "2021-11-01"
      },
      "geometry": {
        "type": "Point",
        "coordinates": [
          12.4867108,
          41.8902623
        ]
      },
      "id": "node/685457655"
    },
    {
      "type": "Feature",
      "properties": {
        "@id": "node/685461877",
        "amenity": "drinking_water",
        "check_date": "2021-11-01"
      },
      "geometry": {
        "type": "Point",
        "coordinates": [
          12.4875779,
          41.8891234
        ]
      },
      "id": "node/685461877"
    },
    {
      "type": "Feature",
      "properties": {
        "@id": "node/685691554",
        "brand": "BP Shop",
        "brand:wikidata": "Q152057",
        "brand:wikipedia": "en:BP",
        "name": "BP Shop",
        "operator": "BP",
        "shop": "convenience"
      },
      "geometry": {
        "type": "Point",
        "coordinates": [
          -96.1401095,
          41.1587757
        ]
      },
      "id": "node/685691554"
    },
    {
      "type": "Feature",
      "properties": {
        "@id": "node/694529733",
        "brand": "Hy-Vee",
        "brand:wikidata": "Q1639719",
        "name": "Hy-Vee",
        "shop": "supermarket"
      },
      "geometry": {
        "type": "Point",
        "coordinates": [
          -96.4292326,
          42.4658934
        ]
      },
      "id": "node/694529733"
    },
    {
      "type": "Feature",
      "properties": {
        "@id": "node/953890053",
        "amenity": "drinking_water"
      },
      "geometry": {
        "type": "Point",
        "coordinates": [
          12.4879526,
          41.8887986
        ]
      },
      "id": "node/953890053"
    },
    {
      "type": "Feature",
      "properties": {
        "@id": "node/953890062",
        "amenity": "drinking_water",
        "check_date": "2021-11-01",
        "man_made": "water_tap"
      },
      "geometry": {
        "type": "Point",
        "coordinates": [
          12.4883755,
          41.890985
        ]
      },
      "id": "node/953890062"
    },
    {
      "type": "Feature",
      "properties": {
        "@id": "node/953909059",
        "amenity": "drinking_water",
        "fountain": "nasone",
        "wikimedia_commons": "File:Nasone via dei santi Quattro,roma,italy 62022.jpeg"
      },
      "geometry": {
        "type": "Point",
        "coordinates": [
          12.4968765,
          41.8889852
        ]
      },
      "id": "node/953909059"
    },
    {
      "type": "Feature",
      "properties": {
        "@id": "node/1170494282",
        "amenity": "drinking_water",
        "fountain": "nasone"
      },
      "geometry": {
        "type": "Point",
        "coordinates": [
          12.4942213,
          41.8900377
        ]
      },
      "id": "node/1170494282"
    },
    {
      "type": "Feature",
      "properties": {
        "@id": "node/1277217483",
        "addr:city": "Stromsburg",
        "addr:state": "NE",
        "name": "Economy Food Store",
        "shop": "supermarket"
      },
      "geometry": {
        "type": "Point",
        "coordinates": [
          -97.5967009,
          41.1136322
        ]
      },
      "id": "node/1277217483"
    },
    {
      "type": "Feature",
      "properties": {
        "@id": "node/1277217652",
        "addr:city": "Stromsburg",
        "addr:state": "NE",
        "name": "Caseys General Store",
        "shop": "convenience"
      },
      "geometry": {
        "type": "Point",
        "coordinates": [
          -97.5978274,
          41.1118377
        ]
      },
      "id": "node/1277217652"
    },
    {
      "type": "Feature",
      "properties": {
        "@id": "node/1323872947",
        "addr:city": "Grand Island",
        "addr:housenumber": "1602",
        "addr:postcode": "68801",
        "addr:street": "West 2nd Street",
        "name": "Super Saver",
        "opening_hours": "24/7",
        "shop": "supermarket"
      },
      "geometry": {
        "type": "Point",
        "coordinates": [
          -98.3556591,
          40.9188351
        ]
      },
      "id": "node/1323872947"
    },
    {
      "type": "Feature",
      "properties": {
        "@id": "node/1533655717",
        "name": "Speedee Mart",
        "shop": "convenience"
      },
      "geometry": {
        "type": "Point",
        "coordinates": [
          -99.086702,
          40.6732516
        ]
      },
      "id": "node/1533655717"
    },
    {
      "type": "Feature",
      "properties": {
        "@id": "node/1576450689",
        "addr:city": "Aurora",
        "addr:state": "NE",
        "is_in:city": "Aurora",
        "is_in:state": "Nebraska",
        "is_in:state_code": "NE",
        "name": "Pump & Pantry",
        "shop": "convenience"
      },
      "geometry": {
        "type": "Point",
        "coordinates": [
          -98.0011792,
          40.87193
        ]
      },
      "id": "node/1576450689"
    },
    {
      "type": "Feature",
      "properties": {
        "@id": "node/1576450895",
        "shop": "convenience"
      },
      "geometry": {
        "type": "Point",
        "coordinates": [
          -97.8844347,
          40.8787776
        ]
      },
      "id": "node/1576450895"
    },
    {
      "type": "Feature",
      "properties": {
        "@id": "node/1579230990",
        "name": "K & K Convenience Store",
        "shop": "convenience"
      },
      "geometry": {
        "type": "Point",
        "coordinates": [
          -98.7316077,
          40.7815202
        ]
      },
      "id": "node/1579230990"
    },
    {
      "type": "Feature",
      "properties": {
        "@id": "node/1579230992",
        "shop": "convenience"
      },
      "geometry": {
        "type": "Point",
        "coordinates": [
          -98.8481117,
          40.7492776
        ]
      },
      "id": "node/1579230992"
    },
    {
      "type": "Feature",
      "properties": {
        "@id": "node/1630322325",
        "addr:city": "Ord",
        "addr:housenumber": "922",
        "addr:postcode": "68862",
        "addr:state": "NE",
        "addr:street": "North 28th Street",
        "name": "Speeds Apple Market",
        "shop": "supermarket"
      },
      "geometry": {
        "type": "Point",
        "coordinates": [
          -98.9431106,
          41.6116199
        ]
      },
      "id": "node/1630322325"
    },
    {
      "type": "Feature",
      "properties": {
        "@id": "node/1630665835",
        "addr:city": "Kearney",
        "addr:housenumber": "7",
        "addr:postcode": "68847",
        "addr:street": "West 25th Street",
        "name": "Apple Market",
        "opening_hours": "Mo-Fr 08:00-18:00; Sa 09:00-15:30; Su 11:00-14:00",
        "shop": "supermarket"
      },
      "geometry": {
        "type": "Point",
        "coordinates": [
          -99.0822923,
          40.7011545
        ]
      },
      "id": "node/1630665835"
    },
    {
      "type": "Feature",
      "properties": {
        "@id": "node/1656861982",
        "amenity": "drinking_water",
        "check_date": "2021-11-01",
        "man_made": "water_tap"
      },
      "geometry": {
        "type": "Point",
        "coordinates": [
          12.4883955,
          41.8907173
        ]
      },
      "id": "node/1656861982"
    },
    {
      "type": "Feature",
      "properties": {
        "@id": "node/1709280191",
        "amenity": "drinking_water",
        "check_date": "2021-11-02",
        "fountain": "bottle_refill",
        "name:ru": "вода с газом и без. бесплатная"
      },
      "geometry": {
        "type": "Point",
        "coordinates": [
          12.4911794,
          41.891319
        ]
      },
      "id": "node/1709280191"
    },
    {
      "type": "Feature",
      "properties": {
        "@id": "node/1887703014",
        "name": "Malcolm General Store",
        "shop": "convenience"
      },
      "geometry": {
        "type": "Point",
        "coordinates": [
          -96.8654805,
          40.9075242
        ]
      },
      "id": "node/1887703014"
    },
    {
      "type": "Feature",
      "properties": {
        "@id": "node/1925781456",
        "name": "Super Saver",
        "shop": "supermarket"
      },
      "geometry": {
        "type": "Point",
        "coordinates": [
          -96.65539,
          40.8148258
        ]
      },
      "id": "node/1925781456"
    },
    {
      "type": "Feature",
      "properties": {
        "@id": "node/1957641420",
        "amenity": "fuel",
        "brand": "Kum & Go",
        "brand:wikidata": "Q6443340",
        "brand:wikipedia": "en:Kum & Go",
        "name": "Kum and Go",
        "shop": "convenience",
        "source": "bing"
      },
      "geometry": {
        "type": "Point",
        "coordinates": [
          -96.0804983,
          41.1757094
        ]
      },
      "id": "node/1957641420"
    },
    {
      "type": "Feature",
      "properties": {
        "@id": "node/2007469332",
        "alt_name": "Dino Mart",
        "amenity": "fuel",
        "brand": "Sinclair",
        "brand:wikidata": "Q1290900",
        "brand:wikipedia": "en:Sinclair Oil Corporation",
        "fuel:octane_87": "yes",
        "fuel:octane_93": "yes",
        "name": "Sinclair",
        "shop": "convenience",
        "source": "bing"
      },
      "geometry": {
        "type": "Point",
        "coordinates": [
          -95.9070362,
          41.1363076
        ]
      },
      "id": "node/2007469332"
    },
    {
      "type": "Feature",
      "properties": {
        "@id": "node/2016006659",
        "amenity": "fuel",
        "name": "Speedy Gas and Shop",
        "shop": "convenience",
        "source": "bing"
      },
      "geometry": {
        "type": "Point",
        "coordinates": [
          -95.9519448,
          41.1193881
        ]
      },
      "id": "node/2016006659"
    },
    {
      "type": "Feature",
      "properties": {
        "@id": "node/2059110303",
        "addr:city": "Lincoln",
        "addr:housenumber": "5757",
        "addr:postcode": "68526",
        "addr:state": "NE",
        "addr:street": "South 85th Street",
        "name": "Roc's Stop & Shop",
        "phone": "402-488-5757",
        "shop": "convenience",
        "source": "Bing"
      },
      "geometry": {
        "type": "Point",
        "coordinates": [
          -96.6053694,
          40.7543041
        ]
      },
      "id": "node/2059110303"
    },
    {
      "type": "Feature",
      "properties": {
        "@id": "node/2085470299",
        "amenity": "marketplace",
        "name": "Fallbrook Farmers Market",
        "source": "http://fallbrookusa.com/town-center/farmers-market/",
        "website": "http://fallbrookfarmersmarket.com/"
      },
      "geometry": {
        "type": "Point",
        "coordinates": [
          -96.7279301,
          40.8772667
        ]
      },
      "id": "node/2085470299"
    },
    {
      "type": "Feature",
      "properties": {
        "@id": "node/2093714683",
        "name": "Russ's Market",
        "shop": "supermarket"
      },
      "geometry": {
        "type": "Point",
        "coordinates": [
          -96.6962182,
          40.7975677
        ]
      },
      "id": "node/2093714683"
    },
    {
      "type": "Feature",
      "properties": {
        "@id": "node/2106536264",
        "name": "Casey's General Store",
        "shop": "convenience"
      },
      "geometry": {
        "type": "Point",
        "coordinates": [
          -96.5056652,
          40.7105514
        ]
      },
      "id": "node/2106536264"
    },
    {
      "type": "Feature",
      "properties": {
        "@id": "node/2147396137",
        "fair_trade": "yes",
        "name": "Open Harvest Food Co-Op",
        "organic": "only",
        "shop": "supermarket",
        "source": "bing"
      },
      "geometry": {
        "type": "Point",
        "coordinates": [
          -96.6979674,
          40.7922126
        ]
      },
      "id": "node/2147396137"
    },
    {
      "type": "Feature",
      "properties": {
        "@id": "node/2179474470",
        "addr:housenumber": "2101",
        "addr:postcode": "68401",
        "addr:street": "South 11th Street",
        "name": "Walmart Grocery",
        "shop": "supermarket"
      },
      "geometry": {
        "type": "Point",
        "coordinates": [
          -95.8559782,
          40.6584025
        ]
      },
      "id": "node/2179474470"
    },
    {
      "type": "Feature",
      "properties": {
        "@id": "node/2190671961",
        "name": "Shur Fine",
        "shop": "supermarket",
        "source": "knowledge"
      },
      "geometry": {
        "type": "Point",
        "coordinates": [
          -96.7035354,
          40.7804077
        ]
      },
      "id": "node/2190671961"
    },
    {
      "type": "Feature",
      "properties": {
        "@id": "node/2195224884",
        "addr:housenumber": "5700",
        "addr:street": "West  Raymond Road",
        "name": "Toni's Corner",
        "phone": "402-783-3733",
        "shop": "convenience",
        "source": "bing"
      },
      "geometry": {
        "type": "Point",
        "coordinates": [
          -96.7961351,
          40.959235
        ]
      },
      "id": "node/2195224884"
    },
    {
      "type": "Feature",
      "properties": {
        "@id": "node/2207591697",
        "addr:housenumber": "641",
        "addr:postcode": "68301",
        "addr:street": "Main Street",
        "name": "Adams Super Foods",
        "phone": "402- 988-2009",
        "shop": "supermarket",
        "source": "survey",
        "website": "http://www.facebook.com/pages/Adams-Super-Foods/145559022132672"
      },
      "geometry": {
        "type": "Point",
        "coordinates": [
          -96.5092505,
          40.4597219
        ]
      },
      "id": "node/2207591697"
    },
    {
      "type": "Feature",
      "properties": {
        "@id": "node/2207613395",
        "addr:city": "Tecumseh",
        "addr:housenumber": "381",
        "addr:state": "NE",
        "addr:street": "Clay Street",
        "is_in:city": "Tecumseh",
        "is_in:state": "Nebraska",
        "name": "Tecumseh Central Market",
        "phone": "402-335-3660",
        "shop": "supermarket"
      },
      "geometry": {
        "type": "Point",
        "coordinates": [
          -96.1945603,
          40.3665708
        ]
      },
      "id": "node/2207613395"
    },
    {
      "type": "Feature",
      "properties": {
        "@id": "node/2207616118",
        "addr:city": "Tecumseh",
        "addr:housenumber": "120",
        "addr:state": "NE",
        "addr:street": "North 12th Street",
        "brand": "Casey's General Store",
        "is_in:state": "Nebraska",
        "name": "Casey's General Store",
        "shop": "convenience",
        "source": "survey"
      },
      "geometry": {
        "type": "Point",
        "coordinates": [
          -96.1812136,
          40.368641
        ]
      },
      "id": "node/2207616118"
    },
    {
      "type": "Feature",
      "properties": {
        "@id": "node/2207623604",
        "addr:housenumber": "371",
        "addr:postcode": "68446",
        "addr:street": "5th Street",
        "name": "Supermarket For Sale",
        "phone": "402-269-2125",
        "shop": "supermarket",
        "source": "survey"
      },
      "geometry": {
        "type": "Point",
        "coordinates": [
          -96.1854086,
          40.657039
        ]
      },
      "id": "node/2207623604"
    },
    {
      "type": "Feature",
      "properties": {
        "@id": "node/2207626802",
        "addr:housenumber": "535",
        "addr:postcode": "68446",
        "addr:street": "Park Street",
        "name": "B & B Pump 'n Go",
        "phone": "402-269-2717",
        "shop": "convenience",
        "source": "survey"
      },
      "geometry": {
        "type": "Point",
        "coordinates": [
          -96.1794045,
          40.657449
        ]
      },
      "id": "node/2207626802"
    },
    {
      "type": "Feature",
      "properties": {
        "@id": "node/2207629601",
        "addr:housenumber": "625",
        "addr:postcode": "68454",
        "addr:street": "9th Street",
        "name": "Unadilla Mart",
        "phone": "402-828-3335",
        "shop": "convenience",
        "source": "survey"
      },
      "geometry": {
        "type": "Point",
        "coordinates": [
          -96.2694905,
          40.6849606
        ]
      },
      "id": "node/2207629601"
    },
    {
      "type": "Feature",
      "properties": {
        "@id": "node/2207631957",
        "addr:housenumber": "1000",
        "addr:postcode": "68418",
        "addr:street": "I Street",
        "brand": "Casey's General Store",
        "brand:wikidata": "Q2940968",
        "name": "Casey's General Store",
        "phone": "402-780-5767",
        "shop": "convenience",
        "source": "survey"
      },
      "geometry": {
        "type": "Point",
        "coordinates": [
          -96.3961015,
          40.7099123
        ]
      },
      "id": "node/2207631957"
    },
    {
      "type": "Feature",
      "properties": {
        "@id": "node/2207764565",
        "addr:housenumber": "204",
        "addr:postcode": "68372",
        "addr:street": "West 3rd Street",
        "name": "Farmer's Cooperative",
        "phone": "402-791-5837",
        "shop": "convenience",
        "source": "survey"
      },
      "geometry": {
        "type": "Point",
        "coordinates": [
          -96.6077425,
          40.5328075
        ]
      },
      "id": "node/2207764565"
    },
    {
      "type": "Feature",
      "properties": {
        "@id": "node/2227939185",
        "addr:city": "Seward",
        "addr:state": "NE",
        "is_in:city": "Seward",
        "is_in:state": "Nebraska",
        "name": "Gas N Snak",
        "shop": "convenience",
        "source": "survey"
      },
      "geometry": {
        "type": "Point",
        "coordinates": [
          -97.0988555,
          40.9084078
        ]
      },
      "id": "node/2227939185"
    },
    {
      "type": "Feature",
      "properties": {
        "@id": "node/2263739112",
        "addr:housenumber": "545",
        "addr:postcode": "68347",
        "addr:street": "South 4th Street",
        "name": "Eagle Grocery",
        "note": "supermarket? Grocery?",
        "opening_hours": "08:00-19:00",
        "phone": "402-781-2325",
        "shop": "supermarket",
        "source": "survey",
        "website": "http://www.facebook.com/pages/Lous-Eagle-Grocery/108199619244433"
      },
      "geometry": {
        "type": "Point",
        "coordinates": [
          -96.4306527,
          40.8158354
        ]
      },
      "id": "node/2263739112"
    },
    {
      "type": "Feature",
      "properties": {
        "@id": "node/2281730594",
        "brand": "Casey's General Store",
        "brand:wikidata": "Q2940968",
        "brand:wikipedia": "en:Casey's",
        "name": "Casey's General Store",
        "shop": "convenience",
        "source": "survey"
      },
      "geometry": {
        "type": "Point",
        "coordinates": [
          -96.74607,
          40.2773954
        ]
      },
      "id": "node/2281730594"
    },
    {
      "type": "Feature",
      "properties": {
        "@id": "node/2281730595",
        "name": "BP",
        "note": "permanently closed",
        "shop": "convenience",
        "source": "survey"
      },
      "geometry": {
        "type": "Point",
        "coordinates": [
          -96.7461822,
          40.2793518
        ]
      },
      "id": "node/2281730595"
    },
    {
      "type": "Feature",
      "properties": {
        "@id": "node/2281741360",
        "brand": "Casey's General Store",
        "brand:wikidata": "Q2940968",
        "brand:wikipedia": "en:Casey's",
        "name": "Casey's General Store",
        "shop": "convenience",
        "source": "survey"
      },
      "geometry": {
        "type": "Point",
        "coordinates": [
          -96.7730745,
          40.2664242
        ]
      },
      "id": "node/2281741360"
    },
    {
      "type": "Feature",
      "properties": {
        "@id": "node/2282728604",
        "shop": "convenience",
        "source": "bing"
      },
      "geometry": {
        "type": "Point",
        "coordinates": [
          -96.7457981,
          40.3419595
        ]
      },
      "id": "node/2282728604"
    },
    {
      "type": "Feature",
      "properties": {
        "@id": "node/2282783191",
        "amenity": "fuel",
        "name": "Arbor Mart",
        "shop": "convenience",
        "source": "bing"
      },
      "geometry": {
        "type": "Point",
        "coordinates": [
          -95.8623887,
          40.676486
        ]
      },
      "id": "node/2282783191"
    },
    {
      "type": "Feature",
      "properties": {
        "@id": "node/2293202868",
        "name": "Pump & Pantry",
        "shop": "convenience"
      },
      "geometry": {
        "type": "Point",
        "coordinates": [
          -96.7246964,
          40.8130582
        ]
      },
      "id": "node/2293202868"
    },
    {
      "type": "Feature",
      "properties": {
        "@id": "node/2294941730",
        "addr:city": "Lincoln",
        "addr:housenumber": "1111",
        "addr:postcode": "68503",
        "addr:state": "NE",
        "addr:street": "North 27th Street",
        "name": "New Market",
        "phone": "+1-402-476-1119",
        "shop": "supermarket"
      },
      "geometry": {
        "type": "Point",
        "coordinates": [
          -96.6825942,
          40.8248525
        ]
      },
      "id": "node/2294941730"
    },
    {
      "type": "Feature",
      "properties": {
        "@id": "node/2523730978",
        "name": "Arends Family Foods",
        "operator": "Shurfine",
        "shop": "supermarket"
      },
      "geometry": {
        "type": "Point",
        "coordinates": [
          -97.723092,
          40.1410434
        ]
      },
      "id": "node/2523730978"
    },
    {
      "type": "Feature",
      "properties": {
        "@id": "node/2535915664",
        "name": "Flying J",
        "shop": "convenience"
      },
      "geometry": {
        "type": "Point",
        "coordinates": [
          -96.2548823,
          41.0916471
        ]
      },
      "id": "node/2535915664"
    },
    {
      "type": "Feature",
      "properties": {
        "@id": "node/2537299968",
        "amenity": "drinking_water",
        "fountain": "nasone",
        "indoor": "no",
        "wikimedia_commons": "File:Nasone via mecenate, Roma, Italia Jun 30, 2022 06-19-16 PM.jpeg"
      },
      "geometry": {
        "type": "Point",
        "coordinates": [
          12.4987211,
          41.8911676
        ]
      },
      "id": "node/2537299968"
    },
    {
      "type": "Feature",
      "properties": {
        "@id": "node/2540294234",
        "contact:phone": "(402) 494-6288",
        "name": "Seoul Oriental Food Store",
        "shop": "supermarket"
      },
      "geometry": {
        "type": "Point",
        "coordinates": [
          -96.4123988,
          42.4777417
        ]
      },
      "id": "node/2540294234"
    },
    {
      "type": "Feature",
      "properties": {
        "@id": "node/2631950061",
        "name": "Emmetts Foodtown",
        "shop": "supermarket",
        "source": "survey"
      },
      "geometry": {
        "type": "Point",
        "coordinates": [
          -97.2231262,
          41.9502339
        ]
      },
      "id": "node/2631950061"
    },
    {
      "type": "Feature",
      "properties": {
        "@id": "node/2643086367",
        "brand": "Trader Joe's",
        "brand:wikidata": "Q688825",
        "brand:wikipedia": "en:Trader Joe's",
        "name": "Trader Joe's",
        "opening_hours": "Mo-Su 08:00-21:00",
        "phone": "402-328-0120",
        "shop": "supermarket",
        "website": "https://www.traderjoes.com/"
      },
      "geometry": {
        "type": "Point",
        "coordinates": [
          -96.6747957,
          40.7423995
        ]
      },
      "id": "node/2643086367"
    },
    {
      "type": "Feature",
      "properties": {
        "@id": "node/2643227331",
        "brand": "Hy-Vee",
        "brand:wikidata": "Q1639719",
        "brand:wikipedia": "en:Hy-Vee",
        "name": "Hy-Vee",
        "shop": "supermarket"
      },
      "geometry": {
        "type": "Point",
        "coordinates": [
          -96.6482902,
          40.8149142
        ]
      },
      "id": "node/2643227331"
    },
    {
      "type": "Feature",
      "properties": {
        "@id": "node/2643227332",
        "brand": "Hy-Vee",
        "brand:wikidata": "Q1639719",
        "brand:wikipedia": "en:Hy-Vee",
        "name": "Hy-Vee",
        "shop": "supermarket"
      },
      "geometry": {
        "type": "Point",
        "coordinates": [
          -96.6482543,
          40.8152091
        ]
      },
      "id": "node/2643227332"
    },
    {
      "type": "Feature",
      "properties": {
        "@id": "node/2650579829",
        "addr:city": "Lincoln",
        "addr:country": "US",
        "addr:housenumber": "1241",
        "addr:postcode": "68502",
        "addr:state": "NE",
        "addr:street": "South 14th Street",
        "name": "Transformations Thrift Store",
        "opening_hours": "Mo-Fr 10:00-18:00; Sa 10:00-15:00; Su off",
        "phone": "+1-531-500-3297",
        "shop": "convenience",
        "source": "facebook",
        "website": "https://transformationsthriftstore.org/"
      },
      "geometry": {
        "type": "Point",
        "coordinates": [
          -96.7014686,
          40.8005309
        ]
      },
      "id": "node/2650579829"
    },
    {
      "type": "Feature",
      "properties": {
        "@id": "node/2661006525",
        "shop": "convenience",
        "source": "Bing"
      },
      "geometry": {
        "type": "Point",
        "coordinates": [
          -99.6374623,
          41.4013897
        ]
      },
      "id": "node/2661006525"
    },
    {
      "type": "Feature",
      "properties": {
        "@id": "node/2661006597",
        "shop": "convenience",
        "source": "Bing"
      },
      "geometry": {
        "type": "Point",
        "coordinates": [
          -99.6193466,
          41.4021039
        ]
      },
      "id": "node/2661006597"
    },
    {
      "type": "Feature",
      "properties": {
        "@id": "node/2661006617",
        "shop": "convenience",
        "source": "Bing"
      },
      "geometry": {
        "type": "Point",
        "coordinates": [
          -99.637524,
          41.4020637
        ]
      },
      "id": "node/2661006617"
    },
    {
      "type": "Feature",
      "properties": {
        "@id": "node/2661006658",
        "shop": "convenience",
        "source": "Bing"
      },
      "geometry": {
        "type": "Point",
        "coordinates": [
          -99.63132,
          41.4021341
        ]
      },
      "id": "node/2661006658"
    },
    {
      "type": "Feature",
      "properties": {
        "@id": "node/2662473659",
        "shop": "convenience",
        "source": "Bing"
      },
      "geometry": {
        "type": "Point",
        "coordinates": [
          -96.761961,
          40.2654774
        ]
      },
      "id": "node/2662473659"
    },
    {
      "type": "Feature",
      "properties": {
        "@id": "node/2666520072",
        "shop": "convenience",
        "source": "Bing"
      },
      "geometry": {
        "type": "Point",
        "coordinates": [
          -96.7344214,
          40.2662514
        ]
      },
      "id": "node/2666520072"
    },
    {
      "type": "Feature",
      "properties": {
        "@id": "node/2666520073",
        "shop": "convenience",
        "source": "Bing"
      },
      "geometry": {
        "type": "Point",
        "coordinates": [
          -96.7327208,
          40.2661081
        ]
      },
      "id": "node/2666520073"
    },
    {
      "type": "Feature",
      "properties": {
        "@id": "node/2666673891",
        "name": "Sun Mart",
        "shop": "supermarket",
        "source": "Bing"
      },
      "geometry": {
        "type": "Point",
        "coordinates": [
          -96.7285715,
          40.265093
        ]
      },
      "id": "node/2666673891"
    },
    {
      "type": "Feature",
      "properties": {
        "@id": "node/2666673930",
        "name": "Speedee Mart",
        "shop": "convenience",
        "source": "Bing"
      },
      "geometry": {
        "type": "Point",
        "coordinates": [
          -96.7423768,
          40.2661818
        ]
      },
      "id": "node/2666673930"
    },
    {
      "type": "Feature",
      "properties": {
        "@id": "node/2668218647",
        "brand": "Casey's General Store",
        "brand:wikidata": "Q2940968",
        "brand:wikipedia": "en:Casey's General Stores",
        "name": "Casey's General Store",
        "note": "building demolished",
        "shop": "convenience",
        "source": "Bing"
      },
      "geometry": {
        "type": "Point",
        "coordinates": [
          -96.7452487,
          40.2485526
        ]
      },
      "id": "node/2668218647"
    },
    {
      "type": "Feature",
      "properties": {
        "@id": "node/2720027848",
        "addr:city": "Valparaiso",
        "addr:country": "US",
        "addr:housenumber": "308",
        "addr:postcode": "68065",
        "addr:state": "NE",
        "addr:street": "West 2nd Street",
        "name": "Val-Market",
        "phone": "402-784-3501",
        "shop": "supermarket"
      },
      "geometry": {
        "type": "Point",
        "coordinates": [
          -96.8350322,
          41.0815803
        ]
      },
      "id": "node/2720027848"
    },
    {
      "type": "Feature",
      "properties": {
        "@id": "node/2727445374",
        "addr:city": "Omaha",
        "addr:housenumber": "8409",
        "addr:postcode": "68124",
        "addr:street": "West Center Road",
        "name": "Akin's Natural Foods Market",
        "phone": "+1-402-397-5488",
        "shop": "supermarket",
        "website": "http://www.akins.com"
      },
      "geometry": {
        "type": "Point",
        "coordinates": [
          -96.04357,
          41.2334185
        ]
      },
      "id": "node/2727445374"
    },
    {
      "type": "Feature",
      "properties": {
        "@id": "node/2805299799",
        "addr:city": "Lyons",
        "addr:housenumber": "613",
        "addr:postcode": "68038",
        "addr:state": "NE",
        "addr:street": "Main Street",
        "name": "Lyons Mini Mart",
        "shop": "convenience"
      },
      "geometry": {
        "type": "Point",
        "coordinates": [
          -96.4712611,
          41.9379103
        ]
      },
      "id": "node/2805299799"
    },
    {
      "type": "Feature",
      "properties": {
        "@id": "node/2939067702",
        "name": "Main Street Market",
        "shop": "supermarket"
      },
      "geometry": {
        "type": "Point",
        "coordinates": [
          -103.667401,
          41.8547819
        ]
      },
      "id": "node/2939067702"
    },
    {
      "type": "Feature",
      "properties": {
        "@id": "node/3117294436",
        "name": "Cenex",
        "shop": "convenience",
        "source": "Bing"
      },
      "geometry": {
        "type": "Point",
        "coordinates": [
          -102.8975671,
          42.0962351
        ]
      },
      "id": "node/3117294436"
    },
    {
      "type": "Feature",
      "properties": {
        "@id": "node/3117705333",
        "shop": "supermarket"
      },
      "geometry": {
        "type": "Point",
        "coordinates": [
          -97.6939834,
          41.6993249
        ]
      },
      "id": "node/3117705333"
    },
    {
      "type": "Feature",
      "properties": {
        "@id": "node/3119806143",
        "shop": "convenience",
        "source": "Bing"
      },
      "geometry": {
        "type": "Point",
        "coordinates": [
          -102.8720382,
          42.1190899
        ]
      },
      "id": "node/3119806143"
    },
    {
      "type": "Feature",
      "properties": {
        "@id": "node/3119818107",
        "name": "Cenex",
        "shop": "convenience"
      },
      "geometry": {
        "type": "Point",
        "coordinates": [
          -102.8580557,
          42.097846
        ]
      },
      "id": "node/3119818107"
    },
    {
      "type": "Feature",
      "properties": {
        "@id": "node/3119862473",
        "name": "The Grocery Kart",
        "shop": "supermarket",
        "source": "Bing"
      },
      "geometry": {
        "type": "Point",
        "coordinates": [
          -102.8688839,
          42.096437
        ]
      },
      "id": "node/3119862473"
    },
    {
      "type": "Feature",
      "properties": {
        "@id": "node/3119862491",
        "name": "Yes Way",
        "shop": "convenience",
        "source": "Bing"
      },
      "geometry": {
        "type": "Point",
        "coordinates": [
          -102.863331,
          42.0975814
        ]
      },
      "id": "node/3119862491"
    },
    {
      "type": "Feature",
      "properties": {
        "@id": "node/3119908979",
        "addr:postcode": "69301",
        "addr:street": "West 3rd Street",
        "alt_name": "J&J Pit Stop",
        "name": "J & J Pit Stop",
        "shop": "convenience"
      },
      "geometry": {
        "type": "Point",
        "coordinates": [
          -102.8901646,
          42.0970201
        ]
      },
      "id": "node/3119908979"
    },
    {
      "type": "Feature",
      "properties": {
        "@id": "node/3119908980",
        "name": "Git 'N Split",
        "shop": "convenience",
        "source": "Bing"
      },
      "geometry": {
        "type": "Point",
        "coordinates": [
          -102.8784674,
          42.0965465
        ]
      },
      "id": "node/3119908980"
    },
    {
      "type": "Feature",
      "properties": {
        "@id": "node/3119908986",
        "name": "Cenex Convenience Mart",
        "shop": "convenience",
        "source": "Bing"
      },
      "geometry": {
        "type": "Point",
        "coordinates": [
          -102.8802806,
          42.0973127
        ]
      },
      "id": "node/3119908986"
    },
    {
      "type": "Feature",
      "properties": {
        "@id": "node/3148258772",
        "name": "Phillips 66",
        "operator": "Melichar 66 Services",
        "shop": "convenience",
        "source": "Bing"
      },
      "geometry": {
        "type": "Point",
        "coordinates": [
          -96.7089094,
          40.8150493
        ]
      },
      "id": "node/3148258772"
    },
    {
      "type": "Feature",
      "properties": {
        "@id": "node/3197733671",
        "amenity": "fuel",
        "fuel:octane_87": "yes",
        "fuel:octane_91": "yes",
        "name": "Casey's",
        "opening_hours": "24/7",
        "shop": "convenience",
        "wheelchair": "yes"
      },
      "geometry": {
        "type": "Point",
        "coordinates": [
          -95.958062,
          41.1383175
        ]
      },
      "id": "node/3197733671"
    },
    {
      "type": "Feature",
      "properties": {
        "@id": "node/3204137465",
        "brand": "Casey's General Store",
        "brand:wikidata": "Q2940968",
        "brand:wikipedia": "en:Casey's",
        "name": "Casey's General Store",
        "shop": "convenience"
      },
      "geometry": {
        "type": "Point",
        "coordinates": [
          -99.0839044,
          40.6728379
        ]
      },
      "id": "node/3204137465"
    },
    {
      "type": "Feature",
      "properties": {
        "@id": "node/3204156885",
        "addr:city": "Kearney",
        "addr:housenumber": "1212",
        "addr:postcode": "68847",
        "addr:state": "NE",
        "addr:street": "East 56th Street",
        "name": "Pump & Pantry",
        "shop": "convenience"
      },
      "geometry": {
        "type": "Point",
        "coordinates": [
          -99.0654632,
          40.7289399
        ]
      },
      "id": "node/3204156885"
    },
    {
      "type": "Feature",
      "properties": {
        "@id": "node/3204160197",
        "shop": "convenience"
      },
      "geometry": {
        "type": "Point",
        "coordinates": [
          -99.0840927,
          40.7504557
        ]
      },
      "id": "node/3204160197"
    },
    {
      "type": "Feature",
      "properties": {
        "@id": "node/3222511049",
        "name": "Go! Convenience",
        "shop": "convenience"
      },
      "geometry": {
        "type": "Point",
        "coordinates": [
          -96.2514996,
          41.0991786
        ]
      },
      "id": "node/3222511049"
    },
    {
      "type": "Feature",
      "properties": {
        "@id": "node/3300580134",
        "shop": "convenience"
      },
      "geometry": {
        "type": "Point",
        "coordinates": [
          -98.0511173,
          40.5251605
        ]
      },
      "id": "node/3300580134"
    },
    {
      "type": "Feature",
      "properties": {
        "@id": "node/3301980003",
        "name": "Decker's Food Center",
        "shop": "supermarket",
        "source": "Bing"
      },
      "geometry": {
        "type": "Point",
        "coordinates": [
          -95.7303168,
          40.4816802
        ]
      },
      "id": "node/3301980003"
    },
    {
      "type": "Feature",
      "properties": {
        "@id": "node/3424295101",
        "brand": "Family Fare",
        "brand:wikidata": "Q19868045",
        "brand:wikipedia": "en:Family Fare",
        "name": "Family Fare",
        "shop": "supermarket",
        "wheelchair": "yes"
      },
      "geometry": {
        "type": "Point",
        "coordinates": [
          -95.9136723,
          41.1416797
        ]
      },
      "id": "node/3424295101"
    },
    {
      "type": "Feature",
      "properties": {
        "@id": "node/3428019741",
        "addr:city": "Imperial",
        "addr:housenumber": "202",
        "addr:postcode": "69033",
        "addr:state": "NE",
        "addr:street": "Broadway Street",
        "name": "Frenchman Valley Farmers Co-Op",
        "shop": "supermarket"
      },
      "geometry": {
        "type": "Point",
        "coordinates": [
          -101.6425638,
          40.5132923
        ]
      },
      "id": "node/3428019741"
    },
    {
      "type": "Feature",
      "properties": {
        "@id": "node/3487988725",
        "addr:city": "Lincoln",
        "addr:country": "US",
        "addr:county": "Lancaster, NE",
        "addr:housenumber": "8350",
        "addr:postcode": "68510",
        "addr:state": "NE",
        "addr:street": "O Street",
        "brand": "Aldi",
        "brand:wikidata": "Q125054",
        "brand:wikipedia": "en:Aldi",
        "name": "Aldi",
        "opening_hours": "Mo-Su 09:00-20:00",
        "shop": "supermarket",
        "website": "https://www.aldi.us/"
      },
      "geometry": {
        "type": "Point",
        "coordinates": [
          -96.6065222,
          40.8141945
        ]
      },
      "id": "node/3487988725"
    },
    {
      "type": "Feature",
      "properties": {
        "@id": "node/3507844769",
        "addr:city": "Bellevue",
        "addr:housenumber": "3614",
        "addr:street": "Twin Creek Drive",
        "name": "Baker's",
        "opening_hours": "Mo-Su 06:00-01:00",
        "operator": "Kroger",
        "payment:coins": "yes",
        "payment:mastercard": "yes",
        "payment:notes": "yes",
        "payment:visa": "yes",
        "payment:visa_debit": "yes",
        "shop": "supermarket",
        "toilets:wheelchair": "yes",
        "wheelchair": "yes"
      },
      "geometry": {
        "type": "Point",
        "coordinates": [
          -95.9690185,
          41.1423462
        ]
      },
      "id": "node/3507844769"
    },
    {
      "type": "Feature",
      "properties": {
        "@id": "node/3520911317",
        "addr:city": "Bellevue",
        "addr:country": "US",
        "addr:county": "Sarpy, NE",
        "addr:housenumber": "2112",
        "addr:postcode": "68123",
        "addr:state": "NE",
        "addr:street": "Cornhusker Road",
        "brand": "Aldi",
        "brand:wikidata": "Q125054",
        "brand:wikipedia": "en:Aldi",
        "name": "Aldi",
        "opening_hours": "Mo-Su 09:00-20:00",
        "payment:american_express": "yes",
        "payment:coins": "yes",
        "payment:discover_card": "yes",
        "payment:mastercard": "yes",
        "payment:notes": "yes",
        "payment:visa": "yes",
        "phone": "+1-402-515-9684",
        "shop": "supermarket",
        "website": "https://www.aldi.us/",
        "wheelchair": "yes"
      },
      "geometry": {
        "type": "Point",
        "coordinates": [
          -95.9434272,
          41.1599304
        ]
      },
      "id": "node/3520911317"
    },
    {
      "type": "Feature",
      "properties": {
        "@id": "node/3520923079",
        "amenity": "fuel",
        "brand": "Kwik Shop",
        "brand:wikidata": "Q6450417",
        "brand:wikipedia": "en:Kwik Shop",
        "fuel:e10": "yes",
        "name": "KwikShop",
        "opening_hours": "24/7",
        "operator": "Kroger",
        "shop": "convenience"
      },
      "geometry": {
        "type": "Point",
        "coordinates": [
          -95.941665,
          41.1178194
        ]
      },
      "id": "node/3520923079"
    },
    {
      "type": "Feature",
      "properties": {
        "@id": "node/3665519267",
        "name": "Town & Country Market",
        "shop": "supermarket"
      },
      "geometry": {
        "type": "Point",
        "coordinates": [
          -100.5157079,
          40.6303753
        ]
      },
      "id": "node/3665519267"
    },
    {
      "type": "Feature",
      "properties": {
        "@id": "node/3706297276",
        "amenity": "fuel",
        "fuel:octane_80": "yes",
        "fuel:octane_95": "yes",
        "name": "Baker's",
        "opening_hours": "24/7",
        "shop": "convenience",
        "wheelchair": "yes"
      },
      "geometry": {
        "type": "Point",
        "coordinates": [
          -95.9690165,
          41.1411861
        ]
      },
      "id": "node/3706297276"
    },
    {
      "type": "Feature",
      "properties": {
        "@id": "node/3706328526",
        "name": "Commisary",
        "opening_hours": "Su 10:00-17:00; Mo-We 09:00-18:00; Th-Sa 08:00-19:00",
        "shop": "supermarket"
      },
      "geometry": {
        "type": "Point",
        "coordinates": [
          -95.922287,
          41.1183425
        ]
      },
      "id": "node/3706328526"
    },
    {
      "type": "Feature",
      "properties": {
        "@id": "node/3744998425",
        "name": "Family Fare Supermarkets",
        "shop": "supermarket"
      },
      "geometry": {
        "type": "Point",
        "coordinates": [
          -96.0461941,
          41.1760137
        ]
      },
      "id": "node/3744998425"
    },
    {
      "type": "Feature",
      "properties": {
        "@id": "node/3785014818",
        "amenity": "drinking_water"
      },
      "geometry": {
        "type": "Point",
        "coordinates": [
          12.4934389,
          41.8873381
        ]
      },
      "id": "node/3785014818"
    },
    {
      "type": "Feature",
      "properties": {
        "@id": "node/3789936492",
        "name": "Zach Oil & Propane",
        "shop": "convenience",
        "source": "Bing"
      },
      "geometry": {
        "type": "Point",
        "coordinates": [
          -97.0181458,
          42.2268318
        ]
      },
      "id": "node/3789936492"
    },
    {
      "type": "Feature",
      "properties": {
        "@id": "node/3790043246",
        "brand": "Casey's General Store",
        "brand:wikidata": "Q2940968",
        "brand:wikipedia": "en:Casey's",
        "name": "Casey's General Store",
        "shop": "convenience",
        "source": "Bing"
      },
      "geometry": {
        "type": "Point",
        "coordinates": [
          -97.0130119,
          42.2352189
        ]
      },
      "id": "node/3790043246"
    },
    {
      "type": "Feature",
      "properties": {
        "@id": "node/3790047396",
        "name": "Pac 'N' Save Discount Foods",
        "shop": "supermarket",
        "source": "Bing"
      },
      "geometry": {
        "type": "Point",
        "coordinates": [
          -97.0330589,
          42.234766
        ]
      },
      "id": "node/3790047396"
    },
    {
      "type": "Feature",
      "properties": {
        "@id": "node/3790047421",
        "name": "G's Quick Stop",
        "shop": "convenience",
        "source": "Bing"
      },
      "geometry": {
        "type": "Point",
        "coordinates": [
          -97.018186,
          42.2398914
        ]
      },
      "id": "node/3790047421"
    },
    {
      "type": "Feature",
      "properties": {
        "@id": "node/3790047432",
        "name": "Sinclair",
        "shop": "convenience"
      },
      "geometry": {
        "type": "Point",
        "coordinates": [
          -97.0172928,
          42.2348693
        ]
      },
      "id": "node/3790047432"
    },
    {
      "type": "Feature",
      "properties": {
        "@id": "node/3790755312",
        "brand": "Fareway",
        "brand:wikidata": "Q5434998",
        "brand:wikipedia": "en:Fareway",
        "name": "Fareway",
        "shop": "supermarket"
      },
      "geometry": {
        "type": "Point",
        "coordinates": [
          -96.0263891,
          41.175273
        ]
      },
      "id": "node/3790755312"
    },
    {
      "type": "Feature",
      "properties": {
        "@id": "node/3803148262",
        "shop": "convenience",
        "source": "Bing"
      },
      "geometry": {
        "type": "Point",
        "coordinates": [
          -97.4065693,
          42.018659
        ]
      },
      "id": "node/3803148262"
    },
    {
      "type": "Feature",
      "properties": {
        "@id": "node/3803170599",
        "shop": "convenience",
        "source": "Bing"
      },
      "geometry": {
        "type": "Point",
        "coordinates": [
          -97.4115718,
          42.0178439
        ]
      },
      "id": "node/3803170599"
    },
    {
      "type": "Feature",
      "properties": {
        "@id": "node/3803170601",
        "shop": "convenience",
        "source": "Bing"
      },
      "geometry": {
        "type": "Point",
        "coordinates": [
          -97.425951,
          42.0234691
        ]
      },
      "id": "node/3803170601"
    },
    {
      "type": "Feature",
      "properties": {
        "@id": "node/3803170602",
        "shop": "convenience",
        "source": "Bing"
      },
      "geometry": {
        "type": "Point",
        "coordinates": [
          -97.4270936,
          42.0207074
        ]
      },
      "id": "node/3803170602"
    },
    {
      "type": "Feature",
      "properties": {
        "@id": "node/3803170619",
        "shop": "convenience",
        "source": "Bing"
      },
      "geometry": {
        "type": "Point",
        "coordinates": [
          -97.4260905,
          42.0198187
        ]
      },
      "id": "node/3803170619"
    },
    {
      "type": "Feature",
      "properties": {
        "@id": "node/3803170627",
        "shop": "convenience",
        "source": "Bing"
      },
      "geometry": {
        "type": "Point",
        "coordinates": [
          -97.4257256,
          42.0226522
        ]
      },
      "id": "node/3803170627"
    },
    {
      "type": "Feature",
      "properties": {
        "@id": "node/3803170628",
        "shop": "convenience",
        "source": "Bing"
      },
      "geometry": {
        "type": "Point",
        "coordinates": [
          -97.4113732,
          42.018663
        ]
      },
      "id": "node/3803170628"
    },
    {
      "type": "Feature",
      "properties": {
        "@id": "node/3803239509",
        "shop": "convenience",
        "source": "Bing"
      },
      "geometry": {
        "type": "Point",
        "coordinates": [
          -97.4222308,
          42.0477136
        ]
      },
      "id": "node/3803239509"
    },
    {
      "type": "Feature",
      "properties": {
        "@id": "node/3804452641",
        "name": "Cat's Corner",
        "opening_hours": "Mo-Th 07:15-21:00; Fr 07:15-18:30",
        "shop": "convenience",
        "website": "https://www.wsc.edu/info/20006/campus_life/87/dining_on_campus"
      },
      "geometry": {
        "type": "Point",
        "coordinates": [
          -97.0130729,
          42.2423844
        ]
      },
      "id": "node/3804452641"
    },
    {
      "type": "Feature",
      "properties": {
        "@id": "node/3804505761",
        "shop": "convenience",
        "source": "Bing"
      },
      "geometry": {
        "type": "Point",
        "coordinates": [
          -97.3946495,
          42.0332784
        ]
      },
      "id": "node/3804505761"
    },
    {
      "type": "Feature",
      "properties": {
        "@id": "node/3804505766",
        "shop": "convenience",
        "source": "Bing"
      },
      "geometry": {
        "type": "Point",
        "coordinates": [
          -97.4032728,
          42.0322862
        ]
      },
      "id": "node/3804505766"
    },
    {
      "type": "Feature",
      "properties": {
        "@id": "node/3804531799",
        "shop": "convenience",
        "source": "Bing"
      },
      "geometry": {
        "type": "Point",
        "coordinates": [
          -97.4063976,
          42.0468878
        ]
      },
      "id": "node/3804531799"
    },
    {
      "type": "Feature",
      "properties": {
        "@id": "node/3804531801",
        "shop": "convenience",
        "source": "Bing"
      },
      "geometry": {
        "type": "Point",
        "coordinates": [
          -97.4137951,
          42.0438642
        ]
      },
      "id": "node/3804531801"
    },
    {
      "type": "Feature",
      "properties": {
        "@id": "node/3806093174",
        "shop": "convenience",
        "source": "Bing"
      },
      "geometry": {
        "type": "Point",
        "coordinates": [
          -97.3622578,
          41.4383449
        ]
      },
      "id": "node/3806093174"
    },
    {
      "type": "Feature",
      "properties": {
        "@id": "node/3806093183",
        "shop": "convenience",
        "source": "Bing"
      },
      "geometry": {
        "type": "Point",
        "coordinates": [
          -97.3643124,
          41.4392457
        ]
      },
      "id": "node/3806093183"
    },
    {
      "type": "Feature",
      "properties": {
        "@id": "node/3806093188",
        "shop": "convenience",
        "source": "Bing"
      },
      "geometry": {
        "type": "Point",
        "coordinates": [
          -97.3209572,
          41.4377698
        ]
      },
      "id": "node/3806093188"
    },
    {
      "type": "Feature",
      "properties": {
        "@id": "node/3806093190",
        "name": "Super Saver",
        "shop": "supermarket",
        "source": "Bing"
      },
      "geometry": {
        "type": "Point",
        "coordinates": [
          -97.3690277,
          41.4396439
        ]
      },
      "id": "node/3806093190"
    },
    {
      "type": "Feature",
      "properties": {
        "@id": "node/3806093194",
        "shop": "convenience",
        "source": "Bing"
      },
      "geometry": {
        "type": "Point",
        "coordinates": [
          -97.3677939,
          41.4392297
        ]
      },
      "id": "node/3806093194"
    },
    {
      "type": "Feature",
      "properties": {
        "@id": "node/3806093205",
        "shop": "convenience",
        "source": "Bing"
      },
      "geometry": {
        "type": "Point",
        "coordinates": [
          -97.3694676,
          41.4301545
        ]
      },
      "id": "node/3806093205"
    },
    {
      "type": "Feature",
      "properties": {
        "@id": "node/3806093215",
        "shop": "convenience",
        "source": "Bing"
      },
      "geometry": {
        "type": "Point",
        "coordinates": [
          -97.3676169,
          41.4420145
        ]
      },
      "id": "node/3806093215"
    },
    {
      "type": "Feature",
      "properties": {
        "@id": "node/3806212112",
        "shop": "convenience",
        "source": "Bing"
      },
      "geometry": {
        "type": "Point",
        "coordinates": [
          -96.416215,
          42.4205794
        ]
      },
      "id": "node/3806212112"
    },
    {
      "type": "Feature",
      "properties": {
        "@id": "node/3806229346",
        "name": "Crystal Cafe",
        "shop": "convenience",
        "source": "Bing"
      },
      "geometry": {
        "type": "Point",
        "coordinates": [
          -96.4145411,
          42.4446908
        ]
      },
      "id": "node/3806229346"
    },
    {
      "type": "Feature",
      "properties": {
        "@id": "node/3806229445",
        "shop": "convenience",
        "source": "Bing"
      },
      "geometry": {
        "type": "Point",
        "coordinates": [
          -96.4134201,
          42.4367998
        ]
      },
      "id": "node/3806229445"
    },
    {
      "type": "Feature",
      "properties": {
        "@id": "node/3806229461",
        "name": "Pony Express",
        "shop": "convenience",
        "source": "Bing"
      },
      "geometry": {
        "type": "Point",
        "coordinates": [
          -96.434041,
          42.4401115
        ]
      },
      "id": "node/3806229461"
    },
    {
      "type": "Feature",
      "properties": {
        "@id": "node/3806338563",
        "brand": "Casey's General Store",
        "brand:wikidata": "Q2940968",
        "name": "Casey's General Store",
        "shop": "convenience",
        "source": "Bing"
      },
      "geometry": {
        "type": "Point",
        "coordinates": [
          -96.4126986,
          42.4756993
        ]
      },
      "id": "node/3806338563"
    },
    {
      "type": "Feature",
      "properties": {
        "@id": "node/3806338613",
        "shop": "convenience",
        "source": "Bing"
      },
      "geometry": {
        "type": "Point",
        "coordinates": [
          -96.4134738,
          42.4813768
        ]
      },
      "id": "node/3806338613"
    },
    {
      "type": "Feature",
      "properties": {
        "@id": "node/3807847101",
        "addr:city": "Blair",
        "addr:housenumber": "238",
        "addr:postcode": "68008",
        "addr:street": "South 8th Street",
        "brand": "Family Fare",
        "brand:wikidata": "Q19868045",
        "brand:wikipedia": "en:Family Fare",
        "name": "Family Fare",
        "shop": "supermarket"
      },
      "geometry": {
        "type": "Point",
        "coordinates": [
          -96.1239562,
          41.5422887
        ]
      },
      "id": "node/3807847101"
    },
    {
      "type": "Feature",
      "properties": {
        "@id": "node/3807847106",
        "alt_name": "One Stop",
        "name": "Blair One Stop",
        "shop": "convenience",
        "source": "Bing"
      },
      "geometry": {
        "type": "Point",
        "coordinates": [
          -96.1339664,
          41.5440152
        ]
      },
      "id": "node/3807847106"
    },
    {
      "type": "Feature",
      "properties": {
        "@id": "node/3807847107",
        "name": "Quik Pik",
        "shop": "convenience",
        "source": "Bing"
      },
      "geometry": {
        "type": "Point",
        "coordinates": [
          -96.12756,
          41.5440353
        ]
      },
      "id": "node/3807847107"
    },
    {
      "type": "Feature",
      "properties": {
        "@id": "node/3807847110",
        "brand": "Casey's General Store",
        "brand:wikidata": "Q2940968",
        "brand:wikipedia": "en:Casey's General Stores",
        "name": "Casey's General Store",
        "shop": "convenience",
        "source": "Bing"
      },
      "geometry": {
        "type": "Point",
        "coordinates": [
          -96.1275559,
          41.5433487
        ]
      },
      "id": "node/3807847110"
    },
    {
      "type": "Feature",
      "properties": {
        "@id": "node/3807847116",
        "name": "Quik Pik",
        "shop": "convenience",
        "source": "Bing"
      },
      "geometry": {
        "type": "Point",
        "coordinates": [
          -96.1397895,
          41.5433828
        ]
      },
      "id": "node/3807847116"
    },
    {
      "type": "Feature",
      "properties": {
        "@id": "node/3807902542",
        "name": "Petro Mart Food Court",
        "shop": "convenience",
        "source": "Bing"
      },
      "geometry": {
        "type": "Point",
        "coordinates": [
          -96.1121412,
          41.5453582
        ]
      },
      "id": "node/3807902542"
    },
    {
      "type": "Feature",
      "properties": {
        "@id": "node/3807997233",
        "name": "Petromart",
        "shop": "convenience",
        "source": "Bing"
      },
      "geometry": {
        "type": "Point",
        "coordinates": [
          -96.1405539,
          41.539988
        ]
      },
      "id": "node/3807997233"
    },
    {
      "type": "Feature",
      "properties": {
        "@id": "node/3807997234",
        "shop": "supermarket",
        "source": "Bing"
      },
      "geometry": {
        "type": "Point",
        "coordinates": [
          -96.14057,
          41.5448864
        ]
      },
      "id": "node/3807997234"
    },
    {
      "type": "Feature",
      "properties": {
        "@id": "node/3807997237",
        "shop": "convenience",
        "source": "Bing"
      },
      "geometry": {
        "type": "Point",
        "coordinates": [
          -96.1424207,
          41.5332943
        ]
      },
      "id": "node/3807997237"
    },
    {
      "type": "Feature",
      "properties": {
        "@id": "node/3814821485",
        "shop": "convenience",
        "source": "Bing"
      },
      "geometry": {
        "type": "Point",
        "coordinates": [
          -96.4723528,
          41.4506719
        ]
      },
      "id": "node/3814821485"
    },
    {
      "type": "Feature",
      "properties": {
        "@id": "node/3814821491",
        "shop": "convenience",
        "source": "Bing"
      },
      "geometry": {
        "type": "Point",
        "coordinates": [
          -96.47371,
          41.4348985
        ]
      },
      "id": "node/3814821491"
    },
    {
      "type": "Feature",
      "properties": {
        "@id": "node/3814845652",
        "addr:city": "Fremont",
        "addr:postcode": "68025",
        "addr:state": "NE",
        "addr:street": "East 23rd Street",
        "name": "Hy-Vee Gas",
        "shop": "convenience"
      },
      "geometry": {
        "type": "Point",
        "coordinates": [
          -96.4857344,
          41.4521012
        ]
      },
      "id": "node/3814845652"
    },
    {
      "type": "Feature",
      "properties": {
        "@id": "node/3814845693",
        "shop": "convenience",
        "source": "Mapbox"
      },
      "geometry": {
        "type": "Point",
        "coordinates": [
          -96.4981905,
          41.4511644
        ]
      },
      "id": "node/3814845693"
    },
    {
      "type": "Feature",
      "properties": {
        "@id": "node/3814845696",
        "disused": "yes",
        "disused:shop": "convenience",
        "shop": "convenience"
      },
      "geometry": {
        "type": "Point",
        "coordinates": [
          -96.4969916,
          41.4511343
        ]
      },
      "id": "node/3814845696"
    },
    {
      "type": "Feature",
      "properties": {
        "@id": "node/3814845698",
        "shop": "convenience",
        "source": "Mapbox"
      },
      "geometry": {
        "type": "Point",
        "coordinates": [
          -96.5005321,
          41.4508568
        ]
      },
      "id": "node/3814845698"
    },
    {
      "type": "Feature",
      "properties": {
        "@id": "node/3816367377",
        "shop": "convenience",
        "source": "Mapbox"
      },
      "geometry": {
        "type": "Point",
        "coordinates": [
          -98.3840169,
          40.9318313
        ]
      },
      "id": "node/3816367377"
    },
    {
      "type": "Feature",
      "properties": {
        "@id": "node/3816367378",
        "shop": "convenience",
        "source": "Mapbox"
      },
      "geometry": {
        "type": "Point",
        "coordinates": [
          -98.3799882,
          40.9309336
        ]
      },
      "id": "node/3816367378"
    },
    {
      "type": "Feature",
      "properties": {
        "@id": "node/3816385419",
        "shop": "convenience",
        "source": "Mapbox"
      },
      "geometry": {
        "type": "Point",
        "coordinates": [
          -98.3853607,
          40.9389638
        ]
      },
      "id": "node/3816385419"
    },
    {
      "type": "Feature",
      "properties": {
        "@id": "node/3816393830",
        "shop": "convenience",
        "source": "Mapbox"
      },
      "geometry": {
        "type": "Point",
        "coordinates": [
          -98.3828931,
          40.946604
        ]
      },
      "id": "node/3816393830"
    },
    {
      "type": "Feature",
      "properties": {
        "@id": "node/3816393838",
        "shop": "convenience",
        "source": "Mapbox"
      },
      "geometry": {
        "type": "Point",
        "coordinates": [
          -98.3844836,
          40.9465736
        ]
      },
      "id": "node/3816393838"
    },
    {
      "type": "Feature",
      "properties": {
        "@id": "node/3816647206",
        "name": "Pump & Pantry",
        "shop": "convenience",
        "source": "Mapbox"
      },
      "geometry": {
        "type": "Point",
        "coordinates": [
          -98.359298,
          40.9406237
        ]
      },
      "id": "node/3816647206"
    },
    {
      "type": "Feature",
      "properties": {
        "@id": "node/3816647224",
        "name": "Casey's General Store",
        "shop": "convenience",
        "source": "Mapbox"
      },
      "geometry": {
        "type": "Point",
        "coordinates": [
          -98.3583673,
          40.9372137
        ]
      },
      "id": "node/3816647224"
    },
    {
      "type": "Feature",
      "properties": {
        "@id": "node/3816695676",
        "addr:city": "Grand Island",
        "addr:housenumber": "1404",
        "addr:postcode": "68801",
        "addr:street": "West 2nd Street",
        "brand": "Casey's General Store",
        "brand:wikidata": "Q2940968",
        "brand:wikipedia": "en:Casey's",
        "name": "Casey's General Store",
        "shop": "convenience",
        "source": "Mapbox"
      },
      "geometry": {
        "type": "Point",
        "coordinates": [
          -98.354285,
          40.9193177
        ]
      },
      "id": "node/3816695676"
    },
    {
      "type": "Feature",
      "properties": {
        "@id": "node/3816695717",
        "brand": "Casey's General Store",
        "brand:wikidata": "Q2940968",
        "brand:wikipedia": "en:Casey's",
        "name": "Casey's General Store",
        "shop": "convenience",
        "source": "Mapbox"
      },
      "geometry": {
        "type": "Point",
        "coordinates": [
          -98.3594133,
          40.9218694
        ]
      },
      "id": "node/3816695717"
    },
    {
      "type": "Feature",
      "properties": {
        "@id": "node/3816695720",
        "alt_name": "1-Stop",
        "name": "Conoco 1-Stop",
        "shop": "supermarket",
        "source": "Mapbox"
      },
      "geometry": {
        "type": "Point",
        "coordinates": [
          -98.3612533,
          40.9156573
        ]
      },
      "id": "node/3816695720"
    },
    {
      "type": "Feature",
      "properties": {
        "@id": "node/3818179075",
        "name": "Pump & Pantry",
        "shop": "convenience",
        "source": "Mapbox"
      },
      "geometry": {
        "type": "Point",
        "coordinates": [
          -98.3465767,
          40.922422
        ]
      },
      "id": "node/3818179075"
    },
    {
      "type": "Feature",
      "properties": {
        "@id": "node/3818179089",
        "shop": "convenience",
        "source": "Mapbox"
      },
      "geometry": {
        "type": "Point",
        "coordinates": [
          -98.3393831,
          40.9161005
        ]
      },
      "id": "node/3818179089"
    },
    {
      "type": "Feature",
      "properties": {
        "@id": "node/3818179143",
        "shop": "convenience",
        "source": "Mapbox"
      },
      "geometry": {
        "type": "Point",
        "coordinates": [
          -98.3393373,
          40.8974622
        ]
      },
      "id": "node/3818179143"
    },
    {
      "type": "Feature",
      "properties": {
        "@id": "node/3818179265",
        "shop": "convenience",
        "source": "Mapbox"
      },
      "geometry": {
        "type": "Point",
        "coordinates": [
          -98.340287,
          40.9087284
        ]
      },
      "id": "node/3818179265"
    },
    {
      "type": "Feature",
      "properties": {
        "@id": "node/3818179268",
        "shop": "convenience",
        "source": "Mapbox"
      },
      "geometry": {
        "type": "Point",
        "coordinates": [
          -98.3403058,
          40.906908
        ]
      },
      "id": "node/3818179268"
    },
    {
      "type": "Feature",
      "properties": {
        "@id": "node/3818179279",
        "addr:city": "Grand Island",
        "addr:housenumber": "802",
        "addr:postcode": "68801",
        "addr:state": "NE",
        "addr:street": "West 2nd Street",
        "name": "Smoker Friendly",
        "shop": "convenience",
        "source": "Mapbox"
      },
      "geometry": {
        "type": "Point",
        "coordinates": [
          -98.3475236,
          40.9219842
        ]
      },
      "id": "node/3818179279"
    },
    {
      "type": "Feature",
      "properties": {
        "@id": "node/3818179289",
        "addr:city": "Grand Island",
        "addr:country": "US",
        "addr:housenumber": "3501",
        "addr:postcode": "68803",
        "addr:state": "NE",
        "addr:street": "South Locust Street",
        "brand": "Walmart",
        "brand:wikidata": "Q483551",
        "brand:wikipedia": "en:Walmart",
        "name": "Walmart Supercenter",
        "opening_hours": "24/7",
        "operator": "Walmart",
        "phone": "+1-308-381-4970",
        "ref:walmart": "3395",
        "shop": "supermarket",
        "website": "https://www.walmart.com/store/3395/grand-island-ne/whats-new"
      },
      "geometry": {
        "type": "Point",
        "coordinates": [
          -98.336154,
          40.885365
        ]
      },
      "id": "node/3818179289"
    },
    {
      "type": "Feature",
      "properties": {
        "@id": "node/3818179303",
        "name": "Pump and Pantry",
        "shop": "convenience",
        "source": "Mapbox"
      },
      "geometry": {
        "type": "Point",
        "coordinates": [
          -98.340456,
          40.889965
        ]
      },
      "id": "node/3818179303"
    },
    {
      "type": "Feature",
      "properties": {
        "@id": "node/3823986881",
        "shop": "convenience",
        "source": "Bing"
      },
      "geometry": {
        "type": "Point",
        "coordinates": [
          -98.3842074,
          40.6168843
        ]
      },
      "id": "node/3823986881"
    },
    {
      "type": "Feature",
      "properties": {
        "@id": "node/3824090268",
        "shop": "convenience",
        "source": "Bing"
      },
      "geometry": {
        "type": "Point",
        "coordinates": [
          -98.3866456,
          40.6080821
        ]
      },
      "id": "node/3824090268"
    },
    {
      "type": "Feature",
      "properties": {
        "@id": "node/3824090274",
        "shop": "convenience",
        "source": "Bing"
      },
      "geometry": {
        "type": "Point",
        "coordinates": [
          -98.3801251,
          40.5847688
        ]
      },
      "id": "node/3824090274"
    },
    {
      "type": "Feature",
      "properties": {
        "@id": "node/3824090276",
        "shop": "convenience",
        "source": "Bing"
      },
      "geometry": {
        "type": "Point",
        "coordinates": [
          -98.3913716,
          40.6010749
        ]
      },
      "id": "node/3824090276"
    },
    {
      "type": "Feature",
      "properties": {
        "@id": "node/3824090278",
        "shop": "supermarket",
        "source": "Bing"
      },
      "geometry": {
        "type": "Point",
        "coordinates": [
          -98.3958375,
          40.5846608
        ]
      },
      "id": "node/3824090278"
    },
    {
      "type": "Feature",
      "properties": {
        "@id": "node/3824090280",
        "shop": "convenience",
        "source": "Bing"
      },
      "geometry": {
        "type": "Point",
        "coordinates": [
          -98.4152191,
          40.5858585
        ]
      },
      "id": "node/3824090280"
    },
    {
      "type": "Feature",
      "properties": {
        "@id": "node/3824090301",
        "shop": "convenience",
        "source": "Bing"
      },
      "geometry": {
        "type": "Point",
        "coordinates": [
          -98.3708393,
          40.5829253
        ]
      },
      "id": "node/3824090301"
    },
    {
      "type": "Feature",
      "properties": {
        "@id": "node/3824090302",
        "shop": "convenience",
        "source": "Bing"
      },
      "geometry": {
        "type": "Point",
        "coordinates": [
          -98.3930078,
          40.579287
        ]
      },
      "id": "node/3824090302"
    },
    {
      "type": "Feature",
      "properties": {
        "@id": "node/3824090308",
        "shop": "convenience",
        "source": "Bing"
      },
      "geometry": {
        "type": "Point",
        "coordinates": [
          -98.3929514,
          40.5759215
        ]
      },
      "id": "node/3824090308"
    },
    {
      "type": "Feature",
      "properties": {
        "@id": "node/3824090314",
        "shop": "convenience",
        "source": "Bing"
      },
      "geometry": {
        "type": "Point",
        "coordinates": [
          -98.3705308,
          40.5822612
        ]
      },
      "id": "node/3824090314"
    },
    {
      "type": "Feature",
      "properties": {
        "@id": "node/3824090318",
        "shop": "convenience",
        "source": "Bing"
      },
      "geometry": {
        "type": "Point",
        "coordinates": [
          -98.4093183,
          40.585005
        ]
      },
      "id": "node/3824090318"
    },
    {
      "type": "Feature",
      "properties": {
        "@id": "node/3824090319",
        "shop": "convenience",
        "source": "Bing"
      },
      "geometry": {
        "type": "Point",
        "coordinates": [
          -98.401623,
          40.5684831
        ]
      },
      "id": "node/3824090319"
    },
    {
      "type": "Feature",
      "properties": {
        "@id": "node/3824090321",
        "shop": "convenience",
        "source": "Bing"
      },
      "geometry": {
        "type": "Point",
        "coordinates": [
          -98.3921065,
          40.5731589
        ]
      },
      "id": "node/3824090321"
    },
    {
      "type": "Feature",
      "properties": {
        "@id": "node/3824090324",
        "shop": "convenience",
        "source": "Bing"
      },
      "geometry": {
        "type": "Point",
        "coordinates": [
          -98.3600434,
          40.5820839
        ]
      },
      "id": "node/3824090324"
    },
    {
      "type": "Feature",
      "properties": {
        "@id": "node/3824090328",
        "shop": "convenience",
        "source": "Bing"
      },
      "geometry": {
        "type": "Point",
        "coordinates": [
          -98.374519,
          40.5804135
        ]
      },
      "id": "node/3824090328"
    },
    {
      "type": "Feature",
      "properties": {
        "@id": "node/3824090330",
        "brand": "Casey's General Store",
        "brand:wikidata": "Q2940968",
        "brand:wikipedia": "en:Casey's",
        "name": "Casey's General Store",
        "shop": "convenience",
        "source": "Bing"
      },
      "geometry": {
        "type": "Point",
        "coordinates": [
          -98.391672,
          40.6028751
        ]
      },
      "id": "node/3824090330"
    },
    {
      "type": "Feature",
      "properties": {
        "@id": "node/3825984531",
        "addr:city": "Holdrege",
        "addr:housenumber": "214",
        "addr:postcode": "68949",
        "addr:street": "West 4th Avenue",
        "alt_name": "Sun Mart Foods",
        "name": "Sun Mart",
        "shop": "supermarket"
      },
      "geometry": {
        "type": "Point",
        "coordinates": [
          -99.3831383,
          40.4384734
        ]
      },
      "id": "node/3825984531"
    },
    {
      "type": "Feature",
      "properties": {
        "@id": "node/3825984533",
        "brand": "Casey's General Store",
        "brand:wikidata": "Q2940968",
        "brand:wikipedia": "en:Casey's General Stores",
        "name": "Casey's General Store",
        "shop": "convenience",
        "source": "Bing"
      },
      "geometry": {
        "type": "Point",
        "coordinates": [
          -99.385842,
          40.4384142
        ]
      },
      "id": "node/3825984533"
    },
    {
      "type": "Feature",
      "properties": {
        "@id": "node/3826026758",
        "addr:city": "Holdrege",
        "addr:housenumber": "1108",
        "addr:postcode": "68949",
        "addr:street": "4th Avenue",
        "name": "Pump 'N Pantry",
        "shop": "convenience",
        "source": "Bing"
      },
      "geometry": {
        "type": "Point",
        "coordinates": [
          -99.3676137,
          40.4375486
        ]
      },
      "id": "node/3826026758"
    },
    {
      "type": "Feature",
      "properties": {
        "@id": "node/3826026767",
        "name": "Sentry",
        "shop": "convenience"
      },
      "geometry": {
        "type": "Point",
        "coordinates": [
          -99.3660339,
          40.4377487
        ]
      },
      "id": "node/3826026767"
    },
    {
      "type": "Feature",
      "properties": {
        "@id": "node/3826136595",
        "brand": "Casey's General Store",
        "brand:wikidata": "Q2940968",
        "brand:wikipedia": "en:Casey's General Stores",
        "name": "Casey's General Store",
        "shop": "convenience",
        "source": "Bing"
      },
      "geometry": {
        "type": "Point",
        "coordinates": [
          -99.3788173,
          40.4468448
        ]
      },
      "id": "node/3826136595"
    },
    {
      "type": "Feature",
      "properties": {
        "@id": "node/3826136652",
        "name": "Holdrege Market Place",
        "shop": "supermarket",
        "source": "Bing"
      },
      "geometry": {
        "type": "Point",
        "coordinates": [
          -99.3803461,
          40.4494146
        ]
      },
      "id": "node/3826136652"
    },
    {
      "type": "Feature",
      "properties": {
        "@id": "node/3827699078",
        "brand": "Casey's General Store",
        "brand:wikidata": "Q2940968",
        "brand:wikipedia": "en:Casey's",
        "name": "Casey's General Store",
        "shop": "convenience",
        "source": "Bing"
      },
      "geometry": {
        "type": "Point",
        "coordinates": [
          -98.9523722,
          40.500898
        ]
      },
      "id": "node/3827699078"
    },
    {
      "type": "Feature",
      "properties": {
        "@id": "node/3827699082",
        "name": "Uncle Neal's",
        "shop": "convenience",
        "source": "Bing"
      },
      "geometry": {
        "type": "Point",
        "coordinates": [
          -98.9522595,
          40.5014731
        ]
      },
      "id": "node/3827699082"
    },
    {
      "type": "Feature",
      "properties": {
        "@id": "node/3827705757",
        "name": "Cubby's",
        "shop": "convenience"
      },
      "geometry": {
        "type": "Point",
        "coordinates": [
          -96.1783338,
          40.6687842
        ]
      },
      "id": "node/3827705757"
    },
    {
      "type": "Feature",
      "properties": {
        "@id": "node/3827980424",
        "name": "Mason's Supermarket",
        "shop": "supermarket",
        "source": "Bing"
      },
      "geometry": {
        "type": "Point",
        "coordinates": [
          -98.9514475,
          40.5019479
        ]
      },
      "id": "node/3827980424"
    },
    {
      "type": "Feature",
      "properties": {
        "@id": "node/3830150888",
        "shop": "convenience",
        "source": "Bing"
      },
      "geometry": {
        "type": "Point",
        "coordinates": [
          -99.0654567,
          40.7005596
        ]
      },
      "id": "node/3830150888"
    },
    {
      "type": "Feature",
      "properties": {
        "@id": "node/3830150911",
        "shop": "convenience",
        "source": "Bing"
      },
      "geometry": {
        "type": "Point",
        "coordinates": [
          -99.0579143,
          40.7010578
        ]
      },
      "id": "node/3830150911"
    },
    {
      "type": "Feature",
      "properties": {
        "@id": "node/3830176164",
        "brand": "Casey's General Store",
        "brand:wikidata": "Q2940968",
        "brand:wikipedia": "en:Casey's",
        "name": "Casey's General Store",
        "shop": "convenience",
        "source": "Bing"
      },
      "geometry": {
        "type": "Point",
        "coordinates": [
          -99.0794068,
          40.6999069
        ]
      },
      "id": "node/3830176164"
    },
    {
      "type": "Feature",
      "properties": {
        "@id": "node/3830176177",
        "shop": "convenience",
        "source": "Bing"
      },
      "geometry": {
        "type": "Point",
        "coordinates": [
          -99.0798521,
          40.7006511
        ]
      },
      "id": "node/3830176177"
    },
    {
      "type": "Feature",
      "properties": {
        "@id": "node/3830182913",
        "shop": "convenience",
        "source": "Bing"
      },
      "geometry": {
        "type": "Point",
        "coordinates": [
          -99.0980026,
          40.6990081
        ]
      },
      "id": "node/3830182913"
    },
    {
      "type": "Feature",
      "properties": {
        "@id": "node/3830209853",
        "shop": "convenience",
        "source": "Bing"
      },
      "geometry": {
        "type": "Point",
        "coordinates": [
          -99.0843153,
          40.6864988
        ]
      },
      "id": "node/3830209853"
    },
    {
      "type": "Feature",
      "properties": {
        "@id": "node/3830211687",
        "brand": "Casey's General Store",
        "brand:wikidata": "Q2940968",
        "brand:wikipedia": "en:Casey's",
        "name": "Casey's General Store",
        "shop": "convenience",
        "source": "Bing"
      },
      "geometry": {
        "type": "Point",
        "coordinates": [
          -99.117584,
          40.6988676
        ]
      },
      "id": "node/3830211687"
    },
    {
      "type": "Feature",
      "properties": {
        "@id": "node/3830211709",
        "shop": "convenience",
        "source": "Bing"
      },
      "geometry": {
        "type": "Point",
        "coordinates": [
          -99.1234621,
          40.698823
        ]
      },
      "id": "node/3830211709"
    },
    {
      "type": "Feature",
      "properties": {
        "@id": "node/3830211713",
        "shop": "convenience",
        "source": "Bing"
      },
      "geometry": {
        "type": "Point",
        "coordinates": [
          -99.0850877,
          40.6910342
        ]
      },
      "id": "node/3830211713"
    },
    {
      "type": "Feature",
      "properties": {
        "@id": "node/3830211722",
        "shop": "convenience",
        "source": "Bing"
      },
      "geometry": {
        "type": "Point",
        "coordinates": [
          -99.0870216,
          40.6661467
        ]
      },
      "id": "node/3830211722"
    },
    {
      "type": "Feature",
      "properties": {
        "@id": "node/3831855365",
        "shop": "convenience",
        "source": "Bing"
      },
      "geometry": {
        "type": "Point",
        "coordinates": [
          -99.0848079,
          40.7286852
        ]
      },
      "id": "node/3831855365"
    },
    {
      "type": "Feature",
      "properties": {
        "@id": "node/3835410617",
        "shop": "convenience",
        "source": "Bing"
      },
      "geometry": {
        "type": "Point",
        "coordinates": [
          -99.0900194,
          40.7143237
        ]
      },
      "id": "node/3835410617"
    },
    {
      "type": "Feature",
      "properties": {
        "@id": "node/3835410620",
        "addr:city": "Kearney",
        "addr:housenumber": "1308",
        "addr:postcode": "68847",
        "addr:state": "NE",
        "addr:street": "East 39th Street",
        "brand": "Casey's General Store",
        "brand:wikidata": "Q2940968",
        "brand:wikipedia": "en:Casey's",
        "name": "Casey's General Store",
        "shop": "convenience",
        "source": "Bing"
      },
      "geometry": {
        "type": "Point",
        "coordinates": [
          -99.0641816,
          40.7143481
        ]
      },
      "id": "node/3835410620"
    },
    {
      "type": "Feature",
      "properties": {
        "@id": "node/3837985805",
        "shop": "convenience",
        "source": "Bing"
      },
      "geometry": {
        "type": "Point",
        "coordinates": [
          -99.1035145,
          40.7143631
        ]
      },
      "id": "node/3837985805"
    },
    {
      "type": "Feature",
      "properties": {
        "@id": "node/3838065503",
        "amenity": "fuel",
        "name": "Mega Saver",
        "shop": "convenience",
        "wheelchair": "yes"
      },
      "geometry": {
        "type": "Point",
        "coordinates": [
          -95.9669608,
          41.1384885
        ]
      },
      "id": "node/3838065503"
    },
    {
      "type": "Feature",
      "properties": {
        "@id": "node/3845430616",
        "addr:city": "Cozad",
        "addr:housenumber": "510",
        "addr:postcode": "69130",
        "addr:state": "NE",
        "addr:street": "South Meridian Avenue",
        "brand": "Casey's General Store",
        "brand:wikidata": "Q2940968",
        "brand:wikipedia": "en:Casey's",
        "name": "Casey's General Store",
        "opening_hours": "24/7",
        "phone": "+1 308 784 4939",
        "shop": "convenience",
        "source": "Maxar",
        "website": "https://www.caseys.com/general-store/ne-cozad/510-s-meridian-ave/2734"
      },
      "geometry": {
        "type": "Point",
        "coordinates": [
          -99.9855066,
          40.8487669
        ]
      },
      "id": "node/3845430616"
    },
    {
      "type": "Feature",
      "properties": {
        "@id": "node/3860517056",
        "shop": "convenience",
        "source": "Bing"
      },
      "geometry": {
        "type": "Point",
        "coordinates": [
          -100.7651461,
          41.1051284
        ]
      },
      "id": "node/3860517056"
    },
    {
      "type": "Feature",
      "properties": {
        "@id": "node/3860521775",
        "shop": "convenience",
        "source": "Bing"
      },
      "geometry": {
        "type": "Point",
        "coordinates": [
          -100.7650924,
          41.1072525
        ]
      },
      "id": "node/3860521775"
    },
    {
      "type": "Feature",
      "properties": {
        "@id": "node/3860521780",
        "addr:city": "North Platte",
        "addr:housenumber": "102",
        "addr:state": "IA",
        "addr:street": "Holiday Frontage Road",
        "name": "Fat Dogs",
        "shop": "convenience",
        "source": "Bing",
        "website": "https://fatdogs.com/locations/"
      },
      "geometry": {
        "type": "Point",
        "coordinates": [
          -100.764923,
          41.1085601
        ]
      },
      "id": "node/3860521780"
    },
    {
      "type": "Feature",
      "properties": {
        "@id": "node/3860575047",
        "shop": "convenience",
        "source": "Bing"
      },
      "geometry": {
        "type": "Point",
        "coordinates": [
          -100.7644434,
          41.1328777
        ]
      },
      "id": "node/3860575047"
    },
    {
      "type": "Feature",
      "properties": {
        "@id": "node/3860575053",
        "shop": "convenience",
        "source": "Bing"
      },
      "geometry": {
        "type": "Point",
        "coordinates": [
          -100.7620723,
          41.1437495
        ]
      },
      "id": "node/3860575053"
    },
    {
      "type": "Feature",
      "properties": {
        "@id": "node/3860575054",
        "shop": "convenience",
        "source": "Bing"
      },
      "geometry": {
        "type": "Point",
        "coordinates": [
          -100.7908524,
          41.1487101
        ]
      },
      "id": "node/3860575054"
    },
    {
      "type": "Feature",
      "properties": {
        "@id": "node/3860576359",
        "shop": "convenience",
        "source": "Bing"
      },
      "geometry": {
        "type": "Point",
        "coordinates": [
          -100.7555384,
          41.1351726
        ]
      },
      "id": "node/3860576359"
    },
    {
      "type": "Feature",
      "properties": {
        "@id": "node/3860576363",
        "shop": "convenience",
        "source": "Bing"
      },
      "geometry": {
        "type": "Point",
        "coordinates": [
          -100.7625578,
          41.1211777
        ]
      },
      "id": "node/3860576363"
    },
    {
      "type": "Feature",
      "properties": {
        "@id": "node/3860576367",
        "shop": "convenience",
        "source": "Bing"
      },
      "geometry": {
        "type": "Point",
        "coordinates": [
          -100.7468695,
          41.1347383
        ]
      },
      "id": "node/3860576367"
    },
    {
      "type": "Feature",
      "properties": {
        "@id": "node/3860576386",
        "shop": "convenience",
        "source": "Bing"
      },
      "geometry": {
        "type": "Point",
        "coordinates": [
          -100.7667447,
          41.1466298
        ]
      },
      "id": "node/3860576386"
    },
    {
      "type": "Feature",
      "properties": {
        "@id": "node/3860576398",
        "shop": "convenience",
        "source": "Bing"
      },
      "geometry": {
        "type": "Point",
        "coordinates": [
          -100.7634509,
          41.123182
        ]
      },
      "id": "node/3860576398"
    },
    {
      "type": "Feature",
      "properties": {
        "@id": "node/3860576401",
        "shop": "convenience",
        "source": "Bing"
      },
      "geometry": {
        "type": "Point",
        "coordinates": [
          -100.7619087,
          41.1451675
        ]
      },
      "id": "node/3860576401"
    },
    {
      "type": "Feature",
      "properties": {
        "@id": "node/3861605560",
        "addr:city": "Gothenburg",
        "addr:housenumber": "416",
        "addr:postcode": "69138",
        "addr:state": "NE",
        "addr:street": "Platte River Road",
        "alt_name": "Plaza Shell",
        "brand": "Shell",
        "brand:wikidata": "Q110716465",
        "brand:wikipedia": "en:Royal Dutch Shell",
        "name": "Shell",
        "shop": "convenience",
        "source": "Bing"
      },
      "geometry": {
        "type": "Point",
        "coordinates": [
          -100.167548,
          40.9175235
        ]
      },
      "id": "node/3861605560"
    },
    {
      "type": "Feature",
      "properties": {
        "@id": "node/3861605564",
        "name": "Sinclair",
        "shop": "convenience",
        "source": "Bing"
      },
      "geometry": {
        "type": "Point",
        "coordinates": [
          -100.166086,
          40.9172087
        ]
      },
      "id": "node/3861605564"
    },
    {
      "type": "Feature",
      "properties": {
        "@id": "node/3861605565",
        "addr:city": "Gothenburg",
        "addr:housenumber": "1102",
        "addr:postcode": "69138",
        "addr:state": "NE",
        "addr:street": "South Lake Avenue",
        "alt_name": "Sinclair",
        "name": "KOA",
        "phone": "308-537-7387",
        "shop": "convenience",
        "source": "Bing"
      },
      "geometry": {
        "type": "Point",
        "coordinates": [
          -100.1676159,
          40.910616
        ]
      },
      "id": "node/3861605565"
    },
    {
      "type": "Feature",
      "properties": {
        "@id": "node/3861906969",
        "name": "Ampride",
        "shop": "convenience",
        "source": "Bing"
      },
      "geometry": {
        "type": "Point",
        "coordinates": [
          -100.1657533,
          40.9285361
        ]
      },
      "id": "node/3861906969"
    },
    {
      "type": "Feature",
      "properties": {
        "@id": "node/3861906987",
        "name": "Time Saver",
        "shop": "convenience",
        "source": "Bing"
      },
      "geometry": {
        "type": "Point",
        "coordinates": [
          -100.1608476,
          40.9264893
        ]
      },
      "id": "node/3861906987"
    },
    {
      "type": "Feature",
      "properties": {
        "@id": "node/3879214385",
        "brand": "Maverik",
        "brand:wikidata": "Q64149010",
        "brand:wikipedia": "en:Maverik, Inc.",
        "name": "Maverik",
        "shop": "convenience",
        "source": "Mapbox"
      },
      "geometry": {
        "type": "Point",
        "coordinates": [
          -103.676517,
          41.8817787
        ]
      },
      "id": "node/3879214385"
    },
    {
      "type": "Feature",
      "properties": {
        "@id": "node/3879214423",
        "alt_name": "Ampride Convenience Mart",
        "name": "Ampride",
        "shop": "convenience",
        "source": "Mapbox"
      },
      "geometry": {
        "type": "Point",
        "coordinates": [
          -103.6663223,
          41.8793024
        ]
      },
      "id": "node/3879214423"
    },
    {
      "type": "Feature",
      "properties": {
        "@id": "node/3879218232",
        "shop": "convenience",
        "source": "Mapbox"
      },
      "geometry": {
        "type": "Point",
        "coordinates": [
          -103.665354,
          41.8743895
        ]
      },
      "id": "node/3879218232"
    },
    {
      "type": "Feature",
      "properties": {
        "@id": "node/3879218236",
        "shop": "convenience",
        "source": "Mapbox"
      },
      "geometry": {
        "type": "Point",
        "coordinates": [
          -103.6714453,
          41.8735787
        ]
      },
      "id": "node/3879218236"
    },
    {
      "type": "Feature",
      "properties": {
        "@id": "node/3879236904",
        "shop": "convenience",
        "source": "Mapbox"
      },
      "geometry": {
        "type": "Point",
        "coordinates": [
          -103.6758093,
          41.8588814
        ]
      },
      "id": "node/3879236904"
    },
    {
      "type": "Feature",
      "properties": {
        "@id": "node/3879273493",
        "name": "Loaf 'N Jug",
        "shop": "convenience",
        "source": "Mapbox"
      },
      "geometry": {
        "type": "Point",
        "coordinates": [
          -103.6609874,
          41.8291469
        ]
      },
      "id": "node/3879273493"
    },
    {
      "type": "Feature",
      "properties": {
        "@id": "node/3879273499",
        "name": "Pony Express Station",
        "shop": "convenience",
        "source": "Mapbox"
      },
      "geometry": {
        "type": "Point",
        "coordinates": [
          -103.6648444,
          41.8139937
        ]
      },
      "id": "node/3879273499"
    },
    {
      "type": "Feature",
      "properties": {
        "@id": "node/3879273529",
        "alt_name": "Cyclone Express Mart",
        "name": "Shell Food Mart",
        "shop": "convenience",
        "source": "Mapbox"
      },
      "geometry": {
        "type": "Point",
        "coordinates": [
          -103.6599628,
          41.8386336
        ]
      },
      "id": "node/3879273529"
    },
    {
      "type": "Feature",
      "properties": {
        "@id": "node/3879273533",
        "shop": "convenience",
        "source": "Mapbox"
      },
      "geometry": {
        "type": "Point",
        "coordinates": [
          -103.6408279,
          41.8665001
        ]
      },
      "id": "node/3879273533"
    },
    {
      "type": "Feature",
      "properties": {
        "@id": "node/3889999843",
        "name": "Prime Stop",
        "shop": "convenience",
        "source": "Bing"
      },
      "geometry": {
        "type": "Point",
        "coordinates": [
          -96.9233253,
          41.9914879
        ]
      },
      "id": "node/3889999843"
    },
    {
      "type": "Feature",
      "properties": {
        "@id": "node/3890015040",
        "name": "Bob & Tim's Sinclair",
        "shop": "convenience",
        "source": "Bing"
      },
      "geometry": {
        "type": "Point",
        "coordinates": [
          -96.9119876,
          41.9863962
        ]
      },
      "id": "node/3890015040"
    },
    {
      "type": "Feature",
      "properties": {
        "@id": "node/3890015044",
        "alt_name": "Food Town",
        "name": "Arvid's Food Town",
        "shop": "supermarket",
        "source": "Bing"
      },
      "geometry": {
        "type": "Point",
        "coordinates": [
          -96.9135647,
          41.9865338
        ]
      },
      "id": "node/3890015044"
    },
    {
      "type": "Feature",
      "properties": {
        "@id": "node/3891099027",
        "addr:city": "Beemer",
        "addr:housenumber": "5",
        "addr:postcode": "68716",
        "addr:state": "NE",
        "addr:street": "Blaine Street",
        "name": "Pronto",
        "phone": "402-528-3207",
        "shop": "convenience",
        "source": "Bing"
      },
      "geometry": {
        "type": "Point",
        "coordinates": [
          -96.8071578,
          41.9267082
        ]
      },
      "id": "node/3891099027"
    },
    {
      "type": "Feature",
      "properties": {
        "@id": "node/3891110387",
        "addr:city": "Beemer",
        "addr:postcode": "68716",
        "addr:state": "NE",
        "name": "Village Express",
        "shop": "convenience",
        "source": "Bing"
      },
      "geometry": {
        "type": "Point",
        "coordinates": [
          -96.8133886,
          41.9296156
        ]
      },
      "id": "node/3891110387"
    },
    {
      "type": "Feature",
      "properties": {
        "@id": "node/3891205074",
        "shop": "supermarket",
        "source": "Bing"
      },
      "geometry": {
        "type": "Point",
        "coordinates": [
          -96.7111133,
          41.8478927
        ]
      },
      "id": "node/3891205074"
    },
    {
      "type": "Feature",
      "properties": {
        "@id": "node/3891205076",
        "shop": "convenience",
        "source": "Bing"
      },
      "geometry": {
        "type": "Point",
        "coordinates": [
          -96.7105232,
          41.838743
        ]
      },
      "id": "node/3891205076"
    },
    {
      "type": "Feature",
      "properties": {
        "@id": "node/3891205093",
        "shop": "convenience",
        "source": "Bing"
      },
      "geometry": {
        "type": "Point",
        "coordinates": [
          -96.7114352,
          41.83762
        ]
      },
      "id": "node/3891205093"
    },
    {
      "type": "Feature",
      "properties": {
        "@id": "node/3907066782",
        "amenity": "fuel",
        "name": "Kum N Go",
        "shop": "convenience"
      },
      "geometry": {
        "type": "Point",
        "coordinates": [
          -95.9342772,
          41.1044275
        ]
      },
      "id": "node/3907066782"
    },
    {
      "type": "Feature",
      "properties": {
        "@id": "node/3910190987",
        "addr:city": "Kimball",
        "addr:housenumber": "1700",
        "addr:postcode": "69145",
        "addr:state": "NE",
        "addr:street": "Old Highway 71",
        "name": "Travel Shoppe",
        "opening_hours": "Mo-Su 06:00-21:00",
        "shop": "convenience",
        "source": "Bing"
      },
      "geometry": {
        "type": "Point",
        "coordinates": [
          -103.663941,
          41.2192505
        ]
      },
      "id": "node/3910190987"
    },
    {
      "type": "Feature",
      "properties": {
        "@id": "node/3910226439",
        "name": "Kwik Stop",
        "shop": "convenience",
        "source": "Bing"
      },
      "geometry": {
        "type": "Point",
        "coordinates": [
          -103.6635467,
          41.2359395
        ]
      },
      "id": "node/3910226439"
    },
    {
      "type": "Feature",
      "properties": {
        "@id": "node/3910226454",
        "name": "Vince's Corner",
        "shop": "convenience",
        "source": "Bing"
      },
      "geometry": {
        "type": "Point",
        "coordinates": [
          -103.6626166,
          41.2353858
        ]
      },
      "id": "node/3910226454"
    },